PKANCODE,COMMUNE_NL,STREET_NL,HUISNR,LAT,LON
1840,Londerzeel,Holle Eikstraat,26,51.0149465151,4.30640223393
1840,Londerzeel,Brusselsestraat,103,50.9962369393,4.30167412513
1840,Londerzeel,Linde,33,51.0030093539,4.29403199336
1840,Londerzeel,Schuurveld,16,50.994488763,4.2937506013
1840,Londerzeel,Sint Genovevastraat,17,50.9949102916,4.26732498592
1840,Londerzeel,Mattestraat,73,51.0084570037,4.23457914406
1840,Londerzeel,Sneppelaar,77,51.0215457196,4.27840491275
1840,Londerzeel,Over de Beek,50,50.9899952658,4.27968943973
1840,Londerzeel,Pikstraat,10,51.0154509234,4.29542797327
1840,Londerzeel,Hoge Donk,21,51.034202582,4.30104719134
1840,Londerzeel,Tramstraat,5,51.0024572635,4.29787857875
1840,Londerzeel,Edward Van Esbroeckstraat,9,51.004987127,4.3059909146
1840,Londerzeel,Mechelsestraat,98,51.0050277656,4.30808650011
1840,Londerzeel,Egmont en Hoornstraat,21,51.0122779604,4.29931232912
1840,Londerzeel,Jan Hammeneckerstraat,60,51.0271305409,4.29943947744
1840,Londerzeel,Topmolen,16,51.0226712397,4.29362934376
1840,Londerzeel,Steenhuffelstraat,78,51.0145891291,4.24666041715
1840,Londerzeel,Drietorenstraat,25,51.0040904191,4.28506034534
1840,Londerzeel,Bontestraat,19,50.9776661134,4.25738860711
1840,Londerzeel,Breendonkstraat,103,51.0278910637,4.30550284826
1840,Londerzeel,Hageveld,22,51.0157318149,4.3064325514
1840,Londerzeel,Watermolenstraat,24,51.001131905,4.27770688157
1840,Londerzeel,Lakeman,94,50.9955981,4.27945395276
1840,Londerzeel,Handelsstraat,130,51.015080933,4.23018410984
1840,Londerzeel,Merelstraat,1,51.0114440608,4.3018490699
1840,Londerzeel,Handelsstraat,6,51.0155032675,4.23925532529
1840,Londerzeel,Lemmeken,25,51.0149852754,4.24296697671
1840,Londerzeel,Breendonkstraat,121,51.0276791347,4.30710658854
1840,Londerzeel,Brusselsestraat,85,50.9975560992,4.3018478976
1840,Londerzeel,Meerstraat,81,51.006996066,4.30713535327
1840,Londerzeel,Topmolen,34,51.0230960008,4.29424681372
1840,Londerzeel,St.-Niklaasstraat,68,50.9909375883,4.26653619979
1840,Londerzeel,Breendonkstraat,85,51.0270659534,4.30348971319
1840,Londerzeel,Brusselsestraat,121,50.995391383,4.30081182769
1840,Londerzeel,Molenstraat,73,51.0038702181,4.2972102734
1840,Londerzeel,Zavel,15,51.0404254387,4.27865006589
1840,Londerzeel,Haan,71,50.9969174291,4.24437517223
1840,Londerzeel,Gildenstraat,43,51.0024406705,4.30509376449
1840,Londerzeel,Handelsstraat,112,51.0150906858,4.2313011706
1840,Londerzeel,Zandvat,8,51.0147748721,4.24358956458
1840,Londerzeel,Meerstraat,224,51.0147913311,4.31401694173
1840,Londerzeel,L. Van Hoeymissenstraat,8,51.0194829668,4.24264356253
1840,Londerzeel,Achterheide,14,51.0336919896,4.29823292231
1840,Londerzeel,Jozef Vermaesenplein,13,51.0202655031,4.2426805173
1840,Londerzeel,Lunderstraat,73,51.0105086986,4.30370447128
1840,Londerzeel,Mechelsestraat,134,51.0060527648,4.30982439712
1840,Londerzeel,Polderstraat,75,50.9978905206,4.29969384202
1840,Londerzeel,Molenheide,30,51.0136696515,4.23751830851
1840,Londerzeel,Bergboslaan,75,51.0085959053,4.31855323188
1840,Londerzeel,Bergboslaan,5,51.0077793804,4.32017724548
1840,Londerzeel,Kouterbaan,56,51.0199813099,4.25366549497
1840,Londerzeel,Handelsstraat,94,51.0149600359,4.23235508177
1840,Londerzeel,Meerstraat,259,51.0173689427,4.31581074355
1840,Londerzeel,Bergstraat,25,51.0051298947,4.32141021281
1840,Londerzeel,Hoogveld,16,50.9939883242,4.29919301974
1840,Londerzeel,Kievitstraat,22,51.0126526792,4.30655957716
1840,Londerzeel,Hendolfstraat,9,50.9997484803,4.30810465453
1840,Londerzeel,Ebbing,27,50.9916554207,4.26453090131
1840,Londerzeel,Stationsstraat,51,51.0066918952,4.30168694981
1840,Londerzeel,Handelsstraat,147,51.014656705,4.22832598258
1840,Londerzeel,Bergboslaan,57,51.0083243081,4.31910891875
1840,Londerzeel,Sint Jozefstraat,46,51.0290313028,4.29603468118
1840,Londerzeel,Veldstraat,10,51.0181939208,4.25328991993
1840,Londerzeel,Brusselsestraat,49,50.9993466504,4.30202799578
1840,Londerzeel,Maldersesteenweg,63,51.0323117476,4.28320769077
1840,Londerzeel,Molenheide,12,51.0120647908,4.24018287498
1840,Londerzeel,Ursene,4,51.0111699901,4.28744679584
1840,Londerzeel,Kouterbaan,21,51.0205828365,4.2482234395
1840,Londerzeel,Meerstraat,17,51.0047512231,4.30392281236
1840,Londerzeel,Maldersesteenweg,45,51.0330884484,4.28619987333
1840,Londerzeel,Meerstraat,206,51.0145140637,4.31295077581
1840,Londerzeel,Zwaluwstraat,16,51.0143111704,4.22378519849
1840,Londerzeel,Molenheide,65,51.013395041,4.23663486821
1840,Londerzeel,Heide,11,51.0055652146,4.25444598456
1840,Londerzeel,Breendonkstraat,49,51.0262598792,4.29977457708
1840,Londerzeel,Meerstraat,63,51.006055577,4.30600488638
1840,Londerzeel,Nachtegaalstraat,12,51.0106876852,4.30210633697
1840,Londerzeel,Kerkhofstraat,108,51.001407565,4.30946632258
1840,Londerzeel,Robbroekstraat,23,50.9892479443,4.26360817604
1840,Londerzeel,Maldersesteenweg,17,51.0340055969,4.28909668736
1840,Londerzeel,Drietorenstraat,1,51.0025156564,4.28498477911
1840,Londerzeel,Moorhoek,5,51.0122758122,4.27800571472
1840,Londerzeel,Lijsterstraat,8,51.0116248627,4.30352482106
1840,Londerzeel,Meerstraat,187,51.0128465311,4.31301044909
1840,Londerzeel,Vinkenstraat,41,51.0151030272,4.30816750895
1840,Londerzeel,Beekstraat,24,51.0117347182,4.26369682048
1840,Londerzeel,Bloemstraat,52,51.0295933479,4.29225130428
1840,Londerzeel,Bouw,13,51.0042897693,4.23595062026
1840,Londerzeel,Kerkhofstraat,154,50.9998911218,4.31265756085
1840,Londerzeel,Ebbing,3,50.9907707112,4.26504389477
1840,Londerzeel,Stationsstraat,23,51.0055629205,4.30242443227
1840,Londerzeel,Linde,15,51.0030971935,4.29550126355
1840,Londerzeel,Bouwdreef,24,51.0099503463,4.24223691815
1840,Londerzeel,Polderstraat,57,50.9996011315,4.29768484211
1840,Londerzeel,Acacialaan,24,51.0023885793,4.31212292716
1840,Londerzeel,Zwaluwstraat,69,51.0124612592,4.23322029014
1840,Londerzeel,Over de Beek,39,50.986754229,4.28322608763
1840,Londerzeel,Bergstraat,1,51.006703177,4.32282559322
1840,Londerzeel,Brouwerijstraat,27B,50.99835547,4.26978158946
1840,Londerzeel,Meerstraat,45,51.0055040513,4.30524152503
1840,Londerzeel,Berkenlaan,2,50.9995310115,4.30250054929
1840,Londerzeel,Breendonkstraat,67,51.0260418265,4.30153850809
1840,Londerzeel,A. Lambertsstraat,8,51.01346342,4.30259162727
1840,Londerzeel,Vinkenstraat,13,51.0145262241,4.31111519121
1840,Londerzeel,Chrysantenlaan,86,51.0064547801,4.29784352442
1840,Londerzeel,Sint Jozefstraat,117,51.0304879009,4.29740021504
1840,Londerzeel,Koeisteert,37,51.0339003453,4.29338296623
1840,Londerzeel,Lunderstraat,20,51.0100794949,4.30132706798
1840,Londerzeel,Jan Hammeneckerstraat,14,51.0288337994,4.29749508086
1840,Londerzeel,Kerkhofstraat,37,51.0024940407,4.30555257436
1840,Londerzeel,Meerstraat,314,51.023976243,4.31560240265
1840,Londerzeel,Mattestraat,20,51.0109710803,4.22808747464
1840,Londerzeel,Polderstraat,22,51.000748133,4.29827561147
1840,Londerzeel,Deisels,31,51.0105853699,4.30689728587
1840,Londerzeel,Handelsstraat,41,51.0148669156,4.23655820391
1840,Londerzeel,Molenstraat,20,51.00369006,4.30101746582
1840,Londerzeel,Nieuwstraat,27,51.0299892041,4.29506472808
1840,Londerzeel,Hoefsmidstraat,26,51.0163070125,4.24431356479
1840,Londerzeel,Broekveld,57,51.0233695156,4.30097047753
1840,Londerzeel,Klein Holland,5,51.0096726774,4.29919090633
1840,Londerzeel,Kattestraat,2,49.2933351651,2.30668956214
1840,Londerzeel,Brusselsestraat,115A,50.9957170138,4.30089070219
1840,Londerzeel,Heerbaan,163,50.9815877449,4.2530040416
1840,Londerzeel,Neringstraat,20,51.0137904731,4.32712124803
1840,Londerzeel,de Spoelberchstraat,7,51.011104451,4.29887489185
1840,Londerzeel,Kasteelstraat,90,51.0077795212,4.29579792427
1840,Londerzeel,St.-Niklaasstraat,15,50.9945138185,4.2688496762
1840,Londerzeel,Hoefsmidstraat,2,51.0165290704,4.24632334416
1840,Londerzeel,Breendonkstraat,32,51.0249041619,4.29705216377
1840,Londerzeel,Meir,4,50.9942784556,4.25733242084
1840,Londerzeel,Molenhoek,19,51.022467658,4.31925818222
1840,Londerzeel,Sneppelaar,7,51.0159101368,4.28339786775
1840,Londerzeel,Linde,104,51.0029088529,4.28878338824
1840,Londerzeel,Deisels,13,51.0117820789,4.30793322069
1840,Londerzeel,Bosweg,3,51.0042316761,4.2955975264
1840,Londerzeel,Meerstraat,35,51.0052773955,4.30466224459
1840,Londerzeel,Brusselsestraat,32,50.9999888646,4.30256914318
1840,Londerzeel,Heerbaan,145,50.9823532924,4.25395826596
1840,Londerzeel,Chrysantenlaan,68,51.005404905,4.29702786468
1840,Londerzeel,Klein Holland,29,51.0105755099,4.29837667256
1840,Londerzeel,L. Van Hoeymissenstraat,61,51.0160072438,4.24095461586
1840,Londerzeel,Kasteelstraat,72,51.0074396716,4.29717338656
1840,Londerzeel,Klein Holland,111,51.0144584457,4.29572677146
1840,Londerzeel,Handelsstraat,220,51.0149014771,4.2242948253
1840,Londerzeel,Meir,28,51.0000572077,4.24949937115
1840,Londerzeel,Gildenstraat,33,51.0021787001,4.30470618544
1840,Londerzeel,Maldersesteenweg,35,51.0332927067,4.28741312369
1840,Londerzeel,Bergboslaan,29,51.0087597635,4.32093084178
1840,Londerzeel,Topmolen,69,51.0242981505,4.29562405768
1840,Londerzeel,Lakeman,41,50.9999669557,4.28470039365
1840,Londerzeel,Berreweide,9,51.0110542089,4.30615058764
1840,Londerzeel,Tulpenstraat,17,51.0114909919,4.29560638765
1840,Londerzeel,Meerstraat,152,51.0112076289,4.30908059175
1840,Londerzeel,Holstraat,62,51.0197287174,4.23686108516
1840,Londerzeel,St.-Niklaasstraat,86,50.9907817737,4.26639396488
1840,Londerzeel,Valkenstraat,3,51.0118969585,4.30047592581
1840,Londerzeel,Blauwenhoek,52,51.0172890818,4.29129901334
1840,Londerzeel,Karreveld,28,51.0221814454,4.24286508925
1840,Londerzeel,Burchtlaan,39,51.002158557,4.2986380774
1840,Londerzeel,Meerstraat,270,51.018293658,4.31443816085
1840,Londerzeel,Heerbaan,21,50.9916478647,4.25934309211
1840,Londerzeel,Sint Jozefstraat,11,51.027477776,4.29523142571
1840,Londerzeel,Nachtegaalstraat,30,51.0103759399,4.30209851152
1840,Londerzeel,Blokstraat,10,51.0165461565,4.2476409329
1840,Londerzeel,Sint Jozefstraat,64,51.0300601279,4.29653031107
1840,Londerzeel,Kruisheide,1,51.0313334976,4.24291189403
1840,Londerzeel,Holstraat,44,51.0190661998,4.23756711346
1840,Londerzeel,St.-Niklaasstraat,33,50.9939702722,4.26898714185
1840,Londerzeel,Damveld,23,51.0006738755,4.29964034685
1840,Londerzeel,Kerkhofstraat,126,51.0007131298,4.31068750468
1840,Londerzeel,Daalkouter,6,51.0021109753,4.31114239125
1840,Londerzeel,Hoogweg,24,51.0162668677,4.22873958119
1840,Londerzeel,Topmolen,105,51.0260683687,4.29433520512
1840,Londerzeel,Merelstraat,25,51.0129029665,4.30117841058
1840,Londerzeel,Boeksheide,97,51.0137894889,4.22360141272
1840,Londerzeel,Hooiveld,75,51.0320368272,4.29523659381
1840,Londerzeel,Kasteelstraat,48,51.0061410445,4.29486551975
1840,Londerzeel,Mechelsestraat,169,51.0066264332,4.31335300964
1840,Londerzeel,Autostrade,52,51.0172168546,4.31726337858
1840,Londerzeel,Oudenhove,16,50.9985342711,4.31201285368
1840,Londerzeel,Leireken,15,50.9956318424,4.25963241277
1840,Londerzeel,Smisstraat,24,50.9915462502,4.25196547198
1840,Londerzeel,Boskantstraat,11,50.9915381442,4.23859906526
1840,Londerzeel,Sint Jozefstraat,82,51.0309587928,4.29658538881
1840,Londerzeel,Mattestraat,55,51.0093279935,4.2324102968
1840,Londerzeel,Mechelsestraat,116,51.0055904572,4.30874643623
1840,Londerzeel,Steenhuffeldorp,51,50.9937005682,4.26234193939
1840,Londerzeel,L. Van Hoeymissenstraat,43,51.0166628245,4.24146287579
1840,Londerzeel,Steenhuffelstraat,8,51.0197145409,4.24582081103
1840,Londerzeel,Neeravert,37,51.0232195489,4.30381841434
1840,Londerzeel,Burchtlaan,50,51.0013218105,4.297211278
1840,Londerzeel,Boeksheide,26,51.0129607268,4.22651220266
1840,Londerzeel,Lunderstraat,55,51.0096025304,4.30324961475
1840,Londerzeel,Holle Eikstraat,2,51.013193757,4.30391381672
1840,Londerzeel,Broekveld,75,51.0240809936,4.29925067383
1840,Londerzeel,Zandvat,43,51.0147086712,4.24569336787
1840,Londerzeel,Heerbaan,56,50.9885545496,4.2595663243
1840,Londerzeel,Leeuwerikstraat,2,51.0128270154,4.3029536042
1840,Londerzeel,Kruisveld,8,51.0120244358,4.29595225179
1840,Londerzeel,Kaaskantmolenstraat,53,50.984322873,4.28774788798
1840,Londerzeel,Zwaluwstraat,168,51.0105211432,4.24197591037
1840,Londerzeel,Sneppelaar,42,51.0207156861,4.27830602445
1840,Londerzeel,Koeisteert,19,51.0335875295,4.29598191001
1840,Londerzeel,Kasteelstraat,54,51.0064288578,4.29570996195
1840,Londerzeel,Vinkenstraat,31,51.0154099082,4.30922635507
1840,Londerzeel,Vlasstraat,40A,51.0145229681,4.23897116397
1840,Londerzeel,Boeksheide,79,51.0132882773,4.22546014303
1840,Londerzeel,Gildenstraat,15,51.0015808083,4.30382728619
1840,Londerzeel,Broekveld,22,51.0234051232,4.29943011351
1840,Londerzeel,Geerakker,1,51.0107200739,4.30427756301
1840,Londerzeel,Zwaantje,19,51.0312687685,4.26715851994
1840,Londerzeel,Smisstraat,87,50.9942462238,4.25823742214
1840,Londerzeel,Pilatusveld,14,51.0044588631,4.3108279534
1840,Londerzeel,Bogaarden,14,50.9993825107,4.30912610574
1840,Londerzeel,Molenstraat,55,51.0043607295,4.29868011991
1840,Londerzeel,Nachtegaalstraat,40,51.0100585954,4.30285087064
1840,Londerzeel,Hoefsmidstraat,72,51.0153963953,4.24141642214
1840,Londerzeel,Dorpsstraat,35,51.0043774534,4.30261045104
1840,Londerzeel,Kaaskantmolenstraat,17,50.9940273934,4.29020130452
1840,Londerzeel,Smisstraat,69,50.9927436421,4.25656034092
1840,Londerzeel,Hoge Donk,38,51.0348907558,4.30132149769
1840,Londerzeel,Zavel,8,51.0400969033,4.27563797663
1840,Londerzeel,Bievelt,8,51.0364875292,4.29954452215
1840,Londerzeel,Schoolstraat,18,50.9931420879,4.25871817171
1840,Londerzeel,Chrysantenlaan,33,51.0066748913,4.29915912403
1840,Londerzeel,Brouwerijstraat,22,50.9977971894,4.2674804615
1840,Londerzeel,Steenhuffelstraat,43,51.0177769166,4.24622190971
1840,Londerzeel,St.-Niklaasstraat,43,50.9930131564,4.26808526137
1840,Londerzeel,Blauwenhoek,105,51.0201986432,4.29365835696
1840,Londerzeel,Hageveld,5,51.0141277394,4.30477922841
1840,Londerzeel,Blauwenhoek,123,51.0215852234,4.29411935594
1840,Londerzeel,Blauwenhoek,77,51.0188286315,4.29170650643
1840,Londerzeel,Over de Beek,57,50.9825925302,4.28512646915
1840,Londerzeel,Heerbaan,117,50.9853351549,4.2574192029
1840,Londerzeel,Steenhuffelstraat,61,51.016228421,4.24696697689
1840,Londerzeel,Geerakker,17,51.009272769,4.30349999178
1840,Londerzeel,Pikstraat,27,51.0182994085,4.29968770693
1840,Londerzeel,Kaaskantmolenstraat,35,50.9882203857,4.29291839829
1840,Londerzeel,Stuikberg,68,51.03054112,4.30467179951
1840,Londerzeel,Schoolstraat,2,50.9931086761,4.2598175795
1840,Londerzeel,Valkenstraat,10,51.0120019395,4.30108522329
1840,Londerzeel,Mechelsestraat,81,51.0047518547,4.30836951864
1840,Londerzeel,Heldenplein,8,51.0002084672,4.30403715724
1840,Londerzeel,Hoefsmidstraat,54,51.0160600811,4.24278212462
1840,Londerzeel,Topmolen,9,51.0221917137,4.29411925348
1840,Londerzeel,Kerkstraat,22,51.0030451385,4.301732862
1840,Londerzeel,Nieuwstraat,45,51.0306096329,4.29449854556
1840,Londerzeel,Meerstraat,98,51.007478527,4.3068219806
1840,Londerzeel,L. Van Hoeymissenstraat,25,51.0179915717,4.24220277367
1840,Londerzeel,Eeckhout,21,51.0020398194,4.31547367358
1840,Londerzeel,Kerkhofstraat,73,51.0011632822,4.30900847185
1840,Londerzeel,J. Van Doorslaerstraat,16,50.9950452651,4.26346392045
1840,Londerzeel,Maldersesteenweg,98,51.0268354673,4.27661474898
1840,Londerzeel,Bogaarden,32,50.9986178152,4.31077967387
1840,Londerzeel,Klein Holland,65,51.0126508725,4.29756591499
1840,Londerzeel,Pilatusveld,32,51.0037370725,4.31277767328
1840,Londerzeel,Meerstraat,47,51.0055629089,4.30537095579
1840,Londerzeel,Schuurveld,9,50.9951055755,4.29357570005
1840,Londerzeel,Haan,78,50.994761355,4.24391692913
1840,Londerzeel,Dorpsstraat,1,51.0032393277,4.30274140185
1840,Londerzeel,Mechelsestraat,45,51.0038244658,4.30596695296
1840,Londerzeel,Oudemanstraat,11,51.0160020171,4.32356220691
1840,Londerzeel,Koolmeesstraat,6,51.0133246393,4.29991755155
1840,Londerzeel,Markt,17,51.00176592,4.3027317741
1840,Londerzeel,Hoge Donk,4,51.0349743538,4.30069067354
1840,Londerzeel,Stuikberg,86,51.0294885534,4.30543100808
1840,Londerzeel,Autostrade,34,51.0143339084,4.31587725749
1840,Londerzeel,Herbodin,6,51.0173573993,4.26860205621
1840,Londerzeel,Maldersesteenweg,47,51.0330320351,4.28573822489
1840,Londerzeel,Holstraat,26,51.0179380844,4.23822766788
1840,Londerzeel,Rossemstraat,15,50.9864589546,4.27887649873
1840,Londerzeel,Blauwenhoek,95,51.0198573806,4.29317234127
1840,Londerzeel,Maldersesteenweg,106,51.0260910542,4.27553847729
1840,Londerzeel,Brusselsestraat,14,51.0008893418,4.3023168687
1840,Londerzeel,Meerstraat,242,51.0161158586,4.31498360585
1840,Londerzeel,Eshagestraat,4,51.0039185241,4.26532428592
1840,Londerzeel,Opdorpstraat,4,51.0200938305,4.24219213583
1840,Londerzeel,Smisstraat,141,50.9973303372,4.25943859644
1840,Londerzeel,Bergkapelstraat,1,51.0073478082,4.31737110945
1840,Londerzeel,Breendonkstraat,14,49.2933351651,2.30668956214
1840,Londerzeel,Stationsstraat,58,51.0065435337,4.29988424476
1840,Londerzeel,Breendonkstraat,60,51.0265574431,4.30075851602
1840,Londerzeel,Patattestraat,16,51.0350579108,4.29054222921
1840,Londerzeel,Bergstraat,43,51.0039664485,4.32076270533
1840,Londerzeel,Deisels,41,51.0099357623,4.3064425993
1840,Londerzeel,Topmolen,87,51.0254077946,4.29495912441
1840,Londerzeel,Maldersesteenweg,124,51.0221937353,4.27037805771
1840,Londerzeel,Malderendorp,20,51.020475883,4.24467139191
1840,Londerzeel,Kerkhofstraat,91,51.0003367169,4.31005715717
1840,Londerzeel,Heide,64,51.0075774925,4.24746992854
1840,Londerzeel,Bloemstraat,16,51.0281179233,4.29371219868
1840,Londerzeel,Linde,132,51.0021756502,4.28595442649
1840,Londerzeel,Brusselsestraat,128,50.9943982686,4.30144939432
1840,Londerzeel,Kouterbaan,4,51.0201086061,4.24641394539
1840,Londerzeel,Zwaluwstraat,9,51.0142911757,4.22544982207
1840,Londerzeel,Bergkapelstraat,35,51.0071532915,4.32062199473
1840,Londerzeel,Steenhuffeldorp,94,50.993549579,4.26317682703
1840,Londerzeel,Bessembaan,7,51.0190863775,4.28359136337
1840,Londerzeel,Eshagestraat,38,51.0043257641,4.25829300727
1840,Londerzeel,Klein Holland,12,51.0101275691,4.29804776234
1840,Londerzeel,Bouwdreef,7,51.0125101732,4.24232793668
1840,Londerzeel,Chrysantenlaan,15,51.0058550333,4.29968364349
1840,Londerzeel,Patattestraat,34,51.0361807967,4.29051256913
1840,Londerzeel,Hoogweg,16,51.0161085474,4.22917669414
1840,Londerzeel,Kievitstraat,5,51.0141053787,4.30738175229
1840,Londerzeel,Stationsstraat,76,51.0073826533,4.3003321219
1840,Londerzeel,Jan Hammeneckerstraat,32,51.0277088634,4.29892547763
1840,Londerzeel,Steenhuffeldorp,104,50.9931686927,4.26255451632
1840,Londerzeel,Mechelsestraat,27,51.0033919198,4.3048024205
1840,Londerzeel,Hoogveld,9,50.9949072001,4.29936103339
1840,Londerzeel,Kerkhofstraat,101,50.9999060704,4.31120589931
1840,Londerzeel,Bloemstraat,69,51.0333760713,4.29164642907
1840,Londerzeel,Opdorpstraat,38,51.020137705,4.23945493281
1840,Londerzeel,Bergkapelstraat,88,51.0079959713,4.32494120401
1840,Londerzeel,Pluimennest,22,50.9956619983,4.2865206629
1840,Londerzeel,Meerstraat,124,51.0089414314,4.30773496543
1840,Londerzeel,Kloosterstraat,40,51.0163068284,4.24210597793
1840,Londerzeel,Kruisbroeken,16,51.0388566981,4.29612891996
1840,Londerzeel,Heide,28,51.006896876,4.25115960941
1840,Londerzeel,Bloemstraat,34,51.0291237361,4.29319458284
1840,Londerzeel,Boeksheide,115,51.0137426356,4.22263597719
1840,Londerzeel,Moorhoek,12,51.0114228664,4.27851234898
1840,Londerzeel,Mechelsestraat,63,51.0040323648,4.30730903206
1840,Londerzeel,Egmont en Hoornstraat,4,51.0115737661,4.29871503375
1840,Londerzeel,Egmont en Hoornstraat,38,51.0128030844,4.29959142235
1840,Londerzeel,Veldstraat,17,51.018616035,4.25420354504
1840,Londerzeel,Ebbing,10,50.9907403064,4.26409965121
1840,Londerzeel,J. Van Doorslaerstraat,34,50.9946309885,4.26159543959
1840,Londerzeel,Steenhuffelstraat,25,51.0186570268,4.24604033637
1840,Londerzeel,Achterheide,67,51.0367570177,4.30206005777
1840,Londerzeel,Broekveld,50,51.023656994,4.29958139625
1840,Londerzeel,Koeisteert,20,51.0331871532,4.2950962372
1840,Londerzeel,Lunderstraat,37,51.0093601161,4.30199393204
1840,Londerzeel,Middelweg,12,51.0052200328,4.32439722947
1840,Londerzeel,Linde,86,51.0029753061,4.28989394901
1840,Londerzeel,Hoefsmidstraat,9,51.0159683234,4.24588046578
1840,Londerzeel,Vlasstraat,21,51.0141227854,4.24079699352
1840,Londerzeel,Molenstraat,3,51.0046077425,4.29912683125
1840,Londerzeel,Berreweide,26,51.012871001,4.30773175688
1840,Londerzeel,Linde,68,51.001441807,4.29159765101
1840,Londerzeel,Nieuwstraat,10,51.0296142981,4.29510636641
1840,Londerzeel,Plas,14,51.0007847694,4.26785512952
1840,Londerzeel,Bergboslaan,30,51.0081727821,4.31810998756
1840,Londerzeel,Sneppelaar,24,51.0179373534,4.28179549689
1840,Londerzeel,Kerkhofstraat,20,51.003003684,4.30414260962
1840,Londerzeel,Zwaluwstraat,87,51.0118124786,4.23628122095
1840,Londerzeel,Steenhuffeldorp,23,50.9955243514,4.26557060178
1840,Londerzeel,Mechelsestraat,144,51.0064593698,4.31024747761
1840,Londerzeel,Sint Jozefstraat,110,51.0321880441,4.29733706292
1840,Londerzeel,Mattestraat,3,51.0120960895,4.22720491874
1840,Londerzeel,Weversstraat,7,51.0094283657,4.31894005821
1840,Londerzeel,Berkenlaan,18,50.9997994153,4.30394939264
1840,Londerzeel,Topmolen,52,51.0237564569,4.29372596475
1840,Londerzeel,Maldersesteenweg,159,51.022813729,4.27116337349
1840,Londerzeel,Achterheide,49,51.035237391,4.30025418803
1840,Londerzeel,Nachtegaalstraat,29,51.0098100705,4.30240693958
1840,Londerzeel,Kasteelstraat,2,51.0081115475,4.29950367122
1840,Londerzeel,Neringstraat,3,51.0142147041,4.32303878806
1840,Londerzeel,Bergboslaan,12,51.007851192,4.31927469209
1840,Londerzeel,Mechelsestraat,180,51.0074930972,4.31245123413
1840,Londerzeel,Ursene,46,51.01809736,4.28950159646
1840,Londerzeel,Jan Hammeneckerstraat,7,51.0287381811,4.29693872759
1840,Londerzeel,Haan,25,50.9944389081,4.24502284244
1840,Londerzeel,Mattestraat,37,51.010386778,4.23020989596
1840,Londerzeel,Lemmeken,61,51.0142296289,4.24252082791
1840,Londerzeel,Lunderstraat,3,51.0109458493,4.29989408129
1840,Londerzeel,Polderstraat,5,51.0021490541,4.29540457393
1840,Londerzeel,Koolmeesstraat,13,51.0134328302,4.30094766083
1840,Londerzeel,Bergkapelstraat,17,51.0068233779,4.31883593069
1840,Londerzeel,Karreveld,11,51.0208669304,4.2424836525
1840,Londerzeel,Klein Holland,30,51.0109106519,4.29752065693
1840,Londerzeel,Handelsstraat,66,51.0151673194,4.2337619962
1840,Londerzeel,Heerbaan,38,50.989820563,4.25935331324
1840,Londerzeel,Sint Jozefstraat,28,51.0284544172,4.29549717772
1840,Londerzeel,Haan,90A,50.9958285982,4.24294988825
1840,Londerzeel,Gildenstraat,8,51.0017451177,4.30315135751
1840,Londerzeel,Stuiverstraat,15,51.0018571138,4.33177385232
1840,Londerzeel,Kasteelstraat,36,51.0065213683,4.29691062225
1840,Londerzeel,Stuikberg,8,51.0324231702,4.29957370671
1840,Londerzeel,Tramstraat,30,51.0036928314,4.29626768031
1840,Londerzeel,Burchtlaan,57,51.0018558349,4.29673535417
1840,Londerzeel,Oudenhove,9,50.9995613865,4.31111941903
1840,Londerzeel,Handelsstraat,13,51.0148691906,4.23836556791
1840,Londerzeel,Lakeman,48,50.9986523995,4.285480246
1840,Londerzeel,Klein Holland,83,51.0132114489,4.29699864102
1840,Londerzeel,Eeckhout,41,51.0032968222,4.31460520239
1840,Londerzeel,Zandvat,25,51.0141731919,4.24543370458
1840,Londerzeel,Meerstraat,277,51.0191888868,4.31626704564
1840,Londerzeel,Autostrade,16,51.0011810191,4.315513672
1840,Londerzeel,Edward Van Esbroeckstraat,26,51.0052433731,4.30491560928
1840,Londerzeel,Toekomststraat,26,51.0096912792,4.30073501567
1840,Londerzeel,Kouterbaan,102,51.0203428894,4.26634233293
1840,Londerzeel,Damveld,6,50.9984171234,4.30050819074
1840,Londerzeel,Blauwenhoek,24,51.0159201889,4.29248776543
1840,Londerzeel,Tramstraat,12,51.0023182739,4.29709864835
1840,Londerzeel,Mattestraat,19,51.0119887524,4.22893697902
1840,Londerzeel,Steenhuffelstraat,96,51.0137591464,4.24777720316
1840,Londerzeel,Broekveld,39,51.0224654265,4.30039112049
1840,Londerzeel,Mechelsestraat,162,51.0066998136,4.31151352846
1840,Londerzeel,Lekkestraat,1,50.9936674937,4.26457246358
1840,Londerzeel,Lakeman,13,51.0014521575,4.28447864384
1840,Londerzeel,Lemmeken,43,51.0139808573,4.24426157024
1840,Londerzeel,Lunderstraat,19,51.0101093242,4.30067072235
1840,Londerzeel,Kerkhofstraat,190,50.9989866465,4.31461852479
1840,Londerzeel,de Spoelberchstraat,24,51.0113372333,4.30130546964
1840,Londerzeel,Kasteelstraat,18,51.007708846,4.29859950343
1840,Londerzeel,Broekveld,5,51.02410409,4.29802201987
1840,Londerzeel,Pilatusveld,7,51.0045730532,4.30960611749
1840,Londerzeel,Reigerstraat,13,51.0140193158,4.3097981043
1840,Londerzeel,Markt,1,51.0014597683,4.301478959
1840,Londerzeel,Dorpsstraat,17,51.0038198989,4.3025183398
1840,Londerzeel,Meerstraat,295,51.0203026106,4.31541482861
1840,Londerzeel,Achterheide,32,51.0348089346,4.29879409872
1840,Londerzeel,Bergboslaan,83,51.0086367718,4.31911714128
1840,Londerzeel,Haan,96,50.9965368126,4.24325226533
1840,Londerzeel,Achterheide,85,51.0376740815,4.30223313119
1840,Londerzeel,Koeisteert,55,51.033738244,4.29165538952
1840,Londerzeel,Bogaarden,7,50.998501163,4.30919388254
1840,Londerzeel,Steenhuffeldorp,58,50.9950095832,4.26582171501
1840,Londerzeel,Neeravert,20,51.0253132578,4.3039542285
1840,Londerzeel,Daalkouter,23,51.0036731239,4.31026986437
1840,Londerzeel,Handelsstraat,48,51.0154126808,4.23539126536
1840,Londerzeel,Kerkhofstraat,55,51.0019269686,4.30719095283
1840,Londerzeel,Boeksheide,18,51.0132719585,4.22698635231
1840,Londerzeel,Acacialaan,16,51.0018453079,4.31143276988
1840,Londerzeel,Molenstraat,83,51.0037439599,4.29682750664
1840,Londerzeel,Meir,46,51.0008043961,4.25022901532
1840,Londerzeel,Geerakker,8,51.0099621493,4.30450629132
1840,Londerzeel,Eeckhout,4,51.0022791985,4.31388734314
1840,Londerzeel,Dorpsstraat,8,51.0034075123,4.30209450351
1840,Londerzeel,Bontestraat,29,50.982955598,4.26097173344
1840,Londerzeel,Meerstraat,232,51.0155104949,4.31390709546
1840,Londerzeel,Valkenstraat,17,51.011843228,4.3019426942
1840,Londerzeel,Zwaluwstraat,24,51.0139898541,4.22522088581
1840,Londerzeel,Reigerstraat,23,51.0145763494,4.30868218828
1840,Londerzeel,Daalkouter,13,51.0027477423,4.30999661571
1840,Londerzeel,Berkenlaan,44,51.0004939436,4.30601837862
1840,Londerzeel,Malderendorp,5,51.0202858793,4.24581532917
1840,Londerzeel,Zwaantje,5,51.0321764513,4.26453781056
1840,Londerzeel,Blokstraat,35,51.0180239992,4.25252575446
1840,Londerzeel,Brugstraat,9,51.0129788056,4.24422346441
1840,Londerzeel,Heerbaan,82,50.9852845565,4.26072929367
1840,Londerzeel,Beekstraat,34,51.0110910687,4.26727023907
1840,Londerzeel,Bergstraat,33,51.0045637498,4.32115304501
1840,Londerzeel,Kruisweg,1,51.0068093535,4.32263228962
1840,Londerzeel,Meerstraat,3,51.0044729709,4.30319388123
1840,Londerzeel,Sneppelaar,87,51.0219903415,4.27773063121
1840,Londerzeel,Watermolenstraat,34,51.0011534717,4.27630359372
1840,Londerzeel,St.-Niklaasstraat,78,50.9912865127,4.2671238287
1840,Londerzeel,Chrysantenlaan,6,51.0053270876,4.3009032808
1840,Londerzeel,Acacialaan,34,51.0028863846,4.31267068731
1840,Londerzeel,Sint Jozefstraat,56,51.0295161505,4.29644447303
1840,Londerzeel,Maldersesteenweg,53,51.0328780109,4.28452903311
1840,Londerzeel,Mechelsestraat,108,51.0054992933,4.30800867516
1840,Londerzeel,Drietorenstraat,33,51.0047030144,4.28466304446
1840,Londerzeel,Heldenplein,1,51.0009614131,4.30243971133
1840,Londerzeel,Markt,10,51.0012797312,4.30246519355
1840,Londerzeel,Watermolenstraat,16,51.0014516184,4.28284972925
1840,Londerzeel,Meerstraat,53,51.0057158414,4.30559301271
1840,Londerzeel,Meerstraat,214,51.0147807124,4.31321466249
1840,Londerzeel,Meir,64,51.0023367754,4.253328766
1840,Londerzeel,Polderstraat,85,50.9972625391,4.30046754779
1840,Londerzeel,Molenheide,20,51.0123246127,4.24121454647
1840,Londerzeel,Kerkhofstraat,162,50.9995110555,4.31341117773
1840,Londerzeel,Hoge Donk,11,51.0339459976,4.30003965033
1840,Londerzeel,Heide,21,51.0076466186,4.25022092343
1840,Londerzeel,Smisstraat,42,50.9926149401,4.25294335137
1840,Londerzeel,Sint Jozefstraat,74,51.0307287608,4.29643206945
1840,Londerzeel,Bergkapelstraat,63,51.0066386552,4.3240633632
1840,Londerzeel,Haan,61,50.9959869801,4.24387721574
1840,Londerzeel,Handelsstraat,102,51.0153265131,4.23195956668
1840,Londerzeel,Koolmeesstraat,23,51.0138342948,4.30176389598
1840,Londerzeel,Geerakker,10,51.0097700104,4.30442761382
1840,Londerzeel,Steenhuffelstraat,47,51.0176119276,4.24627036537
1840,Londerzeel,Brusselsestraat,75,50.9978068417,4.30191250107
1840,Londerzeel,Lemmeken,15,51.0149814499,4.24258208442
1840,Londerzeel,Leeuwerikstraat,18,51.0124378121,4.30170730677
1840,Londerzeel,Beekstraat,16,51.0109931928,4.26137215619
1840,Londerzeel,Sint Kristoffelstraat,26,51.0071608421,4.30767086286
1840,Londerzeel,Ursulinenstraat,3,51.0001635195,4.30436430335
1840,Londerzeel,Mechelsestraat,88,51.0049348191,4.3073862219
1840,Londerzeel,Wielewaalstraat,5,51.0134425536,4.30160812919
1840,Londerzeel,Kruisheide,8,51.0310853332,4.24455063061
1840,Londerzeel,Breendonkstraat,75,51.0265870491,4.30273064138
1840,Londerzeel,Hoogweg,42,51.0170485417,4.2287268527
1840,Londerzeel,Bouwdreef,34,51.0079335175,4.23782267768
1840,Londerzeel,Maldersesteenweg,27,51.0334003681,4.28803250247
1840,Londerzeel,Weversstraat,39,51.0159410088,4.32363465815
1840,Londerzeel,Molenheide,55,51.0132234655,4.23738474859
1840,Londerzeel,Lippelostraat,61,51.0268771904,4.24704078425
1840,Londerzeel,Breendonkstraat,111,51.0276074638,4.30550978408
1840,Londerzeel,L. Van Hoeymissenstraat,68,51.0157326648,4.23982828108
1840,Londerzeel,Eeckhout,28,51.002779992,4.31450093681
1840,Londerzeel,Bouwdreef,16,51.0111362819,4.24266405838
1840,Londerzeel,Houtenveld,3,51.0027058963,4.31137588291
1840,Londerzeel,Brusselsestraat,111,50.9958317466,4.30126217756
1840,Londerzeel,Bergstraat,15,51.0058255724,4.32189778418
1840,Londerzeel,Polderstraat,49,51.0003027317,4.29753605834
1840,Londerzeel,J. Van Doorslaerstraat,9,50.9953365486,4.26452091617
1840,Londerzeel,Linde,78,51.0027419407,4.2905606535
1840,Londerzeel,Meerstraat,27,51.0050459514,4.30454174042
1840,Londerzeel,Kerkhofstraat,144,51.0003171573,4.31179902686
1840,Londerzeel,Ebbing,17,50.992175044,4.26367372323
1840,Londerzeel,Geerakker,45,51.0106346324,4.30604284954
1840,Londerzeel,Nieuwstraat,35,51.030602134,4.29501502002
1840,Londerzeel,Brusselsestraat,57,50.9989612967,4.30188423213
1840,Londerzeel,Robbroekstraat,13,50.9902207509,4.26300510252
1840,Londerzeel,Bergboslaan,67,51.0083749117,4.31845301462
1840,Londerzeel,Maldersesteenweg,3,51.0338275983,4.29028779914
1840,Londerzeel,Lakeman,102,50.9956633541,4.27825914437
1840,Londerzeel,Moorhoek,19,51.0096401433,4.27479555448
1840,Londerzeel,Haan,43,50.9952868127,4.24481321783
1840,Londerzeel,Lode Meeusplein,1,51.0031767246,4.30315834948
1840,Londerzeel,Linde,25,51.0031186346,4.29470711657
1840,Londerzeel,Bergkapelstraat,8,51.007605247,4.31819308928
1840,Londerzeel,Lemmeken,33,51.0142770656,4.24300349606
1840,Londerzeel,Bergstraat,47,51.0039004969,4.32038707898
1840,Londerzeel,Meerstraat,177,51.0123665255,4.31226889623
1840,Londerzeel,Brusselsestraat,7,51.0012650704,4.30180803762
1840,Londerzeel,Minnestraat,19,51.0283833316,4.31123461099
1840,Londerzeel,Sint Jozefstraat,107,51.0303602515,4.29799284703
1840,Londerzeel,Zwaluwstraat,59,51.0131895754,4.2312910466
1840,Londerzeel,Patattestraat,9,51.034367997,4.2912156967
1840,Londerzeel,Meerstraat,339,51.0265696567,4.31869772063
1840,Londerzeel,Kouterbaan,46,51.019925691,4.25249298681
1840,Londerzeel,Egmont en Hoornstraat,11,51.0121418451,4.29896982861
1840,Londerzeel,Linde,1,51.0033828449,4.29649282783
1840,Londerzeel,Deisels,58,51.0088775312,4.30758358619
1840,Londerzeel,Patattestraat,42,51.0370927479,4.29040313234
1840,Londerzeel,Breendonkstraat,7,51.0237580331,4.29611847551
1840,Londerzeel,Bergboslaan,37,51.0086304514,4.32014118191
1840,Londerzeel,Neeravert,29,51.0246810462,4.30343655868
1840,Londerzeel,Veldstraat,3,51.0197411294,4.2543220927
1840,Londerzeel,Bergboslaan,49,51.0081520237,4.31963072816
1840,Londerzeel,Kasteelstraat,80,51.0075165658,4.29664081923
1840,Londerzeel,Achterheide,50,51.0357181638,4.29908701111
1840,Londerzeel,Broekveld,67,51.0237677981,4.30046150135
1840,Londerzeel,Handelsstraat,51,51.0148090505,4.23569778953
1840,Londerzeel,Zwaluwstraat,70,51.0117191635,4.23046089623
1840,Londerzeel,Hoefsmidstraat,36,51.0162391049,4.24359336865
1840,Londerzeel,Oudenhove,24,50.9987482171,4.31146073029
1840,Londerzeel,Smisstraat,131,50.9968037377,4.25912842508
1840,Londerzeel,Smisstraat,34,50.9918965508,4.25278217227
1840,Londerzeel,Breendonkstraat,22,51.0250925707,4.29616146606
1840,Londerzeel,Steenhuffeldorp,6,50.9959306418,4.27019520965
1840,Londerzeel,Molenstraat,30,51.0038350225,4.30049083299
1840,Londerzeel,Bloemstraat,42,51.0292815623,4.29273889251
1840,Londerzeel,Nieuwstraat,17,51.0298295745,4.29538015225
1840,Londerzeel,Blauwenhoek,44,51.0169441931,4.292163614
1840,Londerzeel,Broekveld,49,51.0228658999,4.30151579682
1840,Londerzeel,St.-Niklaasstraat,25,50.9942136126,4.26899289473
1840,Londerzeel,Walrotstraat,7,50.999330137,4.24638640868
1840,Londerzeel,Molenheide,73,51.0128924629,4.23639446034
1840,Londerzeel,Hoefsmidstraat,18,51.0165856123,4.24494114901
1840,Londerzeel,Lunderstraat,30,51.0096921049,4.30187377433
1840,Londerzeel,Smisstraat,113,50.9962023251,4.25908452525
1840,Londerzeel,L. Van Hoeymissenstraat,47,51.0164932864,4.24129175404
1840,Londerzeel,Eshagestraat,46,51.0049135134,4.25891851146
1840,Londerzeel,Brouwerijstraat,7,50.9974341811,4.26871728168
1840,Londerzeel,Meerstraat,304,51.0225475786,4.31432283177
1840,Londerzeel,Polderstraat,32,51.0000060826,4.29903730008
1840,Londerzeel,Vlasstraat,28,51.0140270807,4.2399948315
1840,Londerzeel,Kerkhofstraat,116,51.0014611661,4.31024595237
1840,Londerzeel,Meerstraat,142,51.01017572,4.30843883853
1840,Londerzeel,Bergboslaan,19,51.0082701118,4.32066517597
1840,Londerzeel,Plas,7,51.0053915369,4.26518727205
1840,Londerzeel,Bontestraat,40,50.9834411583,4.25907517677
1840,Londerzeel,Pluimennest,14,50.994540927,4.28803562654
1840,Londerzeel,Tramstraat,37,51.0043044356,4.29654085742
1840,Londerzeel,Lakeman,51,50.9988690175,4.28443438999
1840,Londerzeel,Mechelsestraat,197,51.0070682044,4.31542898947
1840,Londerzeel,Ebbing,35,50.9911633024,4.26447031583
1840,Londerzeel,Kouhagen,6,50.9871599205,4.27664189229
1840,Londerzeel,Haan,8,50.9913238209,4.24667283218
1840,Londerzeel,Koeisteert,40,51.0332578414,4.29286507555
1840,Londerzeel,Neeravert,5,51.0258179506,4.30225065359
1840,Londerzeel,Vlasstraat,4,51.0149096735,4.2390491876
1840,Londerzeel,Over de Beek,14,50.9916337642,4.28096140646
1840,Londerzeel,Smisstraat,16,50.9913959156,4.25102152056
1840,Londerzeel,Brusselsestraat,22,51.0001281297,4.30245070806
1840,Londerzeel,Topmolen,59,51.0234527906,4.29542724953
1840,Londerzeel,Sint Kristoffelstraat,2,51.0061603614,4.30909691974
1840,Londerzeel,Hoogweg,34,51.0166435807,4.22872378218
1840,Londerzeel,Sint Jozefstraat,21,51.0278814278,4.29588820541
1840,Londerzeel,Kasteelstraat,62,51.0066389782,4.29637201854
1840,Londerzeel,Molenhoek,5,51.0233624509,4.31761075428
1840,Londerzeel,Topmolen,115,51.0264254562,4.29498176722
1840,Londerzeel,Vinkenstraat,23,51.0150096921,4.31008529968
1840,Londerzeel,Kaaskantmolenstraat,45,50.9866551746,4.2886425453
1840,Londerzeel,Blauwenhoek,80,51.0196541118,4.28754834393
1840,Londerzeel,Marselaerdreef,5,51.0365063375,4.27597796402
1840,Londerzeel,Heerbaan,46,50.9892961432,4.25936036917
1840,Londerzeel,Sint Genovevastraat,3,50.9954465991,4.26702982806
1840,Londerzeel,Merelstraat,15,51.0124243011,4.30134082677
1840,Londerzeel,Markt,8,51.001092486,4.30246103941
1840,Londerzeel,Achterheide,7,51.0331799034,4.29902446058
1840,Londerzeel,Lippelostraat,96,51.0277875016,4.24861780421
1840,Londerzeel,Gildenstraat,1,51.0013639039,4.30301355493
1840,Londerzeel,Kasteelstraat,44,51.0058866615,4.29575112001
1840,Londerzeel,Nachtegaalstraat,20,51.0106090348,4.30275834063
1840,Londerzeel,Kerkhofstraat,5,51.0028861014,4.30314778215
1840,Londerzeel,Holle Eikstraat,18,51.0144767704,4.30593387819
1840,Londerzeel,Stuikberg,122,51.0294806156,4.30975349189
1840,Londerzeel,Boskantstraat,21,50.9922353141,4.23759781838
1840,Londerzeel,Brusselsestraat,141,50.9945511119,4.30039625001
1840,Londerzeel,Kerkhofstraat,29,51.0027446077,4.30462136503
1840,Londerzeel,Boeksheide,89,51.0136946617,4.22441552187
1840,Londerzeel,Bosweg,17,51.0046124292,4.29454307185
1840,Londerzeel,Molenstraat,65,51.0040100338,4.29756851696
1840,Londerzeel,Stationsstraat,104,51.00835515,4.2993470104
1840,Londerzeel,Breendonkstraat,93,51.0273255777,4.3045203551
1840,Londerzeel,Koeisteert,5,51.0333656534,4.29772019474
1840,Londerzeel,Rossemstraat,43,50.9819047224,4.27497135914
1840,Londerzeel,Smisstraat,77,50.9933024065,4.25722647457
1840,Londerzeel,Bontestraat,5,50.9762902976,4.25528283325
1840,Londerzeel,Achterheide,39,51.0344378347,4.29981340142
1840,Londerzeel,Dorpsstraat,10,51.0034449738,4.30205356231
1840,Londerzeel,Sint Genovevastraat,27,50.9944635824,4.26748861415
1840,Londerzeel,Mattestraat,65,51.0089135688,4.23356092565
1840,Londerzeel,Kerkstraat,14,51.0027022671,4.30200374829
1840,Londerzeel,Sint Jozefstraat,48,51.0292236948,4.2959321791
1840,Londerzeel,Broekveld,32,51.0228237135,4.29989603259
1840,Londerzeel,Zandvat,47,51.0147340457,4.24502781283
1840,Londerzeel,Mechelsestraat,126,51.0058798521,4.30899725475
1840,Londerzeel,Brusselsestraat,93,50.9972952065,4.30195667056
1840,Londerzeel,Lunderstraat,12,51.0104656607,4.30100249597
1840,Londerzeel,Handelsstraat,137,51.0146317648,4.22905096817
1840,Londerzeel,Holstraat,54,51.0194406421,4.23696322198
1840,Londerzeel,Bergkapelstraat,45,51.0069604613,4.32148604097
1840,Londerzeel,Lunderstraat,65,51.0101040792,4.30350141081
1840,Londerzeel,Sint Jozefstraat,92,51.0312682455,4.29681784823
1840,Londerzeel,Burchtlaan,7,51.0031884457,4.29759340282
1840,Londerzeel,Mattestraat,12,51.0114898102,4.22715829423
1840,Londerzeel,Stuikberg,25,51.0316267144,4.30092671342
1840,Londerzeel,Kruisheide,7A,51.0316999824,4.25077322702
1840,Londerzeel,Bontestraat,12,50.9786097093,4.25806217681
1840,Londerzeel,Kerkhofstraat,83,51.0006500789,4.30987912165
1840,Londerzeel,Minnestraat,20,51.0290007647,4.31008251591
1840,Londerzeel,Bloemstraat,24,51.028487105,4.29357419941
1840,Londerzeel,Boeksheide,105,51.0139736384,4.22313287245
1840,Londerzeel,Burchtlaan,49,51.0019036284,4.29758322588
1840,Londerzeel,Haan,68,50.9942321848,4.24215890475
1840,Londerzeel,Lemmeken,8,51.0150244711,4.24179150038
1840,Londerzeel,L. Van Hoeymissenstraat,1,51.0195329789,4.24318185992
1840,Londerzeel,Moorhoek,20,51.0110548109,4.27775029475
1840,Londerzeel,Egmont en Hoornstraat,28,51.0127299663,4.29891295989
1840,Londerzeel,Blauwenhoek,9,51.0152591242,4.29474695709
1840,Londerzeel,St.-Niklaasstraat,71,50.9917748981,4.2665040475
1840,Londerzeel,Stationsstraat,84,51.0075076232,4.29959275069
1840,Londerzeel,Eshagestraat,28,51.0016087282,4.25956287725
1840,Londerzeel,Zandvat,1,51.014289329,4.24465804935
1840,Londerzeel,Meerstraat,88,51.0071112513,4.30668411302
1840,Londerzeel,Broekstraat,7,51.023758025,4.26298644927
1840,Londerzeel,Sint Genovevastraat,10,50.9950486889,4.26844514512
1840,Londerzeel,St.-Niklaasstraat,53,50.993161705,4.26824803512
1840,Londerzeel,Haan,116,50.9990704788,4.24231770467
1840,Londerzeel,Smisstraat,59,50.992178584,4.25570836141
1840,Londerzeel,Opdorpstraat,28,51.0197988512,4.24031125861
1840,Londerzeel,Heide,38,51.0069726337,4.24880979389
1840,Londerzeel,Bouwdreef,44,51.0062518418,4.23453670017
1840,Londerzeel,Mechelsestraat,101,51.004934309,4.30921415096
1840,Londerzeel,Markt,27,51.002051716,4.30150675306
1840,Londerzeel,Reigerstraat,4,51.0129053756,4.31068097777
1840,Londerzeel,Blauwenhoek,113,51.0209181667,4.2941510513
1840,Londerzeel,Lippelostraat,31,51.0237568246,4.24547474258
1840,Londerzeel,Geerakker,27,51.0087716841,4.30426197795
1840,Londerzeel,Mechelsestraat,71,51.0044186035,4.30814198898
1840,Londerzeel,Burcht,7,51.0018093292,4.30048876832
1840,Londerzeel,Kouterbaan,28,51.0199173371,4.24880362585
1840,Londerzeel,Brugstraat,2,51.0132605117,4.24226308067
1840,Londerzeel,Brouwerijstraat,14,50.9973577535,4.26763468104
1840,Londerzeel,Edward Van Esbroeckstraat,18,51.0050283867,4.30514414125
1840,Londerzeel,Toekomststraat,18,51.0092522439,4.30056238355
1840,Londerzeel,Bogaarden,22,50.9987673862,4.30966663856
1840,Londerzeel,Bontestraat,30,50.9816238715,4.25893657292
1840,Londerzeel,Pilatusveld,22,51.0041255603,4.31159827129
1840,Londerzeel,Broekveld,14,51.0238142629,4.29905237833
1840,Londerzeel,Merelstraat,8,51.0124005455,4.30082402868
1840,Londerzeel,Kruisheide,15,51.0324707809,4.25527224526
1840,Londerzeel,Stuikberg,96,51.0297100848,4.30619077971
1840,Londerzeel,Hoge Donk,28,51.0350776016,4.30221668038
1840,Londerzeel,Acacialaan,9,51.0010165556,4.31152081528
1840,Londerzeel,Kasteelstraat,26,51.007329192,4.29806818747
1840,Londerzeel,Achterheide,93,51.0374516478,4.30103583952
1840,Londerzeel,L. Van Hoeymissenstraat,15,51.0186752437,4.24301284405
1840,Londerzeel,Stationsstraat,6,51.0048337847,4.30220804051
1840,Londerzeel,Pluimennest,7,50.9965541951,4.28866351558
1840,Londerzeel,Heide,2,51.0033322212,4.25574415659
1840,Londerzeel,Linde,122,51.0023392044,4.28666261897
1840,Londerzeel,Berreweide,18,51.0123820046,4.30705097254
1840,Londerzeel,Brusselsestraat,118,50.9951467494,4.30185115976
1840,Londerzeel,Maldersesteenweg,10,51.0331098398,4.28963036998
1840,Londerzeel,Klein Holland,55,51.0120113979,4.2978793679
1840,Londerzeel,Malderendorp,30,51.0204314748,4.244155728
1840,Londerzeel,Nachtegaalstraat,19,51.010125108,4.30171329009
1840,Londerzeel,Hoefsmidstraat,46,51.016162011,4.24303009968
1840,Londerzeel,Polderstraat,14,51.0016597531,4.29668650294
1840,Londerzeel,Maldersesteenweg,114,51.0252878305,4.27501368266
1840,Londerzeel,Bergkapelstraat,98,51.0085222294,4.32529080247
1840,Londerzeel,Polderstraat,60,50.9976754925,4.30092778081
1840,Londerzeel,Chrysantenlaan,25,51.0061867727,4.29883328511
1840,Londerzeel,Heide,92,51.0085541631,4.24359070569
1840,Londerzeel,Breendonkstraat,118,51.0280518793,4.30449969853
1840,Londerzeel,Topmolen,77,51.0247512663,4.29573595807
1840,Londerzeel,Autostrade,24,51.0028761846,4.31592278714
1840,Londerzeel,Chrysantenlaan,78,51.0059855672,4.29727204329
1840,Londerzeel,Bergstraat,8,51.0064111815,4.32298103313
1840,Londerzeel,Lijsterstraat,1,51.0119860333,4.30483113996
1840,Londerzeel,Hoefsmidstraat,64,51.0156784054,4.24168884328
1840,Londerzeel,Nieuwstraat,3,51.0294250205,4.29559331858
1840,Londerzeel,Topmolen,95,51.0258383698,4.29481577308
1840,Londerzeel,Bergkapelstraat,47,51.0069470907,4.32177257971
1840,Londerzeel,Cattemansdreef,7,50.9938010707,4.30394691659
1840,Londerzeel,Deisels,23,51.0110613396,4.30724120911
1840,Londerzeel,Berreweide,36,51.0133768744,4.30837619677
1840,Londerzeel,Verbindingsstraat,1,51.0032044411,4.30553837701
1840,Londerzeel,Jozef Vermaesenplein,4,51.0196968975,4.24373695819
1840,Londerzeel,Waterbossen,4,51.0161218031,4.25775076822
1840,Londerzeel,Brugstraat,16,51.0131571252,4.24292625976
1840,Londerzeel,Malderendorp,12,51.0206151457,4.24555351403
1840,Londerzeel,Brouwerijstraat,32,50.9982340075,4.26805132892
1840,Londerzeel,Pikstraat,3,51.0150864807,4.2958234167
1840,Londerzeel,Linde,61,51.0035433302,4.29017010306
1840,Londerzeel,Nijverheidsstraat,11,51.0111579066,4.32477699245
1840,Londerzeel,L. Van Hoeymissenstraat,33,51.0169883584,4.24175114827
1840,Londerzeel,Nieuwstraat,53,51.0301167436,4.29374808335
1840,Londerzeel,Heerbaan,48,50.9891498604,4.25932837798
1840,Londerzeel,Breendonkstraat,50,51.0266307126,4.2995274438
1840,Londerzeel,Meerstraat,160,51.0114649588,4.30992966759
1840,Londerzeel,J. Van Doorslaerstraat,24,50.9946371164,4.26301257889
1840,Londerzeel,Brusselsestraat,50,50.9987301747,4.3026664893
1840,Londerzeel,Bloemstraat,59,51.0325507171,4.29181014862
1840,Londerzeel,Heerbaan,99,50.9865323501,4.25811208436
1840,Londerzeel,Mechelsestraat,17,51.0033219427,4.3038948508
1840,Londerzeel,Meerstraat,114,51.0080050239,4.30752985693
1840,Londerzeel,Molenheide,5,51.0116408382,4.23949721348
1840,Londerzeel,Lippelostraat,104,51.0285588028,4.24937118268
1840,Londerzeel,Mechelsestraat,172,51.0073341749,4.31189318506
1840,Londerzeel,Haan,15,50.9941996273,4.24589477924
1840,Londerzeel,Neeravert,12,51.0259817845,4.30332073392
1840,Londerzeel,Kerkstraat,7,51.0022418487,4.30233007202
1840,Londerzeel,Kievitstraat,14,51.0131423079,4.30724078698
1840,Londerzeel,Boeksheide,54,51.0133174172,4.2261421956
1840,Londerzeel,Meir,21,50.9965354093,4.2542808461
1840,Londerzeel,Heide,56,51.0073904923,4.24841206419
1840,Londerzeel,Houtenveld,17,51.0033751375,4.31101078187
1840,Londerzeel,Klein Holland,91,51.013521772,4.29673554432
1840,Londerzeel,Kerkhofstraat,30,51.003020308,4.30463039453
1840,Londerzeel,Boskantstraat,2,50.9868717788,4.24426695658
1840,Londerzeel,Bergboslaan,20,51.007938471,4.31883091191
1840,Londerzeel,Zwaluwstraat,77,51.0121159709,4.23502142368
1840,Londerzeel,Meerstraat,267,51.018274535,4.3156885967
1840,Londerzeel,Pikstraat,63,51.0198786787,4.3086000732
1840,Londerzeel,Marselaerdreef,12,51.0365201834,4.27138293213
1840,Londerzeel,Stationsstraat,13,51.0051135356,4.30254901387
1840,Londerzeel,Achterheide,57,51.0358736594,4.30108728434
1840,Londerzeel,Zandvat,33,51.0144386107,4.24566557302
1840,Londerzeel,Lemmeken,47,51.0139801461,4.24384247769
1840,Londerzeel,Koeisteert,30,51.0332072868,4.2936569297
1840,Londerzeel,Sint Jozefstraat,135,51.0315868089,4.29830748157
1840,Londerzeel,Steenhuffelstraat,15,51.0192990935,4.24671533342
1840,Londerzeel,Bouw,23,51.0043625351,4.23503204423
1840,Londerzeel,Nachtegaalstraat,5,51.0108457739,4.30109970061
1840,Londerzeel,Hoogweg,9,51.0156405084,4.22820804531
1840,Londerzeel,Kloosterstraat,19,51.0187267526,4.24133316603
1840,Londerzeel,Heide,74,51.0078639121,4.24644816492
1840,Londerzeel,Blokstraat,88,51.0190170602,4.26373503348
1840,Londerzeel,Gertrudeveld,15,50.9948028704,4.25915088188
1840,Londerzeel,Egmont en Hoornstraat,46,51.012380808,4.29979751835
1840,Londerzeel,Steenhuffeldorp,13,50.9958399509,4.266181857
1840,Londerzeel,Populierenstraat,13,51.00880683,4.29778898919
1840,Londerzeel,Vlasstraat,11,51.0144823352,4.2401216962
1840,Londerzeel,Gertrudeveld,1,50.9948265015,4.26060616053
1840,Londerzeel,Mechelsestraat,208,51.0086193941,4.31570808293
1840,Londerzeel,de Spoelberchstraat,16,51.0114208391,4.30068764451
1840,Londerzeel,Sint Jozefstraat,38,51.0286820946,4.29561984145
1840,Londerzeel,Zwaluwstraat,95,51.0117724628,4.23747814032
1840,Londerzeel,Blokstraat,3,51.0167745639,4.24684813729
1840,Londerzeel,Steenhuffelstraat,1,51.020105291,4.2462506269
1840,Londerzeel,Topmolen,42,51.0233567552,4.2942188946
1840,Londerzeel,Brusselsestraat,39,50.9995925577,4.3019663928
1840,Londerzeel,Linde,96,51.002862271,4.28929150339
1840,Londerzeel,Lunderstraat,40,51.0097444013,4.30280385966
1840,Londerzeel,Molenhoek,12,51.0228722664,4.31994260541
1840,Londerzeel,Stationsstraat,31,51.00593731,4.30225307893
1840,Londerzeel,Robbroekstraat,41,50.9753460427,4.26945123253
1840,Londerzeel,Holstraat,36,51.0184625081,4.23782261353
1840,Londerzeel,Kerfenden,7,51.0380067029,4.30132603765
1840,Londerzeel,Sneppelaar,113,51.0238400217,4.27692219314
1840,Londerzeel,Mattestraat,29,51.0110271193,4.22925730673
1840,Londerzeel,Smisstraat,9,50.9911456725,4.25130743524
1840,Londerzeel,Blauwenhoek,16,51.015471877,4.29272504721
1840,Londerzeel,Zwaantje,30,51.0257623801,4.27190459039
1840,Londerzeel,Sneppelaar,16,51.0177365016,4.28298056893
1840,Londerzeel,Kruisveld,1,51.0125898167,4.29649015988
1840,Londerzeel,Jan Hammeneckerstraat,12A,51.0287487594,4.2973386941
1840,Londerzeel,Tramstraat,20,51.0028075323,4.29691996657
1840,Londerzeel,Steenhuffelstraat,33,51.0181941407,4.24617564753
1840,Londerzeel,Walrotstraat,14,50.9988277253,4.24733646077
1840,Londerzeel,Klein Holland,20,51.0105885955,4.29785813125
1840,Londerzeel,Zandvat,15,51.013787811,4.2460203888
1840,Londerzeel,Doornhaag,6,51.0135112703,4.29735728386
1840,Londerzeel,Steenhuffelstraat,86,51.0139613596,4.24677376473
1840,Londerzeel,Hageveld,14,51.0154539799,4.30527335388
1840,Londerzeel,Molenheide,37,51.0135139457,4.23938220523
1840,Londerzeel,Diepensteyn,1,51.0003433417,4.27132509529
1840,Londerzeel,Tulpenstraat,10,51.0113231817,4.29666180373
1840,Londerzeel,Handelsstraat,76,51.0150831176,4.23323411764
1840,Londerzeel,Burchtlaan,32,51.0019144277,4.29881537921
1840,Londerzeel,Boeksheide,72,51.0138932499,4.22480037657
1840,Londerzeel,Molenstraat,29,51.0042952041,4.30054331096
1840,Londerzeel,Steenhuffelstraat,68,51.0153465489,4.24648730566
1840,Londerzeel,Blokstraat,17,51.0179385041,4.2484662067
1840,Londerzeel,Klein Holland,73,51.0129272673,4.29738452741
1840,Londerzeel,Ebbing,40,50.9929372146,4.26335040352
1840,Londerzeel,Karreveld,21,51.0215157885,4.2422578655
1840,Londerzeel,Vinkenstraat,4,51.0139777255,4.31040492313
1840,Londerzeel,Haan,33,50.9948623543,4.24473513623
1840,Londerzeel,Achterheide,75,51.037207817,4.30254559006
1840,Londerzeel,Neeravert,30,51.0246026922,4.30481681223
1840,Londerzeel,Kloosterstraat,37,51.0174265995,4.24244599081
1840,Londerzeel,Smisstraat,70,50.993599125,4.2557911308
1840,Londerzeel,Sint Jozefstraat,2,51.0274935583,4.29459096154
1840,Londerzeel,Deisels,4,51.0129067902,4.30971854973
1840,Londerzeel,Handelsstraat,23,51.0148113315,4.23782336093
1840,Londerzeel,Heerbaan,107,50.9859632883,4.25796388318
1840,Londerzeel,Lunderstraat,29,51.0094667962,4.30132081651
1840,Londerzeel,Steenhuffeldorp,48,50.9955846403,4.26636702037
1840,Londerzeel,Molenveld,14,51.0119003661,4.31344759325
1840,Londerzeel,Handelsstraat,58,51.0152239516,4.23439469617
1840,Londerzeel,Holstraat,18,51.0174140677,4.23826888113
1840,Londerzeel,Blauwenhoek,34,51.0162227036,4.29170320185
1840,Londerzeel,Winterpoel,2,51.0417289516,4.27139341958
1840,Londerzeel,Lakeman,76,50.9956057579,4.28451528235
1840,Londerzeel,Dorpsstraat,27,51.0042301755,4.30206185907
1840,Londerzeel,Sneppelaar,69,51.0201518007,4.27972859302
1840,Londerzeel,de Spoelberchstraat,34,51.0111990947,4.30230524824
1840,Londerzeel,Achterheide,22,51.0341576789,4.2986368185
1840,Londerzeel,Koolmeesstraat,15,51.0134873646,4.30105417195
1840,Londerzeel,Ebbing,29,50.9916326346,4.26489059406
1840,Londerzeel,Valkenstraat,1,51.0119967958,4.30042163385
1840,Londerzeel,Bergkapelstraat,55,51.0069809235,4.32255076762
1840,Londerzeel,Beemden,19,50.9982991838,4.30778527802
1840,Londerzeel,Hoogveld,14,50.9943768539,4.29876783238
1840,Londerzeel,Holstraat,46,51.0191800655,4.23754399355
1840,Londerzeel,Molenheide,10,51.011916066,4.24038932789
1840,Londerzeel,Ursene,2,51.0110537163,4.28724993001
1840,Londerzeel,Meerstraat,19,51.0048010325,4.30410596391
1840,Londerzeel,Hoogweg,39,51.0168808311,4.22806639242
1840,Londerzeel,Bergboslaan,55,51.0083178027,4.31924513955
1840,Londerzeel,Handelsstraat,149,51.0146577499,4.22822180994
1840,Londerzeel,Vlasstraat,46,51.014242319,4.23838924895
1840,Londerzeel,Waterwinningsstraat,1,51.0291443682,4.27810683759
1840,Londerzeel,Kerkhofstraat,152,51.0000705529,4.31229536241
1840,Londerzeel,Nachtegaalstraat,10,51.0105690837,4.30188265196
1840,Londerzeel,Maldersesteenweg,19,51.0339102321,4.28857493166
1840,Londerzeel,Meerstraat,279,51.0192559173,4.31620397919
1840,Londerzeel,Blokstraat,25,51.0184606771,4.25214943716
1840,Londerzeel,Bergstraat,23,51.0053075927,4.32159639198
1840,Londerzeel,Oudenhove,18,50.9984096972,4.31185601933
1840,Londerzeel,Zwaluwstraat,14,51.0142730027,4.22300982225
1840,Londerzeel,St.-Niklaasstraat,88,50.9894147087,4.26546503803
1840,Londerzeel,Markt,20,51.0019833746,4.30258516032
1840,Londerzeel,L. Van Hoeymissenstraat,58,51.0162899094,4.23975735415
1840,Londerzeel,Edward Van Esbroeckstraat,11,51.005042281,4.30591689787
1840,Londerzeel,Boskantstraat,13,50.9917040019,4.23844321272
1840,Londerzeel,Boeksheide,28,51.0128881847,4.22651199439
1840,Londerzeel,Middelweg,7,51.0035147423,4.32545736087
1840,Londerzeel,Steenhuffeldorp,1,50.9958938509,4.26802726479
1840,Londerzeel,Koevoetmolenstraat,5,51.0402776,4.28507788187
1840,Londerzeel,Hooiveld,73,51.0319715426,4.29519720754
1840,Londerzeel,Burchtlaan,19,51.0030397281,4.29828373783
1840,Londerzeel,Schoolstraat,21,50.9936688406,4.25861068318
1840,Londerzeel,de Spoelberchstraat,22,51.0113576313,4.30113459202
1840,Londerzeel,Smisstraat,39,50.991207466,4.25484143106
1840,Londerzeel,Smisstraat,2,50.9892101824,4.24699990342
1840,Londerzeel,Neeravert,35,51.0234386162,4.3038268081
1840,Londerzeel,Over de Beek,70,50.9859510741,4.28528003108
1840,Londerzeel,Meerstraat,297,51.0204086557,4.31535755886
1840,Londerzeel,Zandvat,58,51.014967782,4.24496150466
1840,Londerzeel,Pilatusveld,5,51.0050055653,4.30952009389
1840,Londerzeel,Lekkestraat,20,50.9933804187,4.26616042607
1840,Londerzeel,Stationsstraat,25,51.0056776665,4.30234462783
1840,Londerzeel,Molenhoek,35,51.0206242987,4.31909534924
1840,Londerzeel,A. Lambertsstraat,6,51.0133474068,4.30265562879
1840,Londerzeel,Kasteelstraat,56,51.0065791916,4.29562296066
1840,Londerzeel,Mattestraat,71,51.0085471609,4.23418050144
1840,Londerzeel,Molenstraat,53,51.0041156147,4.29901585851
1840,Londerzeel,Sint Jozefstraat,115,51.0303915269,4.29723101053
1840,Londerzeel,Meir,76,51.0028645712,4.25514178832
1840,Londerzeel,Vinkenstraat,15,51.0146234762,4.31091015444
1840,Londerzeel,Achterheide,69,51.0368682265,4.30240862765
1840,Londerzeel,Sneppelaar,22,51.0178209762,4.28208358597
1840,Londerzeel,Lemmeken,51,51.013958954,4.24352304757
1840,Londerzeel,Kaaskantmolenstraat,55,50.9841823901,4.28751058893
1840,Londerzeel,Achterheide,34,51.0348844171,4.29890433169
1840,Londerzeel,Koeisteert,35,51.0340890453,4.29370000766
1840,Londerzeel,Sneppelaar,75,51.0210101941,4.27929000164
1840,Londerzeel,Drietorenstraat,23,51.0039771286,4.28476634526
1840,Londerzeel,Leireken,31,50.9961534401,4.26106065529
1840,Londerzeel,Reigerstraat,15,51.0141275264,4.30958122576
1840,Londerzeel,Stationsstraat,109,51.0084608817,4.29984526338
1840,Londerzeel,Steenhuffeldorp,38,50.9955887691,4.26677668225
1840,Londerzeel,Eeckhout,18,51.0023884623,4.31457817318
1840,Londerzeel,Mechelsestraat,30,51.0036904001,4.30438116343
1840,Londerzeel,Lunderstraat,53,51.0095022745,4.30319931311
1840,Londerzeel,Topmolen,14,51.0225504385,4.29378973567
1840,Londerzeel,Kerkhofstraat,35,51.0025496473,4.30531629197
1840,Londerzeel,Koeisteert,47,51.0338438345,4.2925841446
1840,Londerzeel,Handelsstraat,132,51.0153608893,4.23006201404
1840,Londerzeel,Polderstraat,95,50.9968835267,4.30135740065
1840,Londerzeel,Kasteelstraat,144A,51.0075952112,4.29092905931
1840,Londerzeel,Mattestraat,53,51.0094929013,4.23245199542
1840,Londerzeel,Berreweide,11,51.0111753329,4.30640035847
1840,Londerzeel,Handelsstraat,4,51.0154186707,4.23957548176
1840,Londerzeel,Kerkhofstraat,47,51.002207626,4.30636229844
1840,Londerzeel,Stuikberg,2A,51.0326247607,4.29905550129
1840,Londerzeel,Topmolen,60,51.024213687,4.29437418563
1840,Londerzeel,Handelsstraat,43,51.0148579863,4.23645078145
1840,Londerzeel,Lippelostraat,102,51.0283671484,4.2491846502
1840,Londerzeel,Brusselsestraat,87,50.9974802502,4.30188190797
1840,Londerzeel,Meerstraat,83,51.0072811823,4.30745014849
1840,Londerzeel,Molenstraat,71,51.0038991154,4.29728075228
1840,Londerzeel,Meerstraat,37,51.0053684461,4.3046458793
1840,Londerzeel,Broekveld,42,51.023043452,4.30044430337
1840,Londerzeel,Haan,73,50.9971370497,4.24421989241
1840,Londerzeel,Handelsstraat,114,51.0150802205,4.23111380834
1840,Londerzeel,Nijverheidsstraat,18,51.0126764651,4.32688154511
1840,Londerzeel,Maldersesteenweg,37,51.0332192534,4.28700125443
1840,Londerzeel,Hoefsmidstraat,11,51.0159622573,4.24575208308
1840,Londerzeel,Lakeman,43,50.9998337532,4.28472299648
1840,Londerzeel,Achterheide,16,51.0338334369,4.29831782023
1840,Londerzeel,Lunderstraat,71,51.010406285,4.30365303074
1840,Londerzeel,Haan,27,50.9945377574,4.24490720525
1840,Londerzeel,Burchtlaan,37,51.0022227655,4.2988354384
1840,Londerzeel,Lemmeken,23,51.0146845478,4.24309546241
1840,Londerzeel,Jan Hammeneckerstraat,5,51.0289854755,4.29665254686
1840,Londerzeel,Maldersesteenweg,83,51.0306240247,4.28033691705
1840,Londerzeel,Technologielaan,39,51.0181526511,4.31947972619
1840,Londerzeel,Polderstraat,7,51.0019581143,4.29553166296
1840,Londerzeel,Meerstraat,65,51.0062350418,4.30591560056
1840,Londerzeel,Rossemstraat,13,50.9865949606,4.27887680959
1840,Londerzeel,Patattestraat,49,51.0374387927,4.2910397123
1840,Londerzeel,Bessembaan,9,51.0183388054,4.28441259363
1840,Londerzeel,Autostrade,32,51.0046162483,4.31562123194
1840,Londerzeel,Molenheide,63,51.0133731202,4.23688786514
1840,Londerzeel,Smisstraat,103,50.996301656,4.25986504539
1840,Londerzeel,Klein Holland,98,51.0143189646,4.29461233971
1840,Londerzeel,Bloemstraat,49,51.0316927335,4.29197548351
1840,Londerzeel,Blauwenhoek,54,51.0174924558,4.29163942433
1840,Londerzeel,Lippelostraat,66,51.0241734015,4.24645213196
1840,Londerzeel,Boskantstraat,41,50.9945408729,4.23465539368
1840,Londerzeel,Topmolen,107,51.0261330239,4.29451755133
1840,Londerzeel,St.-Niklaasstraat,35,50.9933158099,4.26839099924
1840,Londerzeel,Topmolen,100,51.0252126079,4.2936123336
1840,Londerzeel,Damveld,25,51.0008105208,4.29935066765
1840,Londerzeel,Merelstraat,23,51.0128037612,4.30123825845
1840,Londerzeel,Pilatusveld,34,51.0036704682,4.31297963064
1840,Londerzeel,Smisstraat,121,50.9962076311,4.25860290109
1840,Londerzeel,Meerstraat,190,51.0134069034,4.31223473977
1840,Londerzeel,Bergkapelstraat,20,51.0073258721,4.31927894367
1840,Londerzeel,Sint Jozefstraat,44,51.0291430247,4.29543053909
1840,Londerzeel,Boeksheide,99,51.0139195952,4.22355626628
1840,Londerzeel,Kouterbaan,6,51.0201113428,4.24662686212
1840,Londerzeel,Zwaluwstraat,60,51.0127536191,4.22953490445
1840,Londerzeel,Sint Jozefstraat,62,51.0300764747,4.29636079472
1840,Londerzeel,Kerkhofstraat,106,51.0016194359,4.30964285406
1840,Londerzeel,Nieuwstraat,40,51.02943029,4.29380747478
1840,Londerzeel,Robbroekstraat,25,50.9890449507,4.26389105681
1840,Londerzeel,Kasteelstraat,21,51.0077281984,4.29758472149
1840,Londerzeel,Drietorenstraat,3,51.0025916248,4.2851271103
1840,Londerzeel,Meerstraat,208,51.0145779327,4.31305073728
1840,Londerzeel,Sint Jozefstraat,80,51.0308910791,4.29654172872
1840,Londerzeel,Polderstraat,42,50.9990878667,4.29968910333
1840,Londerzeel,Sneppelaar,93,51.0224175886,4.27749421123
1840,Londerzeel,Molenheide,45,51.0135081317,4.23834397177
1840,Londerzeel,Kievitstraat,7,51.0139789073,4.30721675806
1840,Londerzeel,Bergstraat,51,51.003516005,4.32009569444
1840,Londerzeel,Mechelsestraat,114,51.0055318748,4.30862070515
1840,Londerzeel,Stationsstraat,78,51.0074254526,4.30019556363
1840,Londerzeel,Meerstraat,172,51.0124875768,4.31126344307
1840,Londerzeel,Bloemstraat,67,51.0331511952,4.29169070423
1840,Londerzeel,Nieuwstraat,8,51.0295608961,4.29523987449
1840,Londerzeel,Meir,58,51.0023443097,4.25248506842
1840,Londerzeel,Ebbing,1,50.9906055741,4.26544761818
1840,Londerzeel,Handelsstraat,204,51.0154340269,4.22528559647
1840,Londerzeel,Malderendorp,10,51.0206208788,4.24570727903
1840,Londerzeel,Vinkenstraat,43,51.0148652845,4.30802616479
1840,Londerzeel,Rossemstraat,31,50.9852215636,4.27753589766
1840,Londerzeel,Leeuwerikstraat,4,51.0127804678,4.30281972185
1840,Londerzeel,Bergstraat,3,51.0066136804,4.32268191927
1840,Londerzeel,Lakeman,4,51.0018655674,4.28511571629
1840,Londerzeel,Acacialaan,39,51.0029865591,4.31371186058
1840,Londerzeel,Breendonkstraat,52,51.026628771,4.30021049356
1840,Londerzeel,Pluimennest,24,50.995461863,4.28633683079
1840,Londerzeel,Mechelsestraat,8,51.0034161891,4.30314946963
1840,Londerzeel,Vinkenstraat,33,51.0156966586,4.30886688045
1840,Londerzeel,Smisstraat,85,50.9941567698,4.25822424241
1840,Londerzeel,Heide,9,51.0053181021,4.25472312643
1840,Londerzeel,Egmont en Hoornstraat,6,51.011676205,4.2986531824
1840,Londerzeel,Zwaluwstraat,107,51.0114050782,4.23910785767
1840,Londerzeel,Pilatusveld,16,51.0043351758,4.31101816103
1840,Londerzeel,Geerakker,33,51.0092611534,4.30546033227
1840,Londerzeel,Brusselsestraat,52,50.9984560105,4.3031599028
1840,Londerzeel,Beemden,8,50.9994173964,4.30685274566
1840,Londerzeel,Veldstraat,19,51.0185013325,4.25420125863
1840,Londerzeel,Over de Beek,24,50.9908521523,4.28010599897
1840,Londerzeel,Merelstraat,3,51.0115575145,4.30186985602
1840,Londerzeel,J. Van Doorslaerstraat,32,50.9946839065,4.26196253462
1840,Londerzeel,Dorpsstraat,20,51.0038091195,4.30188920924
1840,Londerzeel,Chrysantenlaan,84,51.0064100675,4.2977817562
1840,Londerzeel,Meerstraat,154,51.0113017218,4.30921498605
1840,Londerzeel,Egmont en Hoornstraat,72,51.0115364649,4.30026398877
1840,Londerzeel,Maldersesteenweg,101,51.028637959,4.27767931969
1840,Londerzeel,Acacialaan,2,51.001307593,4.31053249041
1840,Londerzeel,Hoge Donk,23,51.0343466822,4.30121677702
1840,Londerzeel,Berkenlaan,21,50.9992724221,4.304516233
1840,Londerzeel,Jan Hammeneckerstraat,16,51.0287047666,4.29742756629
1840,Londerzeel,Holle Eikstraat,28,51.0155677758,4.3069712949
1840,Londerzeel,Smisstraat,67,50.9925256555,4.25646528546
1840,Londerzeel,Chrysantenlaan,31,51.0065475163,4.29885312635
1840,Londerzeel,Meerstraat,316,51.0239417135,4.31618453713
1840,Londerzeel,Meerstraat,101,51.0078520441,4.30826112903
1840,Londerzeel,Boskantstraat,31,50.9937407447,4.23528597065
1840,Londerzeel,Weversstraat,16,51.0116832706,4.32024264898
1840,Londerzeel,Nieuwstraat,29,51.0300141461,4.29498828276
1840,Londerzeel,Hageveld,7,51.01424909,4.30494351098
1840,Londerzeel,Over de Beek,59,50.9823876445,4.28395484269
1840,Londerzeel,Bloemstraat,32,51.0288735756,4.29263720089
1840,Londerzeel,Karreveld,6,51.0212526633,4.24300239877
1840,Londerzeel,Geerakker,15,51.0094513429,4.3035927895
1840,Londerzeel,Jan Hammeneckerstraat,34,51.0275024641,4.29890596909
1840,Londerzeel,A. Lambertsstraat,10,51.0136905528,4.3023929503
1840,Londerzeel,Blauwenhoek,90,51.0195908098,4.29101220069
1840,Londerzeel,Leireken,13,50.9955675683,4.25953285027
1840,Londerzeel,Pikstraat,25,51.0163663938,4.29829309757
1840,Londerzeel,Mechelsestraat,232,51.0075104513,4.31519325677
1840,Londerzeel,Kasteelstraat,92,51.0078496497,4.29567385686
1840,Londerzeel,Steenhuffelstraat,51,51.0173868074,4.24641118161
1840,Londerzeel,Chrysantenlaan,13,51.0058412148,4.30003643364
1840,Londerzeel,Molenhoek,17,51.0226722767,4.31932652444
1840,Londerzeel,Patattestraat,32,51.0365950783,4.29061695651
1840,Londerzeel,Stuikberg,112,51.0294502128,4.30792663994
1840,Londerzeel,Weversstraat,34,51.014345179,4.3199674683
1840,Londerzeel,Hendolfstraat,11,50.9999185018,4.30835530502
1840,Londerzeel,Klein Holland,27,51.0107588368,4.2987484431
1840,Londerzeel,Chrysantenlaan,66,51.0052570388,4.29733355311
1840,Londerzeel,Bosweg,1,51.004150137,4.29573043514
1840,Londerzeel,Bontestraat,39,50.9833834569,4.26153825005
1840,Londerzeel,Holstraat,11,51.0165646419,4.23789843274
1840,Londerzeel,Klein Holland,113,51.0145821462,4.29647999037
1840,Londerzeel,Koolmeesstraat,4,51.0132665096,4.29981332733
1840,Londerzeel,Zwaluwstraat,178,51.0102824566,4.2438957427
1840,Londerzeel,Bergboslaan,3,51.007683325,4.32027024149
1840,Londerzeel,Meir,2,50.9943175957,4.25746778957
1840,Londerzeel,Kerkstraat,24,51.003033843,4.30210742431
1840,Londerzeel,Lippelostraat,13,51.0224676087,4.2459865093
1840,Londerzeel,Bogaarden,12,50.9992444263,4.3094626173
1840,Londerzeel,Sint Jozefstraat,26,51.0283857727,4.29540263465
1840,Londerzeel,Ebbing,12,50.9908727863,4.26397544292
1840,Londerzeel,Karreveld,26,51.0220850915,4.24287318574
1840,Londerzeel,Opdorpstraat,18,51.0198883565,4.24120189849
1840,Londerzeel,Tramstraat,32,51.0039336655,4.29600032253
1840,Londerzeel,Patattestraat,14,51.0349195836,4.29042626837
1840,Londerzeel,Heide,62,51.0074889672,4.24775027387
1840,Londerzeel,Daalkouter,4,51.0020458706,4.31127937844
1840,Londerzeel,Hoogweg,22,51.016182203,4.22874995106
1840,Londerzeel,Handelsstraat,15,51.0150258992,4.2383920672
1840,Londerzeel,Topmolen,85,51.0253423655,4.2949769009
1840,Londerzeel,Linde,130,51.0022833775,4.28613787504
1840,Londerzeel,Brusselsestraat,34,50.9999389717,4.30256308724
1840,Londerzeel,Heide,80,51.008069557,4.24512581932
1840,Londerzeel,Kouterbaan,36,51.0200499545,4.24945502802
1840,Londerzeel,Molenheide,27,51.0129596536,4.24026607292
1840,Londerzeel,Deisels,15,51.0116570471,4.30776937125
1840,Londerzeel,Bloemstraat,14,51.0281231212,4.2936872453
1840,Londerzeel,Breendonkstraat,34,51.0250059889,4.29717031264
1840,Londerzeel,Meerstraat,244,51.0162329921,4.31499715382
1840,Londerzeel,Walrotstraat,20,51.0006692883,4.24495904155
1840,Londerzeel,Tramstraat,14,51.0024546515,4.29697136259
1840,Londerzeel,Damveld,4,50.9982578226,4.30064090142
1840,Londerzeel,Broekveld,24,51.0230109329,4.29954813429
1840,Londerzeel,Zandvat,51,51.0146063498,4.24454976717
1840,Londerzeel,Edward Van Esbroeckstraat,28,51.0052799322,4.30486626399
1840,Londerzeel,Lakeman,15,51.0013139583,4.28442703421
1840,Londerzeel,Lekkestraat,3,50.9935021898,4.26468165153
1840,Londerzeel,Holstraat,48,51.0192873828,4.23753314823
1840,Londerzeel,Meerstraat,126,51.009084945,4.30765327884
1840,Londerzeel,Markt,3,51.0013162006,4.30161706624
1840,Londerzeel,Stationsstraat,102,51.0082955773,4.29938970027
1840,Londerzeel,Meerstraat,280,51.0187537466,4.31489909769
1840,Londerzeel,Moorhoek,10,51.0114913459,4.27872624253
1840,Londerzeel,Handelsstraat,139,51.0146191072,4.22891320568
1840,Londerzeel,Kouterbaan,18,51.0198730928,4.24772572804
1840,Londerzeel,Egmont en Hoornstraat,36,51.0129954007,4.29950607021
1840,Londerzeel,Sint Genovevastraat,8,50.9949395581,4.26854793585
1840,Londerzeel,Brusselsestraat,16,51.0003809906,4.30244622264
1840,Londerzeel,L. Van Hoeymissenstraat,51,51.0162938062,4.24144677232
1840,Londerzeel,Zwaluwstraat,100,51.0120832126,4.23348556402
1840,Londerzeel,Kerkhofstraat,53,51.0020183491,4.306943089
1840,Londerzeel,Hoefsmidstraat,74,51.0153335961,4.24136486271
1840,Londerzeel,Lunderstraat,35,51.0093904098,4.30183501681
1840,Londerzeel,Mattestraat,88,51.0075338663,4.23453689294
1840,Londerzeel,Sint Kristoffelstraat,9,51.0066270913,4.30949056927
1840,Londerzeel,Steenhuffeldorp,56,50.9949921944,4.26629423587
1840,Londerzeel,Achterheide,52,51.0354402655,4.29977515813
1840,Londerzeel,Sneppelaar,39,51.0184780774,4.28196281022
1840,Londerzeel,Haan,98,50.9966360073,4.24346410604
1840,Londerzeel,Gildenstraat,13,51.0015180032,4.30371511177
1840,Londerzeel,Haan,104,50.9971540822,4.24357925207
1840,Londerzeel,Koeisteert,53,51.033815554,4.29193995747
1840,Londerzeel,Topmolen,49,51.0231300048,4.29529847695
1840,Londerzeel,Polderstraat,24,51.000512967,4.29840844913
1840,Londerzeel,St.-Niklaasstraat,63,50.9921647682,4.26724913072
1840,Londerzeel,Deisels,33,51.0106775452,4.30645174034
1840,Londerzeel,Blauwenhoek,125,51.0217717895,4.29404566138
1840,Londerzeel,Hoefsmidstraat,28,51.0163653847,4.24408881809
1840,Londerzeel,Blokstraat,96,51.019349811,4.26421642703
1840,Londerzeel,Hoefsmidstraat,56,51.0160279991,4.24262174767
1840,Londerzeel,Klein Holland,7,51.0100201544,4.29958366363
1840,Londerzeel,Bergboslaan,32,51.008095458,4.3180676102
1840,Londerzeel,de Spoelberchstraat,5,51.0110398482,4.29861821745
1840,Londerzeel,de Spoelberchstraat,39,51.0107536331,4.30318105143
1840,Londerzeel,Steenhuffeldorp,21,50.99558479,4.26571035023
1840,Londerzeel,Stuikberg,66,51.0306278598,4.30466412686
1840,Londerzeel,Broekveld,59,51.0235458709,4.30095383397
1840,Londerzeel,Mechelsestraat,83,51.0045893257,4.30871251321
1840,Londerzeel,St.-Niklaasstraat,17,50.9940317639,4.26899441871
1840,Londerzeel,Haan,10,50.9914738138,4.24698707638
1840,Londerzeel,Sneppelaar,5,51.0140357337,4.28289324079
1840,Londerzeel,Egmont en Hoornstraat,18,51.0123104019,4.29822817622
1840,Londerzeel,Bogaarden,30,50.9987357396,4.31056940985
1840,Londerzeel,Herbodin,8,51.0161281335,4.26837494514
1840,Londerzeel,Ebbing,30,50.9921472019,4.26289338824
1840,Londerzeel,Linde,112,51.0021649667,4.28766658482
1840,Londerzeel,Handelsstraat,150,51.0151005931,4.22901580325
1840,Londerzeel,Markt,19,51.0019581068,4.30273164857
1840,Londerzeel,Hoge Donk,2,51.0351334179,4.30046205568
1840,Londerzeel,Stuikberg,84,51.0294427322,4.3051365661
1840,Londerzeel,Maldersesteenweg,20,51.0327052909,4.2878308312
1840,Londerzeel,Stuikberg,31,51.0311770929,4.30125808073
1840,Londerzeel,L. Van Hoeymissenstraat,23,51.0181055594,4.24229296324
1840,Londerzeel,Bergboslaan,14,51.0078738864,4.31915897315
1840,Londerzeel,Mattestraat,35,51.0104617923,4.2299419365
1840,Londerzeel,Lunderstraat,1,51.0110705768,4.29982379388
1840,Londerzeel,Molenstraat,88,51.003303866,4.29729433125
1840,Londerzeel,Vlasstraat,36,51.0147216963,4.2384620233
1840,Londerzeel,Meerstraat,20,51.0051135106,4.30331594897
1840,Londerzeel,Topmolen,67,51.0242654254,4.29576222164
1840,Londerzeel,Heide,44,51.0066666144,4.24816030151
1840,Londerzeel,Boeksheide,46,51.0129179428,4.22599321361
1840,Londerzeel,Zandvat,23,51.0142553085,4.24591058456
1840,Londerzeel,Eshagestraat,6,51.0035330947,4.26473445543
1840,Londerzeel,Heerbaan,36,50.9899437476,4.25958432978
1840,Londerzeel,Sint Kristoffelstraat,21,51.0068281733,4.30894362691
1840,Londerzeel,Bergkapelstraat,3,51.0074444178,4.31731757468
1840,Londerzeel,Handelsstraat,68,51.015153496,4.23362181164
1840,Londerzeel,Malderendorp,17,51.0200547426,4.24526994171
1840,Londerzeel,Jozef Vermaesenplein,15,51.020431068,4.24300587542
1840,Londerzeel,Meerstraat,226,51.0148972523,4.31408265603
1840,Londerzeel,Kasteelstraat,38,51.0062691453,4.29648357413
1840,Londerzeel,Klein Holland,63,51.0125991817,4.29771005656
1840,Londerzeel,Burchtlaan,55,51.002021604,4.29675205504
1840,Londerzeel,Handelsstraat,86,51.0159966953,4.23262412364
1840,Londerzeel,Zavel,13,51.0404934345,4.27822889353
1840,Londerzeel,Heerbaan,133,50.9843352596,4.25558446811
1840,Londerzeel,Kievitstraat,24,51.012529533,4.30639529837
1840,Londerzeel,Oudenhove,7,50.9992198253,4.3113567378
1840,Londerzeel,Bergkapelstraat,37,51.0071984896,4.32080318333
1840,Londerzeel,Topmolen,32,51.0231479137,4.29389112348
1840,Londerzeel,Stationsstraat,43,51.0062194759,4.30192982989
1840,Londerzeel,Patattestraat,2,51.0339305202,4.29069378519
1840,Londerzeel,Geerakker,43,51.0103386075,4.30618544592
1840,Londerzeel,Autostrade,100,51.0211527995,4.31747802354
1840,Londerzeel,Mattestraat,17,51.0115237159,4.2284548807
1840,Londerzeel,Daalkouter,25,51.0039437307,4.31052526415
1840,Londerzeel,Houtenveld,8,51.00318594,4.31013754301
1840,Londerzeel,Polderstraat,59,50.9993907565,4.29793573847
1840,Londerzeel,Meir,31,50.9968721975,4.25276836378
1840,Londerzeel,Lippelostraat,41,51.0244697001,4.24543139943
1840,Londerzeel,Steenhuffelstraat,94,51.0100483406,4.25278152991
1840,Londerzeel,Stationsstraat,61,51.0070329551,4.30139381392
1840,Londerzeel,Sint Jozefstraat,97,51.030210705,4.29834730736
1840,Londerzeel,Heerbaan,18,50.9915604994,4.26042834506
1840,Londerzeel,Lunderstraat,17,51.0102120146,4.30057539193
1840,Londerzeel,Haan,45,50.9952004469,4.24457485206
1840,Londerzeel,Groenhof,5,51.0266175761,4.25773459501
1840,Londerzeel,Dorpsstraat,19,51.0041247837,4.30279658561
1840,Londerzeel,Zwaluwstraat,67,51.0125241853,4.23283080921
1840,Londerzeel,Blauwenhoek,79,51.0190778027,4.29183721495
1840,Londerzeel,Mechelsestraat,65,51.0042977811,4.30794795548
1840,Londerzeel,Minnestraat,7,51.0249563146,4.31246356356
1840,Londerzeel,Boeksheide,117,51.0136354419,4.22245505041
1840,Londerzeel,Bloemstraat,2,51.0274553952,4.2940810078
1840,Londerzeel,Acacialaan,22,51.0023219948,4.3119859553
1840,Londerzeel,Meerstraat,179,51.012503135,4.31240738212
1840,Londerzeel,Bergboslaan,85,51.0086253436,4.31930451994
1840,Londerzeel,Neringstraat,17,51.0134287832,4.32618392206
1840,Londerzeel,Achterheide,87,51.037690082,4.30175278132
1840,Londerzeel,Meir,51,50.9987510372,4.25088248888
1840,Londerzeel,Breendonkstraat,69,51.0261411614,4.30170869931
1840,Londerzeel,Bogaarden,9,50.9983991496,4.30939985546
1840,Londerzeel,J. Van Doorslaerstraat,2,50.9949764669,4.26454649688
1840,Londerzeel,Kaaskantmolenstraat,3,50.9907918665,4.29543058598
1840,Londerzeel,Linde,31,51.0030277744,4.29430692597
1840,Londerzeel,Hageveld,24,51.0155868165,4.30659491332
1840,Londerzeel,Dorpsstraat,37,51.0045188489,4.30260526699
1840,Londerzeel,Holle Eikstraat,11,51.0139781944,4.30636517601
1840,Londerzeel,Brouwerijstraat,24,50.9979151505,4.26761368554
1840,Londerzeel,Lakeman,86,50.9947946324,4.28038690171
1840,Londerzeel,Ursene,13,51.0173280174,4.2891436174
1840,Londerzeel,Topmolen,48,51.023585002,4.29438686233
1840,Londerzeel,Linde,84,51.0029869876,4.29002286225
1840,Londerzeel,Broekveld,7,51.0239821745,4.29813252117
1840,Londerzeel,Zwaluwstraat,32,51.0137980424,4.22590162405
1840,Londerzeel,Pikstraat,71,51.0203563281,4.31164782489
1840,Londerzeel,Over de Beek,42,50.990338719,4.28026107044
1840,Londerzeel,Lakeman,33,50.9998074003,4.28344263587
1840,Londerzeel,Plas,16,51.0009406962,4.26781504942
1840,Londerzeel,Sint Genovevastraat,20,50.9949585583,4.26826870774
1840,Londerzeel,Nieuwstraat,12,51.0296699372,4.29495674658
1840,Londerzeel,Linde,66,51.0006782925,4.29162781648
1840,Londerzeel,Gertrudeveld,23,50.9946633797,4.25830225257
1840,Londerzeel,Heerbaan,115,50.9854621009,4.25753525537
1840,Londerzeel,Bouw,15,51.0043259247,4.23580761957
1840,Londerzeel,Watermolenstraat,26,51.0011181652,4.27679244808
1840,Londerzeel,Steenhuffelstraat,23,51.0187668281,4.24625738599
1840,Londerzeel,Mechelsestraat,142,51.0064086134,4.31012971139
1840,Londerzeel,Zwaluwstraat,85,51.0120048368,4.23619375802
1840,Londerzeel,Autostrade,2,50.9983481651,4.31524832527
1840,Londerzeel,Maldersesteenweg,40,51.0314330051,4.28424393782
1840,Londerzeel,Kouterbaan,89,51.0194949321,4.25967122595
1840,Londerzeel,Meerstraat,8,51.0049468317,4.30295159084
1840,Londerzeel,Ursene,48,51.0183792012,4.28941875065
1840,Londerzeel,Meerstraat,40,51.0056988688,4.30428354471
1840,Londerzeel,Nachtegaalstraat,27,51.0098415446,4.30226811223
1840,Londerzeel,Sint Jozefstraat,123,51.0314398117,4.29795944198
1840,Londerzeel,Jan Hammeneckerstraat,52,51.0278235498,4.30013791859
1840,Londerzeel,Dorpsstraat,3,51.003296105,4.30268063132
1840,Londerzeel,Handelsstraat,33,51.0150587582,4.23705614413
1840,Londerzeel,Bergkapelstraat,19,51.0066067463,4.31863369701
1840,Londerzeel,Smisstraat,60,50.992848293,4.2553522316
1840,Londerzeel,Bontestraat,22,50.9799902828,4.2591432922
1840,Londerzeel,Maldersesteenweg,108,51.0258084238,4.27551893808
1840,Londerzeel,Blauwenhoek,97,51.0198986135,4.29327161075
1840,Londerzeel,Steenhuffelstraat,58,51.0148037935,4.24657863395
1840,Londerzeel,Kerkhofstraat,142,51.0004000447,4.31162783384
1840,Londerzeel,Hooiveld,83,51.0323186521,4.29541378065
1840,Londerzeel,Brusselsestraat,131,50.994968442,4.30080630965
1840,Londerzeel,Sneppelaar,49,51.0188722595,4.28063797462
1840,Londerzeel,Maldersesteenweg,29,51.0337930488,4.28796069338
1840,Londerzeel,Lunderstraat,45,51.0092019444,4.30270245291
1840,Londerzeel,Heerbaan,44,50.9894510302,4.25936485239
1840,Londerzeel,Sint Genovevastraat,1,50.9956133953,4.26729555517
1840,Londerzeel,Nieuwstraat,47,51.0303454538,4.29422398102
1840,Londerzeel,Stuikberg,51,51.0308154177,4.30310136322
1840,Londerzeel,Breendonkstraat,113,51.0277300792,4.3056890811
1840,Londerzeel,L. Van Hoeymissenstraat,66,51.0157595818,4.24019530305
1840,Londerzeel,Kasteelstraat,46,51.0058772396,4.29490525528
1840,Londerzeel,Gildenstraat,3,51.0014076309,4.30308600751
1840,Londerzeel,Tramstraat,39,51.0044122186,4.29639936123
1840,Londerzeel,Markt,30,51.0017970012,4.30141180684
1840,Londerzeel,Steenhuffelstraat,31,51.0183074557,4.24657467634
1840,Londerzeel,Schoolstraat,11,50.9937401604,4.25923098113
1840,Londerzeel,Brusselsestraat,113,50.9957398966,4.30113695687
1840,Londerzeel,Ebbing,19,50.9920845639,4.26382063182
1840,Londerzeel,Mechelsestraat,47,51.0037036297,4.30609448062
1840,Londerzeel,Bogaarden,19,50.9982219954,4.31035137554
1840,Londerzeel,Populierenstraat,15,51.0087965164,4.29767829402
1840,Londerzeel,Meerstraat,29,51.0052406556,4.30437649162
1840,Londerzeel,Ambachtsstraat,2,51.0158463874,4.3213975437
1840,Londerzeel,Boskantstraat,23,50.99332674,4.2365977146
1840,Londerzeel,Gertrudeveld,13,50.9947586797,4.25928673196
1840,Londerzeel,Blokstraat,15,51.0175419379,4.24814314825
1840,Londerzeel,Bergboslaan,65,51.0083553764,4.31859765593
1840,Londerzeel,Lunderstraat,63,51.0100074201,4.30345295548
1840,Londerzeel,Lakeman,104,50.995688393,4.27785341322
1840,Londerzeel,Berreweide,21,51.0118033273,4.30729966563
1840,Londerzeel,Lekkestraat,30,50.9929306132,4.26721571976
1840,Londerzeel,Stationsstraat,15,51.0052556526,4.3027099532
1840,Londerzeel,Moorhoek,17,51.0102011738,4.27493721149
1840,Londerzeel,Bontestraat,3,50.9779860807,4.25516355881
1840,Londerzeel,Lemmeken,41,51.0139664352,4.24456613217
1840,Londerzeel,Mattestraat,63,51.0090063918,4.23305996487
1840,Londerzeel,Deisels,6,51.0127780208,4.30998902663
1840,Londerzeel,Molenstraat,63,51.0039552517,4.29795554798
1840,Londerzeel,Blauwenhoek,36,51.0165008522,4.29216233732
1840,Londerzeel,Sint Jozefstraat,105,51.0304080095,4.29743511794
1840,Londerzeel,Lippelostraat,4,51.0206201935,4.24643385213
1840,Londerzeel,Burchtlaan,29,51.0025534115,4.29842436351
1840,Londerzeel,Breendonkstraat,131,51.0283844332,4.30662643632
1840,Londerzeel,Meerstraat,91,51.0076029453,4.30806197347
1840,Londerzeel,Schoolstraat,9,50.9937454968,4.25946100785
1840,Londerzeel,Bergboslaan,39,51.0085586831,4.32005405512
1840,Londerzeel,Sneppelaar,67,51.0205469354,4.27921933445
1840,Londerzeel,Valkenstraat,19,51.0114597665,4.30212462886
1840,Londerzeel,Lekkestraat,12,50.9938264074,4.26558343167
1840,Londerzeel,Molenstraat,81,51.0037664789,4.2969039785
1840,Londerzeel,Molenheide,7,51.0117833095,4.23949212013
1840,Londerzeel,Mechelsestraat,170,51.0069608751,4.31211675499
1840,Londerzeel,Broekveld,52,51.0237142084,4.29934856087
1840,Londerzeel,Acacialaan,14,51.0017524307,4.31120522577
1840,Londerzeel,Haan,17,50.9941029883,4.24545702757
1840,Londerzeel,de Spoelberchstraat,32,51.0112174473,4.30217113741
1840,Londerzeel,Kerkstraat,5,51.0021768334,4.30228699646
1840,Londerzeel,Lunderstraat,8,51.0106397753,4.30083852529
1840,Londerzeel,St.-Niklaasstraat,10,50.995183635,4.26953568994
1840,Londerzeel,Maldersesteenweg,73,51.0313296009,4.28171351582
1840,Londerzeel,Brusselsestraat,95,50.9972016507,4.30199369696
1840,Londerzeel,Kasteelstraat,9,51.0082114908,4.29871060723
1840,Londerzeel,Meerstraat,73,51.0065546349,4.30648793782
1840,Londerzeel,Brusselsestraat,199,50.9902574686,4.2979592332
1840,Londerzeel,Meerstraat,269,51.0184845534,4.31556380444
1840,Londerzeel,Breendonkstraat,95,51.0273502105,4.30469251144
1840,Londerzeel,Handelsstraat,53,51.0150001939,4.23549004885
1840,Londerzeel,Ebbing,45,50.9921120191,4.26467916347
1840,Londerzeel,Zandvat,31,51.0144753529,4.24564338917
1840,Londerzeel,Kruisbroeken,2,51.0388927685,4.29871762339
1840,Londerzeel,Handelsstraat,122,51.0154577508,4.23087315324
1840,Londerzeel,Rossemstraat,58,50.9814222942,4.27545206821
1840,Londerzeel,Nachtegaalstraat,7,51.0107076668,4.30119622165
1840,Londerzeel,Bergboslaan,47,51.0082802439,4.31971836522
1840,Londerzeel,Geerakker,6,51.0101493644,4.30462230822
1840,Londerzeel,Wielewaalstraat,3,51.013544176,4.30184937863
1840,Londerzeel,Heerbaan,62,50.9877038791,4.25973108051
1840,Londerzeel,Kruisheide,6,51.0309549699,4.24393087192
1840,Londerzeel,Meerstraat,216,51.0148377324,4.31327758209
1840,Londerzeel,Bontestraat,42,50.9840095046,4.26188416389
1840,Londerzeel,Markt,12,51.0012899632,4.30259866604
1840,Londerzeel,Topmolen,50,51.0236591531,4.29422982016
1840,Londerzeel,Meir,66,51.0024053115,4.25355355105
1840,Londerzeel,Zandvat,13,51.013801597,4.24579206771
1840,Londerzeel,Kasteelstraat,100,51.0081328358,4.29528543877
1840,Londerzeel,Lakeman,53,50.9987144775,4.28441016372
1840,Londerzeel,Kouhagen,4,50.9867264867,4.27597935614
1840,Londerzeel,Kloosterstraat,7,51.0192953201,4.24142583114
1840,Londerzeel,Blauwenhoek,18,51.0156623146,4.29308399763
1840,Londerzeel,Brusselsestraat,77,50.997753345,4.30189192117
1840,Londerzeel,Molenstraat,8,51.0040302717,4.30128909713
1840,Londerzeel,Vinkenstraat,25,51.0151062225,4.3098785495
1840,Londerzeel,Topmolen,117,51.0265378093,4.29496605515
1840,Londerzeel,Hoefsmidstraat,21,51.0157890391,4.2446335771
1840,Londerzeel,Beekstraat,14,51.0108342155,4.26111845677
1840,Londerzeel,Smisstraat,93,50.994906922,4.25833116772
1840,Londerzeel,Brouwerijstraat,5,50.9970643912,4.26810667401
1840,Londerzeel,Drietorenstraat,41,51.0088799932,4.28533027458
1840,Londerzeel,Stationsstraat,33,51.0059660737,4.30209004583
1840,Londerzeel,L. Van Hoeymissenstraat,13,51.018722178,4.24277001554
1840,Londerzeel,Topmolen,39,51.022946887,4.29513513955
1840,Londerzeel,Stationsstraat,4,51.0048066002,4.3023018257
1840,Londerzeel,Chrysantenlaan,58,51.0053627517,4.29839041039
1840,Londerzeel,Handelsstraat,212,51.0153124254,4.22382785828
1840,Londerzeel,Pluimennest,5,50.9967296908,4.28910623171
1840,Londerzeel,Pikstraat,33,51.0184695447,4.30010773285
1840,Londerzeel,Bergkapelstraat,30,51.0073211418,4.32001699618
1840,Londerzeel,Blokstraat,43,51.0183549023,4.25420275473
1840,Londerzeel,Lippelostraat,94,51.0276622608,4.24850594291
1840,Londerzeel,Sint Jozefstraat,72,51.0306467903,4.29644744784
1840,Londerzeel,Linde,51,51.0032352674,4.29153004347
1840,Londerzeel,Populierenstraat,4,51.0084346463,4.29909583761
1840,Londerzeel,Chrysantenlaan,76,51.005935105,4.29721641141
1840,Londerzeel,Eeckhout,26,51.0026773827,4.31480051789
1840,Londerzeel,Meerstraat,324,51.0244590755,4.3166938023
1840,Londerzeel,Hendolfstraat,21,51.0005478712,4.3093330583
1840,Londerzeel,Hoogveld,2,50.9944271819,4.29998064353
1840,Londerzeel,Bergkapelstraat,12,51.0075512144,4.31859950242
1840,Londerzeel,Steenhuffeldorp,92,50.9936128878,4.26330616207
1840,Londerzeel,Meerstraat,180,51.0128435985,4.31194001479
1840,Londerzeel,Maldersesteenweg,55,51.0328100163,4.28422294015
1840,Londerzeel,Molenstraat,10,51.0039758465,4.30121665742
1840,Londerzeel,Kloosterstraat,53,51.016315011,4.24261342607
1840,Londerzeel,Nieuwstraat,37,51.0302840669,4.29438045534
1840,Londerzeel,Kerkhofstraat,27,51.0027426932,4.3044052462
1840,Londerzeel,Robbroekstraat,15,50.9900589854,4.26314945973
1840,Londerzeel,Opdorpstraat,44,51.0201952916,4.23884992156
1840,Londerzeel,Lippelostraat,58,51.0233852834,4.2470151738
1840,Londerzeel,Klein Holland,88,51.0139668533,4.29503013328
1840,Londerzeel,L. Van Hoeymissenstraat,31,51.0171233629,4.24174066595
1840,Londerzeel,Zwaluwstraat,2,51.0145050586,4.22239349356
1840,Londerzeel,Maldersesteenweg,1,51.0337357922,4.29079076311
1840,Londerzeel,J. Van Doorslaerstraat,22,50.9946738115,4.26323598795
1840,Londerzeel,Berkenlaan,11,50.9989462556,4.30344897675
1840,Londerzeel,Smisstraat,75,50.9930827356,4.25696533726
1840,Londerzeel,Sint Genovevastraat,29,50.9943764136,4.26751871384
1840,Londerzeel,Jan Hammeneckerstraat,24,51.0282534844,4.29827595596
1840,Londerzeel,Dorpsstraat,12,51.0035126572,4.30204563117
1840,Londerzeel,Deisels,43,51.0097659083,4.30634635857
1840,Londerzeel,Lunderstraat,10,51.0105513701,4.30092129641
1840,Londerzeel,Mechelsestraat,124,51.0056806652,4.3091989659
1840,Londerzeel,Handelsstraat,71,51.0148526605,4.23364690071
1840,Londerzeel,Meerstraat,162,51.0115139813,4.30999458356
1840,Londerzeel,Drietorenstraat,2A,51.0024001194,4.28469221775
1840,Londerzeel,Bloemstraat,57,51.0324174277,4.29183716634
1840,Londerzeel,Sint Jozefstraat,90,51.0310156557,4.29711787765
1840,Londerzeel,Mattestraat,10,51.0116189704,4.22699745798
1840,Londerzeel,Gildenstraat,23,51.0019083818,4.30434312586
1840,Londerzeel,Jozef Vermaesenplein,6,51.0196371868,4.24345977693
1840,Londerzeel,Breendonkstraat,42,51.02567743,4.29770437672
1840,Londerzeel,Kasteelstraat,82,51.0077052758,4.296540937
1840,Londerzeel,Neeravert,27,51.0247769663,4.30377807878
1840,Londerzeel,Schuurveld,2,50.996060612,4.30063637083
1840,Londerzeel,St.-Niklaasstraat,45,50.9934711729,4.26853367675
1840,Londerzeel,Zwaluwstraat,39,51.0133446601,4.22946646703
1840,Londerzeel,Over de Beek,34,50.990415372,4.28059036487
1840,Londerzeel,Berkenlaan,46,51.000594197,4.30640787339
1840,Londerzeel,Oudenhove,26,50.9985238689,4.31131512894
1840,Londerzeel,Patattestraat,22,51.0354952669,4.29087895881
1840,Londerzeel,Nieuwstraat,19,51.0297876307,4.29543666662
1840,Londerzeel,Molenhoek,27,51.0211264102,4.31884113467
1840,Londerzeel,Zwaantje,3,51.0324515223,4.26393432959
1840,Londerzeel,Malderendorp,7,51.0201789386,4.24575674776
1840,Londerzeel,Steenhuffeldorp,8,50.9959105347,4.27012146481
1840,Londerzeel,Meerstraat,1,51.004457074,4.30305599079
1840,Londerzeel,Blauwenhoek,7,51.0151972329,4.29481645353
1840,Londerzeel,Broekstraat,5,51.0233529097,4.26422550871
1840,Londerzeel,Topmolen,2,51.0219816424,4.29326928177
1840,Londerzeel,Mechelsestraat,106,51.0052343687,4.30832986598
1840,Londerzeel,Smisstraat,57,50.9920605138,4.2554754801
1840,Londerzeel,Sint Jozefstraat,54,51.0294199438,4.29640456433
1840,Londerzeel,Zwaluwstraat,135,51.0109639336,4.24666753283
1840,Londerzeel,Bloemstraat,22,51.0282920538,4.29359075972
1840,Londerzeel,Molenheide,71,51.0129302273,4.23680602942
1840,Londerzeel,Smisstraat,111,50.9963005621,4.25926363735
1840,Londerzeel,Middelweg,17,51.0027890352,4.32590707502
1840,Londerzeel,Meerstraat,306,51.0226861352,4.31440092009
1840,Londerzeel,Kasteelstraat,64,51.0068628864,4.29650361132
1840,Londerzeel,Heldenplein,3,51.0010445087,4.30413887173
1840,Londerzeel,Kerkhofstraat,114,51.0011857473,4.30971391331
1840,Londerzeel,Reigerstraat,6,51.0129907544,4.31046156955
1840,Londerzeel,Pilatusveld,24,51.0040557303,4.31181775972
1840,Londerzeel,Geerakker,25,51.0087656837,4.30397217235
1840,Londerzeel,Hoge Donk,13,51.0338678816,4.30019258926
1840,Londerzeel,Lippelostraat,33,51.023870895,4.24547430144
1840,Londerzeel,Burchtlaan,40,51.0014507017,4.29809178571
1840,Londerzeel,Molenheide,53,51.0133407506,4.23752663511
1840,Londerzeel,Vlasstraat,6,51.0148157278,4.23912212301
1840,Londerzeel,Molenstraat,45,51.0041365589,4.29947629254
1840,Londerzeel,Over de Beek,16,50.9914580995,4.2806958123
1840,Londerzeel,Leeuwerikstraat,16,51.0124900779,4.30193707875
1840,Londerzeel,Kruisheide,17,51.032647152,4.25574953034
1840,Londerzeel,Lippelostraat,76,51.0250834707,4.24725651344
1840,Londerzeel,Sint Kristoffelstraat,28,51.0072271511,4.3076116482
1840,Londerzeel,Maldersesteenweg,12,51.0329955596,4.28918178754
1840,Londerzeel,Deisels,25,51.0109144928,4.30713424641
1840,Londerzeel,Nachtegaalstraat,17,51.0102118974,4.30163337329
1840,Londerzeel,Geerakker,35,51.0094701461,4.30528536417
1840,Londerzeel,Linde,120,51.0023594876,4.2867462108
1840,Londerzeel,Sneppelaar,60,51.0197782414,4.27880891507
1840,Londerzeel,Lakeman,25,51.0006489898,4.28449047625
1840,Londerzeel,Beemden,30,50.997860589,4.30971449278
1840,Londerzeel,Achterheide,5,51.0330368048,4.29872914777
1840,Londerzeel,Edward Van Esbroeckstraat,2,51.0045493163,4.30574102921
1840,Londerzeel,Toekomststraat,2,51.0092794346,4.29939481232
1840,Londerzeel,Doornhaag,4,51.0134895727,4.2973007445
1840,Londerzeel,Kerkhofstraat,7,51.0028733705,4.30320863309
1840,Londerzeel,Tramstraat,22,51.0029107669,4.29683717903
1840,Londerzeel,Schoolstraat,28,50.9932965045,4.25764169447
1840,Londerzeel,Meerstraat,134,51.0095774892,4.30806913348
1840,Londerzeel,Zwaluwstraat,93,51.0121297545,4.2372944656
1840,Londerzeel,Chrysantenlaan,23,51.006055576,4.29906115629
1840,Londerzeel,Mechelsestraat,91,51.0047317356,4.30893629936
1840,Londerzeel,Walrotstraat,12,50.9977015916,4.24832626379
1840,Londerzeel,Berreweide,38,51.0135050509,4.30853905236
1840,Londerzeel,Polderstraat,34,50.9997645186,4.29914492629
1840,Londerzeel,Autostrade,50,51.0169376719,4.31668167264
1840,Londerzeel,Burchtlaan,30,51.0019892343,4.29915119886
1840,Londerzeel,Cattemansdreef,5,50.9952246927,4.30315554695
1840,Londerzeel,Gildenstraat,58,51.002685919,4.30464010756
1840,Londerzeel,Hoefsmidstraat,1A,51.0162529651,4.24610018244
1840,Londerzeel,Heide,72,51.0078644926,4.24683656946
1840,Londerzeel,Burchtlaan,9,51.003322013,4.29802730221
1840,Londerzeel,L. Van Hoeymissenstraat,41,51.0168324897,4.24141795426
1840,Londerzeel,Koeisteert,7,51.0334392572,4.2975428824
1840,Londerzeel,Burchtlaan,12,51.0032335453,4.29860870321
1840,Londerzeel,Holle Eikstraat,9,51.0138210558,4.30617528797
1840,Londerzeel,Stationsstraat,112,51.0085421151,4.29933391259
1840,Londerzeel,Stuikberg,76,51.0301099578,4.30474750686
1840,Londerzeel,Karreveld,18,51.0217317608,4.2429002122
1840,Londerzeel,Handelsstraat,25,51.0148380894,4.23763432717
1840,Londerzeel,Kloosterstraat,35,51.0174325411,4.24211777166
1840,Londerzeel,Valkenstraat,20,51.0123012274,4.30227520195
1840,Londerzeel,Zandvat,41,51.0147196292,4.24577157333
1840,Londerzeel,Brouwerijstraat,21A,50.9980706763,4.26858273934
1840,Londerzeel,Valkenstraat,8,51.0119787286,4.30089388646
1840,Londerzeel,Meerstraat,116,51.0080610449,4.30756682999
1840,Londerzeel,Haan,88,50.995407301,4.24322550306
1840,Londerzeel,Mechelsestraat,19,51.0033240795,4.30402207188
1840,Londerzeel,Ebbing,47,50.9920226935,4.26491394904
1840,Londerzeel,Boeksheide,107,51.0138331694,4.22308442949
1840,Londerzeel,Broekveld,69,51.0239053921,4.30025648608
1840,Londerzeel,Kerkhofstraat,81,51.000693544,4.30979416146
1840,Londerzeel,Walrotstraat,9,50.9992775267,4.24575632026
1840,Londerzeel,Mechelsestraat,187,51.0067315898,4.31468919216
1840,Londerzeel,Haan,47A,50.9950088484,4.24470782895
1840,Londerzeel,Kruisveld,2A,51.011956268,4.29634350376
1840,Londerzeel,Meir,23,50.9966785041,4.25389731349
1840,Londerzeel,Heide,54,51.007281141,4.24836888701
1840,Londerzeel,Boeksheide,56,51.0134292687,4.22601588754
1840,Londerzeel,Hoefsmidstraat,38,51.0162185966,4.2434110136
1840,Londerzeel,Leireken,4,50.9957435147,4.25859415656
1840,Londerzeel,Bergboslaan,22,51.0077763772,4.31856720631
1840,Londerzeel,Broekveld,34,51.022827068,4.30010098216
1840,Londerzeel,Pikstraat,43,51.0185230112,4.30441714621
1840,Londerzeel,Stationsstraat,86,51.0075957175,4.29959504411
1840,Londerzeel,Eshagestraat,26,51.0012491969,4.26286611873
1840,Londerzeel,Achterheide,42,51.0352175244,4.29947652388
1840,Londerzeel,Mechelsestraat,37,51.0035820844,4.30556024063
1840,Londerzeel,Breendonkstraat,24,51.0251025958,4.29638651243
1840,Londerzeel,Meerstraat,252,51.016811247,4.31497341219
1840,Londerzeel,Haan,114,50.9985928763,4.24197154146
1840,Londerzeel,Heide,36,51.0068818111,4.24931083894
1840,Londerzeel,St.-Niklaasstraat,27,50.9941533975,4.26900712363
1840,Londerzeel,Molenstraat,47,51.0042031867,4.29935424001
1840,Londerzeel,Stationsstraat,68,51.0071109428,4.3005396801
1840,Londerzeel,Egmont en Hoornstraat,44,51.0124817193,4.29973567054
1840,Londerzeel,Breendonkstraat,70,51.0264477374,4.30147934813
1840,Londerzeel,Sint Genovevastraat,12,50.9950428253,4.26842065739
1840,Londerzeel,Blauwenhoek,115,51.0210473919,4.29423493535
1840,Londerzeel,Topmolen,110,51.0260745021,4.29393894168
1840,Londerzeel,Mechelsestraat,206,51.008721417,4.31570127214
1840,Londerzeel,Kattestraat,9,51.0031549386,4.29914877191
1840,Londerzeel,Mattestraat,47,51.0097863384,4.23162528584
1840,Londerzeel,Blokstraat,5,51.0168682047,4.24708574319
1840,Londerzeel,Berkenlaan,48,51.0008080364,4.30621512794
1840,Londerzeel,Mechelsestraat,73,51.0044588185,4.30820847176
1840,Londerzeel,Plas,5,51.0046663924,4.26581246549
1840,Londerzeel,Lunderstraat,47,51.0092070013,4.30290620082
1840,Londerzeel,Brusselsestraat,24,51.0000678745,4.30240007732
1840,Londerzeel,Mattestraat,98,51.0069524218,4.23554416919
1840,Londerzeel,Boeksheide,21,51.0141266126,4.2290033045
1840,Londerzeel,Topmolen,57,51.0234266493,4.29516361092
1840,Londerzeel,Meerstraat,30,51.0054614504,4.30359300861
1840,Londerzeel,Neeravert,7,51.025737814,4.30233215444
1840,Londerzeel,St.-Niklaasstraat,91,50.9902570664,4.26534569038
1840,Londerzeel,Bogaarden,20,50.9988662575,4.30946807617
1840,Londerzeel,Ebbing,20,50.9914087135,4.26346320667
1840,Londerzeel,Linde,102,51.0028189487,4.28903100484
1840,Londerzeel,Dorpsstraat,40,51.0047017218,4.3018640131
1840,Londerzeel,Merelstraat,13,51.012324279,4.30138699528
1840,Londerzeel,Handelsstraat,140,51.0151592967,4.22963010748
1840,Londerzeel,Rossemstraat,23,50.9859711841,4.27814227865
1840,Londerzeel,Markt,29,51.0018690816,4.30139033475
1840,Londerzeel,Broekveld,16,51.0236477223,4.29894373088
1840,Londerzeel,Steenhuffeldorp,64,50.9948167561,4.26519097385
1840,Londerzeel,Stuikberg,94,51.0297493805,4.30604604106
1840,Londerzeel,Berkenlaan,9,50.9991264612,4.30340186044
1840,Londerzeel,Holstraat,38,51.01859784,4.23778347319
1840,Londerzeel,Topmolen,22,51.0227200929,4.29398216327
1840,Londerzeel,Handelsstraat,96,51.0153487884,4.23217781939
1840,Londerzeel,Boeksheide,48,51.0131058709,4.2258910425
1840,Londerzeel,Kerfenden,5,51.0380813128,4.30101184104
1840,Londerzeel,Sneppelaar,111,51.023784611,4.27733820468
1840,Londerzeel,Lemmeken,13,51.0150550883,4.24251462529
1840,Londerzeel,Stuiverstraat,23,51.0008275611,4.33285307546
1840,Londerzeel,Stuikberg,109,51.0286866993,4.30795285101
1840,Londerzeel,Meerstraat,169,51.0118285068,4.31165424819
1840,Londerzeel,Sneppelaar,14,51.0175725672,4.28326560467
1840,Londerzeel,Ebbing,8,50.9905701773,4.2642413186
1840,Londerzeel,St.-Niklaasstraat,8,50.995297989,4.26944328837
1840,Londerzeel,Herbodin,1,51.0202136998,4.26673953049
1840,Londerzeel,Lijsterstraat,3,51.0115649631,4.30478953038
1840,Londerzeel,Hageveld,16,51.0156136131,4.30541892298
1840,Londerzeel,Watermolenstraat,18,51.0013899027,4.28253229313
1840,Londerzeel,Veldstraat,12,51.0187445069,4.2535736009
1840,Londerzeel,Handelsstraat,78,51.0151346453,4.23317340502
1840,Londerzeel,Sint Jozefstraat,89,51.0298928849,4.29719527232
1840,Londerzeel,Heerbaan,123,50.9849736019,4.25702756779
1840,Londerzeel,Bloemstraat,50,51.0295223864,4.2923316736
1840,Londerzeel,Merelstraat,31,51.0131978839,4.30099630434
1840,Londerzeel,Linde,76,51.0027246251,4.29102213048
1840,Londerzeel,Verbindingsstraat,3,51.0032778525,4.30548300147
1840,Londerzeel,Steenhuffelstraat,66,51.0145640185,4.24724174961
1840,Londerzeel,Brugstraat,14,51.0133927848,4.24323300024
1840,Londerzeel,Brusselsestraat,59,50.9987083211,4.30200467822
1840,Londerzeel,Acacialaan,32,51.0028103498,4.31250736811
1840,Londerzeel,Molenstraat,27,51.0042158153,4.30083093148
1840,Londerzeel,Klein Holland,71,51.0129076517,4.29765202436
1840,Londerzeel,Brouwerijstraat,34,50.9983872561,4.26782165222
1840,Londerzeel,Blokstraat,68,51.0174407344,4.25600247026
1840,Londerzeel,Koeisteert,10,51.0328839524,4.29641095247
1840,Londerzeel,Kaaskantmolenstraat,29,50.9895752327,4.28709939235
1840,Londerzeel,Vinkenstraat,6,51.0141121783,4.31054041848
1840,Londerzeel,Breendonkstraat,59,51.0261568467,4.3019474275
1840,Londerzeel,Haan,35,50.9947810568,4.24521652017
1840,Londerzeel,Heerbaan,105,50.9860996521,4.25805826937
1840,Londerzeel,Pikstraat,5,51.0151214123,4.2959115728
1840,Londerzeel,Beekstraat,32,51.0112958506,4.26738792464
1840,Londerzeel,Nijverheidsstraat,6,51.0121366625,4.32316803337
1840,Londerzeel,Bievelt,3,51.0364481758,4.3005099138
1840,Londerzeel,Patattestraat,50,51.038417004,4.28931708103
1840,Londerzeel,Molenveld,16,51.0118314761,4.31356865094
1840,Londerzeel,Rozenstraat,16,51.0104396311,4.2967854067
1840,Londerzeel,Polderstraat,69,50.9986628715,4.29893628467
1840,Londerzeel,Holstraat,2,51.0157960274,4.23883255932
1840,Londerzeel,Lunderstraat,27,51.009677318,4.3010006323
1840,Londerzeel,Daalkouter,15,51.0028482404,4.30981498866
1840,Londerzeel,Brusselsestraat,5,51.0010367335,4.30178342981
1840,Londerzeel,Malderendorp,27,51.0197891624,4.24462659771
1840,Londerzeel,Holle Eikstraat,21,51.0151415825,4.30745009433
1840,Londerzeel,Meerstraat,234,51.0156267228,4.31410162359
1840,Londerzeel,Dorpsstraat,29,51.0041342284,4.30216243598
1840,Londerzeel,Breendonkstraat,5,51.0234195273,4.29704172989
1840,Londerzeel,Mechelsestraat,55,51.0038151981,4.3068075358
1840,Londerzeel,Neeravert,10,51.0261142135,4.30319497534
1840,Londerzeel,Eeckhout,6,51.0021920132,4.31410242309
1840,Londerzeel,Steenhuffelstraat,101,51.0151024394,4.24756897509
1840,Londerzeel,Sint Genovevastraat,30,50.9948714741,4.26808086914
1840,Londerzeel,Meerstraat,287,51.0197809086,4.31546387125
1840,Londerzeel,Bontestraat,14,50.9792423741,4.25961877825
1840,Londerzeel,Over de Beek,52,50.9897689823,4.27965354758
1840,Londerzeel,L. Van Hoeymissenstraat,3,51.019458292,4.24319331794
1840,Londerzeel,Kievitstraat,16,51.0130220369,4.307072226
1840,Londerzeel,Houtenveld,19,51.0034480391,4.3108259115
1840,Londerzeel,Egmont en Hoornstraat,26,51.0126550092,4.29877997883
1840,Londerzeel,Bergstraat,31,51.0047053632,4.32124166344
1840,Londerzeel,Marselaerdreef,10,51.0364372647,4.27122456672
1840,Londerzeel,Watermolenstraat,36,51.0008511645,4.27606855589
1840,Londerzeel,Pikstraat,61,51.0197423307,4.30845345274
1840,Londerzeel,Zandvat,3,51.0141608405,4.24479647154
1840,Londerzeel,Sint Jozefstraat,18,51.028072519,4.29513385623
1840,Londerzeel,Mechelsestraat,152,51.0066172282,4.31063539314
1840,Londerzeel,Chrysantenlaan,4,51.0054499689,4.30121996808
1840,Londerzeel,Smisstraat,136,50.9994379915,4.25834833497
1840,Londerzeel,J. Van Doorslaerstraat,39,50.9950823632,4.26242756388
1840,Londerzeel,Zwaluwstraat,22,51.014066315,4.2249691384
1840,Londerzeel,Kloosterstraat,17,51.0187990822,4.24130318461
1840,Londerzeel,Opdorpstraat,26,51.0200223799,4.24036737145
1840,Londerzeel,Jan Hammeneckerstraat,42,51.027853817,4.29947305536
1840,Londerzeel,Topmolen,93,51.0256009262,4.29474601683
1840,Londerzeel,Drietorenstraat,31,51.0045685756,4.28497088065
1840,Londerzeel,Lakeman,96,50.9956191149,4.27907059428
1840,Londerzeel,Bergstraat,13,51.005827281,4.32212944796
1840,Londerzeel,de Spoelberchstraat,14,51.0114378168,4.30051050157
1840,Londerzeel,Kerkhofstraat,160,50.999637056,4.31316073404
1840,Londerzeel,Bouwdreef,18,51.0103834891,4.24261962197
1840,Londerzeel,Bessembaan,18,51.0176013413,4.28428280012
1840,Londerzeel,Sint Jozefstraat,36,51.0286322123,4.29548478585
1840,Londerzeel,Sint Kristoffelstraat,11,51.0066850457,4.30943991701
1840,Londerzeel,Bergkapelstraat,29,51.0069388704,4.32010059601
1840,Londerzeel,Gildenstraat,41,51.0021196324,4.30519164164
1840,Londerzeel,Kouterbaan,79,51.0201446103,4.25701316129
1840,Londerzeel,Brouwerijstraat,16,50.9975192358,4.267573651
1840,Londerzeel,Kerkhofstraat,45,51.0023412215,4.30622450122
1840,Londerzeel,Bontestraat,32,50.9818493613,4.25907845086
1840,Londerzeel,Weversstraat,42,51.0158022178,4.32199753808
1840,Londerzeel,Linde,94,51.0028910962,4.28938120901
1840,Londerzeel,Patattestraat,39,51.0366270569,4.29113157939
1840,Londerzeel,Molenhoek,10,51.0228359131,4.31985057004
1840,Londerzeel,Klein Holland,53,51.011909675,4.29793537805
1840,Londerzeel,Kasteelstraat,28,51.0071113693,4.29773753276
1840,Londerzeel,Smisstraat,118,50.9967690563,4.25856526526
1840,Londerzeel,Boeksheide,9,51.0141124627,4.23004103957
1840,Londerzeel,Heerbaan,167,50.9813855029,4.25274308884
1840,Londerzeel,Boeksheide,41,51.0132999914,4.22757678225
1840,Londerzeel,Meerstraat,156,51.0113790183,4.30937604806
1840,Londerzeel,Steenhuffelstraat,12,51.0192374847,4.24486534195
1840,Londerzeel,Vinkenstraat,17,51.0147208164,4.31070212416
1840,Londerzeel,Gildenstraat,28,51.0020567728,4.3038123872
1840,Londerzeel,Klein Holland,1,51.0093153943,4.29924671631
1840,Londerzeel,Nieuwstraat,23,51.0300472508,4.29531923085
1840,Londerzeel,Berreweide,22,51.0126284814,4.30739235785
1840,Londerzeel,Sneppelaar,11,51.0162140768,4.28330084086
1840,Londerzeel,Jan Hammeneckerstraat,27,51.0274742041,4.29808696688
1840,Londerzeel,Kruisveld,30,51.0107746288,4.2938364779
1840,Londerzeel,Meerstraat,318,51.0241500463,4.31631429501
1840,Londerzeel,Lippelostraat,91,51.0309836934,4.24947266274
1840,Londerzeel,Handelsstraat,178,51.0150955073,4.2261849743
1840,Londerzeel,Smisstraat,19,50.9910635041,4.25239168187
1840,Londerzeel,Sint Jozefstraat,122,51.0326792619,4.29788559469
1840,Londerzeel,Sint Jozefstraat,104,51.0317816901,4.2974019689
1840,Londerzeel,Meerstraat,174,51.0125416324,4.31132849825
1840,Londerzeel,Mechelsestraat,140,51.006306304,4.31010191238
1840,Londerzeel,Maldersesteenweg,147,51.0242658937,4.27257642282
1840,Londerzeel,Steenhuffeldorp,27,50.9949168957,4.26467910012
1840,Londerzeel,Koeisteert,24,51.0331342968,4.29451653285
1840,Londerzeel,Chrysantenlaan,82,51.0062768482,4.29747947721
1840,Londerzeel,Stuikberg,28,51.0319598459,4.30139937658
1840,Londerzeel,Kasteelstraat,94,51.0078947898,4.29555210747
1840,Londerzeel,St.-Niklaasstraat,11,50.9946222649,4.26878762689
1840,Londerzeel,Haan,29,50.9946560689,4.24474949601
1840,Londerzeel,Ebbing,42,50.9931171537,4.26352648106
1840,Londerzeel,Neringstraat,7,51.0142830333,4.32402169705
1840,Londerzeel,Heerbaan,149,50.9821520759,4.25373290328
