PKANCODE,COMMUNE_NL,STREET_NL,HUISNR,LAT,LON
2260,Westerlo,Ritseldonk,58,51.0709171014,4.84955496572
2260,Westerlo,Kathovestraat,6,51.0903301043,4.84154268519
2260,Westerlo,Boerenkrijglaan,96,51.0928963633,4.91336977476
2260,Westerlo,De Reid,50,51.1270654664,4.87765163911
2260,Westerlo,Hotelstraat,11C,51.130608654,4.93926049817
2260,Westerlo,Hofstraat,33,51.1365342107,4.90053365572
2260,Westerlo,Bijstraat,34,51.1297988403,4.90038889175
2260,Westerlo,Olenseweg,207,51.1148433216,4.86836473955
2260,Westerlo,Brugstraat,51,51.1379923722,4.91494697752
2260,Westerlo,Pappotstraat,13,51.1014243138,4.89749934516
2260,Westerlo,Hoog Heultje,18,51.0709921869,4.83511867864
2260,Westerlo,Oosterwijk,79,51.1195954174,4.85621930426
2260,Westerlo,Overwijs,90,51.0966477733,4.89806924227
2260,Westerlo,Kloosterstraat,5,51.1155660251,4.86054815973
2260,Westerlo,Binnenblok,38,51.1063042402,4.92449128352
2260,Westerlo,Brandstee,2,51.1093777413,4.93801332584
2260,Westerlo,Heieinde,87,51.1348014182,4.91660795117
2260,Westerlo,Wimpstraat,19,51.1106757467,4.92541197399
2260,Westerlo,Ilsestraat,76,51.13462893,4.88553809258
2260,Westerlo,Verbindingsstraat,1,51.1353102936,4.90743924848
2260,Westerlo,Kroonstraat,7,51.1394552836,4.89718682262
2260,Westerlo,Nieuwstraat,35,51.086049702,4.91409875379
2260,Westerlo,Dennenstraat,46,51.1358042272,4.89829633092
2260,Westerlo,Olenseweg,225,51.1169779251,4.86813180508
2260,Westerlo,Gravin de Merodestraat,23,51.0850081448,4.83650602835
2260,Westerlo,Zwarte Heide,23,51.1058286776,4.88054309016
2260,Westerlo,Europastraat,5,51.1052575699,4.92018520673
2260,Westerlo,Van Wesemaelstraat,8,51.0839525983,4.91358332019
2260,Westerlo,Ilsestraat,58,51.1318204122,4.88161367261
2260,Westerlo,Achterheide,9,51.0913729809,4.83419532733
2260,Westerlo,De Zaart,13,51.0785126571,4.85852080567
2260,Westerlo,Ernest Claesstraat,42,51.1104524416,4.86407607427
2260,Westerlo,Waterstraat,20,51.0863284268,4.84941021195
2260,Westerlo,Kallist Fimmerslaan,10,51.1282198393,4.9058614398
2260,Westerlo,Toekomststraat,21,51.1359389151,4.90774797571
2260,Westerlo,Renderstraat,150,51.0936125293,4.86365718743
2260,Westerlo,Bisschop Vanuytvenlaan,15,51.1270315212,4.90378230857
2260,Westerlo,Olenseweg,188,51.1138468964,4.8691695077
2260,Westerlo,Rodekruisstraat,41,51.0959147936,4.91639439168
2260,Westerlo,Denis Voetsstraat,15,51.0887091576,4.91343027865
2260,Westerlo,Eikelstraat,29,51.0853004253,4.90177998726
2260,Westerlo,Koning Leopoldlaan,31,51.0850791345,4.90817035537
2260,Westerlo,Nieuwland,10,51.1349068874,4.9053073536
2260,Westerlo,Goorbossen,9,51.0831447107,4.83435464517
2260,Westerlo,Bistplein,16,51.0929429461,4.92123885037
2260,Westerlo,Sint-Martinusstraat,13,51.0916120693,4.91531577145
2260,Westerlo,Grote Markt,33,51.0881888068,4.91853082054
2260,Westerlo,Molenstraat,81,51.079600778,4.84009322832
2260,Westerlo,Prelaat Geertslaan,12,51.1268058218,4.90032336486
2260,Westerlo,Geneinde,49,51.1030202146,4.89700042958
2260,Westerlo,Fanfarestraat,19,51.0888185154,4.86941641615
2260,Westerlo,Hazendreef,7,51.1149060348,4.90827884666
2260,Westerlo,Oude Zoerlebaan,123,51.0913873647,4.86870542491
2260,Westerlo,Bijstraat,16,51.1302112085,4.90262561368
2260,Westerlo,Prelaat Hamuslaan,5,51.1272700638,4.89893472691
2260,Westerlo,Nachtegaalstraat,9,51.1384120122,4.90590162799
2260,Westerlo,Overwijs,54,51.0987271085,4.90213513279
2260,Westerlo,Sint-Michielsstraat,21,51.1405747985,4.90588909457
2260,Westerlo,Sint-Martinusstraat,31,51.0929184695,4.91463318196
2260,Westerlo,Esdoornstraat,3,51.1115762893,4.86086912016
2260,Westerlo,Baksveld,6,51.0915000503,4.9174838317
2260,Westerlo,Beusterven,1,51.0861150276,4.84005051216
2260,Westerlo,Loofven,35,51.1402999358,4.90822760397
2260,Westerlo,Stippelberg,193,51.0745722877,4.85324668891
2260,Westerlo,Heidestraat,39,51.1262681693,4.91324400533
2260,Westerlo,Geelse straat,96,51.1095244839,4.92108538685
2260,Westerlo,Wolfstraat,27,51.0873126808,4.91211260085
2260,Westerlo,Stippelberg,247,51.0727138445,4.84743607821
2260,Westerlo,Doelstraat,2,51.0847091545,4.89986379338
2260,Westerlo,Schuurveldstraat,28,51.1331213474,4.87044790143
2260,Westerlo,E. J. Van Gansenstraat,6,51.0890623639,4.91764473972
2260,Westerlo,Bosstraat,11,51.1173859332,4.90837278222
2260,Westerlo,Hoogveld,26,51.1288814163,4.86134021729
2260,Westerlo,Biezenstraat,15,51.0993958907,4.87259870357
2260,Westerlo,Olenseweg,401,51.1337950631,4.86422290895
2260,Westerlo,Stippelberg,51,51.0802574116,4.86844957452
2260,Westerlo,Nieuwebaan,19,51.1161982828,4.86409392804
2260,Westerlo,Begijnenland,19,51.0955364604,4.87314462448
2260,Westerlo,Gooreinde,16,51.0881394563,4.87946844284
2260,Westerlo,Ernest Claesstraat,60,51.1094899583,4.86489606939
2260,Westerlo,Tongerlostraat,48,51.132098694,4.9043511553
2260,Westerlo,Salvialaan,37,51.135701237,4.91575040512
2260,Westerlo,Langblok,23,51.1083566606,4.92573744614
2260,Westerlo,Geneinde,14,51.1033661995,4.89858188249
2260,Westerlo,Geneinde,67,51.1030967402,4.89500600502
2260,Westerlo,Korenstraat,4,51.0820755211,4.84563483592
2260,Westerlo,Oevelse dreef,47,51.1254676996,4.90641242396
2260,Westerlo,Kloosterstraat,93,51.111791309,4.8501222727
2260,Westerlo,Gooreinde,62,51.0897898768,4.88469788635
2260,Westerlo,Bijlevennen,9,51.1420770563,4.90082733449
2260,Westerlo,Renderstraat,33,51.0959330608,4.84754266827
2260,Westerlo,Hotelstraat,11A,51.1306568996,4.94021196784
2260,Westerlo,Kardinaal Cardijnstraat,7,51.0940210078,4.90651870216
2260,Westerlo,Nieuwstraat,47,51.0858962864,4.91356845758
2260,Westerlo,Doelstraat,26,51.0854836834,4.90041465927
2260,Westerlo,Geneinde,32,51.1034661784,4.89563153417
2260,Westerlo,Koning Leopoldlaan,13,51.08527332,4.90947864222
2260,Westerlo,Koning Boudewijnstraat,4,51.1295157583,4.86496202872
2260,Westerlo,Wolfstraat,3,51.0866548163,4.9128618218
2260,Westerlo,Bergveld,45,51.0840352313,4.87394878537
2260,Westerlo,Zagerijstraat,10,51.1136033155,4.86155283432
2260,Westerlo,Nieuwstraat,17,51.0862343445,4.91477613925
2260,Westerlo,Koning Leopoldlaan,66,51.0851281696,4.90491345782
2260,Westerlo,Lossing,22B,51.0900252175,4.82045279163
2260,Westerlo,Bistberg,44,51.0945068174,4.92130603054
2260,Westerlo,Pachterserf,17,51.1008905162,4.88338216566
2260,Westerlo,Langstraat,114,51.1159180469,4.91155943891
2260,Westerlo,Gravin de Merodestraat,76,51.0812264955,4.8350477769
2260,Westerlo,Boerenkrijglaan,78,51.0921148348,4.91372379705
2260,Westerlo,Duitschool,7,51.1285696824,4.91478239735
2260,Westerlo,Heultjedorp,41,51.0908199161,4.84037705466
2260,Westerlo,Stippelberg,129,51.0773150692,4.86026170281
2260,Westerlo,Schaapsdries,20,51.1305448307,4.86734157912
2260,Westerlo,Biezenstraat,43,51.1004367788,4.87876791935
2260,Westerlo,Dennenstraat,82,51.1325686531,4.90111320936
2260,Westerlo,Gevaertlaan,146,51.0871965891,4.84591835191
2260,Westerlo,Veldstraat,8D,51.1143625966,4.86647393363
2260,Westerlo,Jos Geunsplein,19A,51.1056915672,4.91739233871
2260,Westerlo,Wibertusstraat,5,51.1024265822,4.89989815794
2260,Westerlo,Leyse Hoevestraat,8,51.1148135602,4.9095092428
2260,Westerlo,Jaak Lemmenslaan,50,51.0869747828,4.87867185337
2260,Westerlo,Schipperstraat,6,51.0753160834,4.87317913098
2260,Westerlo,Pottatenhuizen,15,51.1212718901,4.87728479968
2260,Westerlo,Processieweg,9,51.0884412484,4.83641053528
2260,Westerlo,Oevelse dreef,17,51.1109171834,4.9036241673
2260,Westerlo,Kolveniersstraat,6,51.0825446965,4.8733549615
2260,Westerlo,Tongerlostraat,89,51.1284721627,4.90698360055
2260,Westerlo,Oude Zoerlebaan,69,51.0932154951,4.84887016337
2260,Westerlo,Monnikendijk,11,51.1166976355,4.90758975426
2260,Westerlo,Prelaat Nootslaan,14,51.1277072208,4.90506743007
2260,Westerlo,Servaas Daemsstraat,7,51.1020496629,4.89692205951
2260,Westerlo,Sint-Martinusstraat,41,51.0936650688,4.91423265338
2260,Westerlo,Prelaat Stalpaertslaan,20,51.1285010788,4.90236448198
2260,Westerlo,Koning Leopoldlaan,84,51.0847823557,4.90269904225
2260,Westerlo,Leeuwerikenveld,9,51.0847387506,4.87471480637
2260,Westerlo,Eilandje,7,51.1366140851,4.90147741951
2260,Westerlo,Mechelsestraat,96,51.1389386606,4.88701054476
2260,Westerlo,Ter Voort,89,51.1138238918,4.86335740072
2260,Westerlo,Goudvinkstraat,4,51.089016218,4.83151159723
2260,Westerlo,Overwijs,26,51.0995049212,4.90538206774
2260,Westerlo,Schoolstraat,54,51.0821815531,4.84006490295
2260,Westerlo,Kardinaal Cardijnstraat,24,51.0951453765,4.90680973103
2260,Westerlo,Stippelberg,283,51.0721641061,4.84178129067
2260,Westerlo,Schaapsdries,3,51.13128101,4.86806603973
2260,Westerlo,Aarthof,15,51.1094935816,4.92316698117
2260,Westerlo,Heultjedorp,6,51.0880878999,4.83794433168
2260,Westerlo,Bergveld,17,51.0856267799,4.87301747135
2260,Westerlo,Olenseweg,271,51.1227759221,4.86765407951
2260,Westerlo,Gevaertlaan,136,51.0872255981,4.84725342753
2260,Westerlo,Hulsdonk,5,51.0842219287,4.86611802758
2260,Westerlo,Elf-Julilaan,20,51.1055812679,4.91937744799
2260,Westerlo,Koning Boudewijnstraat,21,51.1297108957,4.86406739316
2260,Westerlo,Ilsestraat,23,51.1269982667,4.88232548126
2260,Westerlo,Polderstraat,25,51.0851356026,4.91605534876
2260,Westerlo,Nieuwstraat,81,51.0856221397,4.91167646903
2260,Westerlo,Langstraat,96,51.1146300268,4.91231735415
2260,Westerlo,Geelse straat,8,51.1064618684,4.9163808978
2260,Westerlo,Vijverstraat,24,51.0901890015,4.84643566069
2260,Westerlo,Polderstraat,1,51.0861087638,4.91702072049
2260,Westerlo,Gevaertlaan,29,51.0878561282,4.8671545513
2260,Westerlo,Voorteinde,49,51.101673508,4.92203517329
2260,Westerlo,Gravin de Merodestraat,94,51.0791581071,4.83466494802
2260,Westerlo,Ter Voort,107,51.1149035438,4.86235259734
2260,Westerlo,Jagersweg,40,51.1010791849,4.89179122306
2260,Westerlo,Trienenkantlaan,10,51.1256883708,4.90426229443
2260,Westerlo,Hotelstraat,2B,51.1320344245,4.94147804801
2260,Westerlo,Stippelberg,265,51.0721964167,4.84449198056
2260,Westerlo,P. E. Peetersstraat,8,51.0878393854,4.91735860969
2260,Westerlo,Pastorijstraat,8,51.0880268283,4.83562465839
2260,Westerlo,Blokstraat,7,51.1109682568,4.90964491045
2260,Westerlo,Prelaat Mudsaertslaan,17,51.1284821009,4.90167171187
2260,Westerlo,Salvialaan,19,51.1366535755,4.91496373715
2260,Westerlo,Geneinde,138,51.1046095447,4.88092593938
2260,Westerlo,Oude Zoerlebaan,117A,51.0912774131,4.86839150598
2260,Westerlo,Gelendel,52,51.1044104904,4.8572143866
2260,Westerlo,Olenseweg,396,51.1359588914,4.86385326918
2260,Westerlo,Goudvinkstraat,28,51.0885970205,4.82870064562
2260,Westerlo,Zandstraat,18,51.0884010871,4.8780458536
2260,Westerlo,Meulemanslaan,10,51.1047565903,4.91465123481
2260,Westerlo,Lange Nieuwstraat,6,51.1080540745,4.91555268144
2260,Westerlo,Arthur Sterckxstraat,19,51.0966160737,4.91318589154
2260,Westerlo,Zoerleberg,49,51.0834683625,4.87766809912
2260,Westerlo,Schoolstraat,48,51.0826007053,4.83963971158
2260,Westerlo,Hulshoutsesteenweg,30,51.0724198982,4.83058810729
2260,Westerlo,Heiweg,24,51.074872569,4.83236914318
2260,Westerlo,Ritseldonk,23,51.0706373224,4.84620861646
2260,Westerlo,Molenstraat,35,51.0816611373,4.84525485012
2260,Westerlo,Goorken,52,51.1000695035,4.91520005234
2260,Westerlo,Oude Westmeerbeekseweg,16,51.0874722213,4.82711186014
2260,Westerlo,Langstraat,132,51.1171072381,4.9108676018
2260,Westerlo,Gevaertlaan,118,51.0874709639,4.84990838741
2260,Westerlo,Dennenstraat,11,51.1381824463,4.89783023765
2260,Westerlo,Begonialaan,1,51.1352958746,4.91304318389
2260,Westerlo,Sint-Antoniusstraat,12,51.0898651543,4.87212518605
2260,Westerlo,Stippelberg,319,51.0727495356,4.8370006546
2260,Westerlo,Nachtegaalstraat,44,51.1356806421,4.9065917013
2260,Westerlo,Voorteinde,32,51.1016089212,4.92012797998
2260,Westerlo,Zoerleberg,14,51.0847638963,4.88019151085
2260,Westerlo,Britselaan,15,51.1313007089,4.86333082068
2260,Westerlo,Grote Markt,61,51.0865442995,4.91738421686
2260,Westerlo,Zandvoort,48,51.1158983738,4.91899787635
2260,Westerlo,Gravin de Merodestraat,51,51.0831751923,4.83600843467
2260,Westerlo,Sint-Lambertusstraat,23,51.0895811863,4.91899868169
2260,Westerlo,Voorteinde,85,51.1053425629,4.93579582064
2260,Westerlo,Zoerleberg,67,51.0828652372,4.87561686825
2260,Westerlo,Jaak Lemmenslaan,39,51.0879114345,4.87703113341
2260,Westerlo,Blauwvoetstraat,22A,51.1413963176,4.89933391306
2260,Westerlo,Heidestraat,32,51.1261708235,4.91224994386
2260,Westerlo,Lange Nieuwstraat,41A,51.1090836754,4.91769808796
2260,Westerlo,Franz Scheerlaan,16,51.1268325551,4.90333576892
2260,Westerlo,Kroonstraat,24,51.1411295533,4.89750771993
2260,Westerlo,Haart,11,51.1160025395,4.8473416972
2260,Westerlo,Moleneinde,10,51.1435896993,4.90168440962
2260,Westerlo,Loofven,17,51.1401785901,4.90590396541
2260,Westerlo,De Wijk,23,51.0841107178,4.86816027031
2260,Westerlo,Grote Markt,43,51.0881694028,4.91950915207
2260,Westerlo,Oosterwijk,9,51.1269079437,4.86576167043
2260,Westerlo,Violetstraat,32,51.1367839005,4.91019353657
2260,Westerlo,Ter Voort,120B,51.1160393895,4.86164339612
2260,Westerlo,Tolhuis,4,51.1101406004,4.92114079949
2260,Westerlo,Boerenkrijglaan,53A,51.0893000307,4.91420236596
2260,Westerlo,Bergveld,35,51.0847436622,4.87336102357
2260,Westerlo,Heidestraat,14,51.1269127467,4.90973516313
2260,Westerlo,Hogeheide,16,51.0858350691,4.83092416846
2260,Westerlo,Breerijt,3,51.0956612746,4.93853133492
2260,Westerlo,Overwijs,2,51.0989483519,4.90781592202
2260,Westerlo,Oosterwijk,44,51.1233098889,4.85973076191
2260,Westerlo,Zoerleberg,32,51.0839755264,4.87779250891
2260,Westerlo,Gevaertlaan,5,51.0877653244,4.87026963144
2260,Westerlo,Rooiveld,5A,51.1092098307,4.84102681966
2260,Westerlo,Boerenkrijglaan,160,51.097154873,4.91123881901
2260,Westerlo,Industrieweg,72,51.0896242325,4.82786164182
2260,Westerlo,Langstraat,15,51.1087072079,4.91431360515
2260,Westerlo,Gravin de Merodestraat,129,51.0766100752,4.83489167014
2260,Westerlo,Heldenstraat,14,51.1283085228,4.86291482944
2260,Westerlo,Hulshoutsesteenweg,12,51.0728117697,4.83261236537
2260,Westerlo,Olenseweg,153,51.1098803827,4.86875699762
2260,Westerlo,Ter Voort,188,51.118789418,4.85392385829
2260,Westerlo,Violetstraat,14,51.135239766,4.91092113376
2260,Westerlo,Stippelberg,230,51.0725430579,4.84477531002
2260,Westerlo,Bosbesstraat,21,51.0951273709,4.90268814537
2260,Westerlo,Olenseweg,378,51.133136545,4.86518226807
2260,Westerlo,Ambachtenstraat,4,51.0952425872,4.93554584387
2260,Westerlo,Gooreinde,105,51.0937626197,4.89151670285
2260,Westerlo,Guldensporenlaan,4,51.0937182595,4.92062393141
2260,Westerlo,Ter Voort,125,51.1155902461,4.86165678983
2260,Westerlo,Sint-Siardusstraat,5,51.1149249368,4.93056347525
2260,Westerlo,Rozenstraat,12,51.1350701948,4.90983446668
2260,Westerlo,Bell-Telephonelaan,11,51.131202563,4.94268402417
2260,Westerlo,Slachterijstraat,78,51.10252953,4.85535121411
2260,Westerlo,Kloosterstraat,111,51.1104818878,4.84634676391
2260,Westerlo,Olenseweg,315,51.1261233485,4.86724019355
2260,Westerlo,Industrieweg,48,51.0906557603,4.83207310209
2260,Westerlo,Patersbos,3,51.0915735568,4.87594962805
2260,Westerlo,Patersbos,27,51.0906358248,4.87724092232
2260,Westerlo,Prelaat Verbraekenlaan,7,51.1294802889,4.90298924876
2260,Westerlo,Hoevestraat,31,51.1048607144,4.86106517896
2260,Westerlo,Zandberg,64,51.0945292709,4.93816164715
2260,Westerlo,Henricusstraat,5,51.1010371543,4.90037533425
2260,Westerlo,Smissenhoekstraat,44,51.0873603199,4.87592556323
2260,Westerlo,Wimpstraat,20,51.1107094026,4.92479505367
2260,Westerlo,Heieinde,80,51.1343016809,4.91555255015
2260,Westerlo,Bergveld,47,51.0836026698,4.87407640391
2260,Westerlo,Polderstraat,5A,51.085795981,4.91689687589
2260,Westerlo,Ambachtenstraat,11,51.0961076097,4.93677632682
2260,Westerlo,Lossing,17,51.0896907587,4.82243412698
2260,Westerlo,Slachterijstraat,33,51.1023942416,4.86224331587
2260,Westerlo,Sint-Barbarastraat,1,51.0938722358,4.87534279781
2260,Westerlo,Processieweg,26,51.0903627424,4.83735884991
2260,Westerlo,Sint-Niklaasstraat,11,51.089104652,4.87259457174
2260,Westerlo,Gooreinde,9,51.0879067285,4.87799535983
2260,Westerlo,Gemeentestraat,14,51.138572324,4.90583374633
2260,Westerlo,Schoolstraat,18,51.0849041156,4.83816110227
2260,Westerlo,Schoolstraat,2,51.0865058249,4.83702099403
2260,Westerlo,Sint-Michielsstraat,4,51.1393476622,4.90653352969
2260,Westerlo,Heksenbrug,7,51.1003391087,4.90346372456
2260,Westerlo,Binnenblok,21,51.1068991545,4.92450593312
2260,Westerlo,Fazantendreef,3,51.1158510433,4.9087307826
2260,Westerlo,Tolhuis,11,51.110746681,4.92101688155
2260,Westerlo,Stijn Streuvelsstraat,45,51.1177021669,4.86594212742
2260,Westerlo,Jagersweg,29,51.0971879792,4.89167868174
2260,Westerlo,Gemeentestraat,32,51.1389182457,4.90905322078
2260,Westerlo,Spechtstraat,3,51.088536099,4.83137852422
2260,Westerlo,August Cannaertsstraat,63,51.0933842825,4.83033299379
2260,Westerlo,Asterlaan,15,51.137691013,4.91443393318
2260,Westerlo,Emiel Stalmanslaan,16,51.1259496802,4.86523950613
2260,Westerlo,Baksveld,31,51.0934705016,4.91602456231
2260,Westerlo,Eikelstraat,30,51.0852258813,4.90132856563
2260,Westerlo,Molenstraat,88,51.0798358964,4.83947298382
2260,Westerlo,Groenstraat,25,51.1081764696,4.86490109911
2260,Westerlo,Lange Nieuwstraat,66,51.1090359404,4.91883573884
2260,Westerlo,Rodekruisstraat,84,51.0970630441,4.91577772679
2260,Westerlo,Mechelsestraat,25,51.1387955548,4.89825598668
2260,Westerlo,Stippelberg,58,51.0799869882,4.86597360759
2260,Westerlo,Oude Westmeerbeekseweg,69,51.0848860311,4.82889943672
2260,Westerlo,Geneinde,148,51.1047665479,4.87938120537
2260,Westerlo,Oeveldorp,27,51.1373320046,4.90463570255
2260,Westerlo,Boerenkrijglaan,71,51.0921864246,4.91284105562
2260,Westerlo,Zoerledorp,5,51.0867521226,4.87175565512
2260,Westerlo,Ernest Claesstraat,49,51.1084315418,4.86756958682
2260,Westerlo,Eikelstraat,12,51.0860855441,4.90332351466
2260,Westerlo,Aspergevelden,8,51.0856961127,4.87554411903
2260,Westerlo,Nieuwland,27,51.1351960304,4.90562985931
2260,Westerlo,Kerkhofstraat,46,51.1285604706,4.87244965935
2260,Westerlo,Reigerstraat,16,51.1136583165,4.9085050562
2260,Westerlo,Hotelstraat,7,51.1312000742,4.9408477852
2260,Westerlo,De Hand,5,51.1003979853,4.85194270812
2260,Westerlo,Oosterwijk,90,51.119370729,4.85566750974
2260,Westerlo,Prelaat Streyterslaan,15,51.1282920921,4.90055357596
2260,Westerlo,Molenwijk,17,51.1043832954,4.91924395514
2260,Westerlo,Pastoor Binckstraat,13,51.0888756781,4.83997446816
2260,Westerlo,Olenseweg,171,51.1115358433,4.86863849976
2260,Westerlo,Jaak Lemmenslaan,22,51.0878159091,4.87537700894
2260,Westerlo,Zeptstraat,7,51.0849726005,4.90026740544
2260,Westerlo,Bisschop Vanuytvenlaan,8,51.1265403595,4.90459476435
2260,Westerlo,Molenstraat,106,51.0787413553,4.83777066433
2260,Westerlo,De Reid,57,51.1281174372,4.87887863988
2260,Westerlo,Moleneinde,45,51.146008189,4.89952542356
2260,Westerlo,de Merodedreef,95,51.0908730149,4.91766773389
2260,Westerlo,Hoogveld,44,51.1303816034,4.85984689832
2260,Westerlo,Heultjedorp,66,51.0924924677,4.83984610345
2260,Westerlo,Heldenstraat,22,51.1286531523,4.86368703073
2260,Westerlo,Gooreinde,69,51.0904948401,4.88511875637
2260,Westerlo,Kloosterstraat,12,51.1153893117,4.85929554321
2260,Westerlo,Kapellegoed,5,51.0886561859,4.87548575151
2260,Westerlo,Renderstraat,149,51.0920318545,4.86462963232
2260,Westerlo,Gevaertlaan,83,51.0876919046,4.85979444422
2260,Westerlo,Geneinde,60,51.1032367779,4.89141519432
2260,Westerlo,Arthur Sterckxstraat,20,51.0962496953,4.91353251165
2260,Westerlo,Heultjedorp,13,51.0886541825,4.83797314431
2260,Westerlo,Spikdorenveld,21,51.0863359294,4.90724031888
2260,Westerlo,Leyse Hoevestraat,25,51.1146539937,4.91005993069
2260,Westerlo,Koning Leopoldlaan,41,51.0849847634,4.90738187607
2260,Westerlo,Zoerledorp,75,51.0894878823,4.87065181726
2260,Westerlo,August Cannaertsstraat,45,51.0933738755,4.83149569313
2260,Westerlo,Salvialaan,20,51.1360871853,4.91335102815
2260,Westerlo,Putstraat,9,51.1035250085,4.86669647842
2260,Westerlo,Europastraat,12,51.1046559711,4.92013897914
2260,Westerlo,Wernee,10,51.1349424542,4.85292144784
2260,Westerlo,Torendreef,2,51.1073977209,4.90336694603
2260,Westerlo,Oude Zoerlebaan,34,51.0927590508,4.84548130686
2260,Westerlo,Kwachtstraat,22,51.0783263037,4.84380681808
2260,Westerlo,Kapelstraat,23,51.1070905785,4.92243421204
2260,Westerlo,Jaak Lemmenslaan,57,51.087035297,4.88013917105
2260,Westerlo,Ernest Claesstraat,14,51.1122389428,4.86361835674
2260,Westerlo,Nijverheidsstraat,17,51.1373653486,4.92300639867
2260,Westerlo,Boeretangstraat,8,51.1094351005,4.91116819225
2260,Westerlo,Abdijstraat,15,51.1052396946,4.91164859958
2260,Westerlo,Lammendries,4,51.1408316761,4.89866547634
2260,Westerlo,Stippelberg,122,51.0769402483,4.85855269149
2260,Westerlo,Geneinde,211,51.1061225218,4.87087507753
2260,Westerlo,Stijn Streuvelsstraat,10,51.1165529749,4.86264082288
2260,Westerlo,Bistberg,26,51.093844474,4.92154214938
2260,Westerlo,Meierij,23,51.1013216058,4.87431816401
2260,Westerlo,de Merodedreef,77,51.0905122387,4.91599717503
2260,Westerlo,Kloosterstraat,30,51.115038244,4.85688390533
2260,Westerlo,Ernest Claesstraat,32,51.1111150186,4.86386205177
2260,Westerlo,Leeuwerikenplein,4,51.0852028249,4.87409400349
2260,Westerlo,Schaapstraat,45,51.132589373,4.86875865384
2260,Westerlo,Eilardusstraat,4,51.0929478061,4.91073401851
2260,Westerlo,Molenwijk,1,51.1035204789,4.91873506063
2260,Westerlo,Korenstraat,11,51.0827453013,4.84496692875
2260,Westerlo,Prelaat Stalpaertslaan,19,51.1286150445,4.90286363069
2260,Westerlo,Korenhoeve,4,51.1050207328,4.87298138612
2260,Westerlo,Baksveld,13,51.0921506745,4.91680916722
2260,Westerlo,Asberg,25,51.0854735206,4.88647818172
2260,Westerlo,Lijsterbesstraat,10,51.0944875097,4.90449389054
2260,Westerlo,Oude Westmeerbeekseweg,87,51.0805618731,4.8314192599
2260,Westerlo,Kerkhofstraat,64,51.1271902148,4.87416791127
2260,Westerlo,Vennenstraat,1,51.1197439046,4.85546073524
2260,Westerlo,Kolveniersstraat,13,51.0837673561,4.86912935308
2260,Westerlo,Nieuwstraat,53,51.0856073042,4.91350657039
2260,Westerlo,Zandberg,28,51.0939126301,4.9347471564
2260,Westerlo,Zoerledorp,93,51.0903721179,4.87061321905
2260,Westerlo,Giselbertusstraat,21,51.1015006941,4.90139528519
2260,Westerlo,Wibertusstraat,12,51.102008761,4.89898308756
2260,Westerlo,Joris van Geelstraat,10,51.1358776897,4.90566270696
2260,Westerlo,Rodekruisstraat,14E,51.0922327993,4.91918722748
2260,Westerlo,Lossing,1,51.0929262284,4.82309364034
2260,Westerlo,Rodekruisstraat,112,51.0985083282,4.91422170769
2260,Westerlo,Elf-Julilaan,19,51.1058338709,4.91843191061
2260,Westerlo,Tolhuis,46,51.1129063402,4.9251135477
2260,Westerlo,Kerkhofstraat,11,51.1288715118,4.86849581514
2260,Westerlo,Tongerlostraat,100,51.1253433664,4.90730176554
2260,Westerlo,Vismarkt,16,51.0860371971,4.91584483449
2260,Westerlo,Kloosterstraat,50,51.1144902094,4.85328635969
2260,Westerlo,Uitbreidingsstraat,16,51.137695935,4.90826807537
2260,Westerlo,Prior Backxlaan,24,51.1247557045,4.90058455238
2260,Westerlo,Boerenkrijglaan,159,51.096648324,4.91067618474
2260,Westerlo,Rodekruisstraat,13,51.0928233849,4.91818541221
2260,Westerlo,Hoog Heultje,54,51.0675614442,4.83463602747
2260,Westerlo,Lelielaan,34,51.1356310739,4.91230242803
2260,Westerlo,Klaverheide,11,51.0966137066,4.90724892318
2260,Westerlo,Duivengracht,14,51.0888475654,4.84410526218
2260,Westerlo,Geneinde,113,51.1029620828,4.88844739179
2260,Westerlo,Gelendel,77,51.1032745148,4.85613896355
2260,Westerlo,Smissenhoekstraat,26,51.0866954485,4.87440973567
2260,Westerlo,Kievitstraat,4,51.112146009,4.90919130471
2260,Westerlo,Dalialaan,4,51.1364483376,4.91263556809
2260,Westerlo,Tongerlostraat,72,51.1300500392,4.90511950196
2260,Westerlo,Zandberg,11,51.0939637859,4.93200815022
2260,Westerlo,Hannekenshoek,6,51.1169269616,4.93937476691
2260,Westerlo,Hoog Heultje,72,51.0655913914,4.83454704785
2260,Westerlo,Gesneuveldenstraat,5,51.1289417979,4.86211941034
2260,Westerlo,Stippelberg,23,51.0812059689,4.87135585004
2260,Westerlo,Elf-Julilaan,37,51.1064441445,4.92125441279
2260,Westerlo,Rodekruisstraat,31,51.0950762602,4.9175218588
2260,Westerlo,Britselaan,8,51.1317494739,4.86398488975
2260,Westerlo,Doelstraat,79,51.0859540421,4.90157664439
2260,Westerlo,Geneinde,131,51.1036257039,4.8853705063
2260,Westerlo,Langblok,6,51.1084067296,4.924042813
2260,Westerlo,Asterlaan,61,51.1350009568,4.91722979376
2260,Westerlo,Nieuwebaan,40,51.1166062768,4.86608140934
2260,Westerlo,Jos Geunsplein,6,51.1059807155,4.91676120108
2260,Westerlo,Prelaat Stalpaertslaan,3,51.1295607891,4.90182703152
2260,Westerlo,Heieinde,34,51.1336216322,4.90934434188
2260,Westerlo,Gelendel,59,51.1041558967,4.8581300734
2260,Westerlo,Schaapsdries,19,51.1298792509,4.86809446644
2260,Westerlo,Hogekant,16,51.1176794846,4.87181449695
2260,Westerlo,Hulshoutsesteenweg,29,51.0720131103,4.83052786926
2260,Westerlo,Franz Scheerlaan,9,51.1268639509,4.90273559382
2260,Westerlo,Brugstraat,23,51.1364195722,4.91736848894
2260,Westerlo,Neerstraat,11,51.0941229641,4.84576673951
2260,Westerlo,Trienenkantlaan,27,51.1249681368,4.90506166159
2260,Westerlo,Hotelstraat,14,51.1309482284,4.93924779228
2260,Westerlo,Tongerlostraat,54,51.1315842239,4.90445753978
2260,Westerlo,Berkenstraat,1,51.1108675316,4.8589454279
2260,Westerlo,Lelielaan,16,51.1372317015,4.91180156418
2260,Westerlo,Zoerleberg,42,51.083606018,4.87682800316
2260,Westerlo,Uitbreidingsstraat,34,51.1378173329,4.91088293417
2260,Westerlo,Renderstraat,114,51.0965815811,4.86037816293
2260,Westerlo,Sint-Niklaasstraat,46,51.0908939381,4.87372309608
2260,Westerlo,Dennenstraat,28,51.1368822448,4.89731984487
2260,Westerlo,Asterlaan,43,51.1362928223,4.91671276261
2260,Westerlo,Heieinde,16,51.1332078461,4.90695379656
2260,Westerlo,Boerenkrijglaan,195,51.0996903558,4.90815855995
2260,Westerlo,Renderstraat,15,51.0956844844,4.84584507675
2260,Westerlo,Steine-Hoevestraat,10,51.1034335858,4.88208651815
2260,Westerlo,Hoog Heultje,48,51.0681564604,4.83490090462
2260,Westerlo,Kouden Eerd,16,51.1092807143,4.91653948257
2260,Westerlo,Stippelberg,140,51.0760724906,4.85663693199
2260,Westerlo,Prelaat Tsgrootenlaan,5,51.1278538658,4.89808139494
2260,Westerlo,Pastorijstraat,25,51.0872843711,4.83295638233
2260,Westerlo,De Hand,22,51.0992146668,4.85222954966
2260,Westerlo,Olenseweg,125,51.1059669543,4.86854288175
2260,Westerlo,Hubertusstraat,5,51.1016027874,4.90038548701
2260,Westerlo,Ter Voort,100,51.1144672517,4.8633952087
2260,Westerlo,Broekstraat,15,51.0834907561,4.8861209634
2260,Westerlo,Voorteinde,42,51.101303024,4.92202578609
2260,Westerlo,Biezenstraat,68,51.100488719,4.88018117132
2260,Westerlo,Oirschotstraat,23,51.0943402398,4.90828061946
2260,Westerlo,Zoerledorp,22,51.08819925,4.87209638135
2260,Westerlo,Goudvinkstraat,11,51.0886056572,4.83053567541
2260,Westerlo,Zandvoort,18,51.1132417786,4.92070566414
2260,Westerlo,Langstraat,8,51.108588755,4.91487139718
2260,Westerlo,Leemstraat,15,51.117324569,4.87085278519
2260,Westerlo,Gemeentestraat,7,51.1392532623,4.90767867592
2260,Westerlo,Sint-Lambertusstraat,3A,51.0887443994,4.91909358826
2260,Westerlo,Heksenbrug,14,51.1018424311,4.90298866413
2260,Westerlo,Begijnenland,20,51.0954538498,4.87429788251
2260,Westerlo,Bosbesstraat,4,51.0942603591,4.90388046219
2260,Westerlo,Industrieweg,2,51.0912485411,4.83947128161
2260,Westerlo,Zwarte Braak,43,51.1294224592,4.86301434144
2260,Westerlo,Aspergevelden,33,51.0848740976,4.8763918031
2260,Westerlo,Groenstraat,8,51.1092410778,4.8666585014
2260,Westerlo,Wittegracht,19,51.0939043076,4.82996285384
2260,Westerlo,Olenseweg,343,51.1288795817,4.86633394746
2260,Westerlo,Vogelzangstraat,14,51.0805909427,4.84408886592
2260,Westerlo,Mechelsestraat,8,51.1393812413,4.90240849129
2260,Westerlo,Moleneinde,27,51.1448160757,4.90064422387
2260,Westerlo,Stekelbesstraat,8,51.095416275,4.90405516209
2260,Westerlo,Heultjedorp,31,51.0898646202,4.83964459762
2260,Westerlo,Zoerleberg,60,51.082809176,4.87498304008
2260,Westerlo,Snelwegstraat,9,51.1354639203,4.93785253757
2260,Westerlo,Geelse straat,78,51.1085350568,4.9207799559
2260,Westerlo,Vlinderstraat,27,51.0837470901,4.84437616756
2260,Westerlo,Langstraat,71,51.1119951715,4.91270736969
2260,Westerlo,De Reid,22,51.1246940713,4.87440098834
2260,Westerlo,Stippelberg,229,51.0733472679,4.85015556852
2260,Westerlo,Kempische Ardennen,1,51.0865415467,4.8223658492
2260,Westerlo,Polderstraat,12B,51.085546756,4.91553452009
2260,Westerlo,Gildenstraat,13,51.1037490309,4.92311532777
2260,Westerlo,Drie Engelenstraat,34,51.1104048166,4.908804583
2260,Westerlo,Industrieweg,18,51.0912362638,4.83765980314
2260,Westerlo,Hofstraat,15,51.1378738977,4.90091627674
2260,Westerlo,Kruisstraat,14,51.0873651623,4.88190275565
2260,Westerlo,Olenseweg,107,51.1029939148,4.86931044944
2260,Westerlo,Leistraat,9,51.1132496533,4.91399554122
2260,Westerlo,Sint-Lambertusstraat,6,51.0901448912,4.91982520171
2260,Westerlo,Oosterwijk,26,51.1270177367,4.8629528695
2260,Westerlo,Geelse straat,25,51.1073480595,4.91764398106
2260,Westerlo,Tongerlodorp,28,51.1073977823,4.91518559419
2260,Westerlo,Gevaertlaan,12,51.0881009034,4.87064504596
2260,Westerlo,Tolhuis,64,51.1148414051,4.92905837327
2260,Westerlo,Goorken,24,51.0985320033,4.91297081804
2260,Westerlo,Stippelberg,94,51.0785116901,4.86161667597
2260,Westerlo,Grote Markt,15,51.0872799243,4.91635037504
2260,Westerlo,Slachterijstraat,8,51.1058754032,4.86725927452
2260,Westerlo,Zwarte Braak,61,51.1303685536,4.8620243543
2260,Westerlo,Renderstraat,132,51.0948790307,4.86221270448
2260,Westerlo,Heidestraat,60,51.1223211845,4.92538890206
2260,Westerlo,Meidoornstraat,15,51.1112537924,4.86034607005
2260,Westerlo,Mechelsestraat,8F,51.1394456762,4.9023722207
2260,Westerlo,Kathovestraat,51,51.0887992506,4.85374713515
2260,Westerlo,Boerenkrijglaan,124,51.0951190804,4.91228152238
2260,Westerlo,Olenseweg,361,51.1301913999,4.86574264843
2260,Westerlo,Gravin de Merodestraat,122,51.0761904558,4.83403118278
2260,Westerlo,Rozenstraat,29,51.1360654236,4.90885973161
2260,Westerlo,Nieuwe Hoevestraat,6,51.1408160662,4.8896032965
2260,Westerlo,Lindenstraat,15,51.1406678837,4.90297033865
2260,Westerlo,Gelendel,24,51.1062068565,4.85879153689
2260,Westerlo,Ploegstraat,23,51.0913212399,4.82929486977
2260,Westerlo,Bell-Telephonelaan,18,51.1298927975,4.94201576698
2260,Westerlo,Molenwijk,10,51.1040566588,4.91931563384
2260,Westerlo,de Merodedreef,80,51.089943722,4.91589145453
2260,Westerlo,Goorken,34,51.0988316738,4.91439423086
2260,Westerlo,Olenseweg,74,51.0994919812,4.8703460623
2260,Westerlo,Merelbos,14,51.0852697614,4.87746180176
2260,Westerlo,Binnenblok,28,51.1069965851,4.92380271972
2260,Westerlo,Molenstraat,3,51.0868020341,4.85033994715
2260,Westerlo,Oud-Strijdersstraat,16,51.1058373572,4.91909061605
2260,Westerlo,Boerenkrijglaan,68,51.0911651133,4.91427325225
2260,Westerlo,Violetstraat,7,51.1346759641,4.91057297404
2260,Westerlo,Ter Voort,163,51.1178490936,4.85753186157
2260,Westerlo,Jaak Lemmenslaan,42,51.0873469874,4.87755722032
2260,Westerlo,Busselen,33,51.1237113601,4.8722277662
2260,Westerlo,Ter Voort,26,51.1103466216,4.86734058608
2260,Westerlo,Renderstraat,140,51.0944271859,4.86346882913
2260,Westerlo,Aspergevelden,25,51.0853857518,4.87616301622
2260,Westerlo,Het Locht,31,51.0768071192,4.83927307966
2260,Westerlo,Zandberg,48,51.0942219244,4.93658123485
2260,Westerlo,Sint-Barbarastraat,8,51.094118894,4.874820304
2260,Westerlo,Asterlaan,6,51.1374287645,4.9139573585
2260,Westerlo,Bisschop Vanuytvenlaan,25,51.1276478132,4.90334425186
2260,Westerlo,De Reid,60,51.1276578017,4.87886532932
2260,Westerlo,Leistraat,52,51.1150702513,4.91850940615
2260,Westerlo,Vijfhuizenstraat,80,51.0939607863,4.88627579805
2260,Westerlo,Denis Voetsstraat,1,51.0888909974,4.91413136083
2260,Westerlo,Loofven,3,51.1401889004,4.90470524369
2260,Westerlo,Ernest Claesstraat,39,51.1093244666,4.86600567848
2260,Westerlo,Loofven,27,51.1402889853,4.90737885632
2260,Westerlo,Kerkhofstraat,48,51.1284460459,4.8727009879
2260,Westerlo,Gewadstraat,3,51.1014027712,4.8556315767
2260,Westerlo,Bisschop Vanuytvenlaan,1,51.1261341536,4.90435654627
2260,Westerlo,de Merodedreef,62,51.0893012208,4.91371237462
2260,Westerlo,Parwijsstraat,4,51.0853809267,4.87104155206
2260,Westerlo,Nieuwebaan,29,51.1165708342,4.8651498683
2260,Westerlo,Sint-Barbarastraat,10,51.0939961393,4.87397476411
2260,Westerlo,Dennenstraat,74,51.1332012815,4.90045866436
2260,Westerlo,Olenseweg,353,51.1297290642,4.86594315136
2260,Westerlo,Prelaat Verbraekenlaan,16,51.1288439178,4.90325681469
2260,Westerlo,Sint-Michielsstraat,11,51.1396627248,4.90594174907
2260,Westerlo,Aspergevelden,1,51.0869648782,4.87557387312
2260,Westerlo,Goorken,16,51.0986688447,4.91220549331
2260,Westerlo,Oude Zoerlebaan,113,51.0912514339,4.86728899621
2260,Westerlo,Drie Engelenstraat,24,51.1104637633,4.91021911185
2260,Westerlo,Grote Markt,51A,51.0873584023,4.91849092987
2260,Westerlo,Kouden Eerd,9,51.1095948703,4.91553545888
2260,Westerlo,Bergveld,53,51.0830950286,4.87425073142
2260,Westerlo,Brukelen,14,51.1184193012,4.86462052244
2260,Westerlo,Rozenstraat,20,51.1356275881,4.9095818982
2260,Westerlo,Ritseldonk,66,51.0714030524,4.84931242057
2260,Westerlo,Geelse straat,33,51.107479214,4.91808645678
2260,Westerlo,Fazantendreef,12,51.1159987462,4.90723507314
2260,Westerlo,Schuurveldstraat,64,51.1379389724,4.87731946824
2260,Westerlo,Ansfriedstraat,7,51.0844251075,4.91326314734
2260,Westerlo,Geneinde,141,51.103880435,4.88367069829
2260,Westerlo,Zoerledorp,32,51.0884065528,4.87192448456
2260,Westerlo,Bochtestraat,39,51.1164981287,4.8675935379
2260,Westerlo,Henricusstraat,14,51.1013328709,4.89988214613
2260,Westerlo,Heieinde,59,51.1345596819,4.91354907784
2260,Westerlo,Boerenkrijglaan,106,51.0937167044,4.91298093444
2260,Westerlo,Sint-Antoniusstraat,5,51.0899821686,4.87168882088
2260,Westerlo,Elfenstraat,5,51.1342738554,4.90622202082
2260,Westerlo,Lelielaan,9,51.1375411952,4.91238540733
2260,Westerlo,Brugstraat,71A,51.1389506896,4.91202718651
2260,Westerlo,Voorteinde,75,51.1019292844,4.92528970576
2260,Westerlo,Gravin de Merodestraat,150,51.0735115281,4.83485190071
2260,Westerlo,Rodekruisstraat,51,51.0964511958,4.91551830976
2260,Westerlo,Langblok,13,51.1089550274,4.9249070985
2260,Westerlo,Joris van Geelstraat,17,51.1363598508,4.90660996157
2260,Westerlo,Meierij,6,51.1028272891,4.87275995191
2260,Westerlo,Gooreinde,52,51.0893660951,4.88355661643
2260,Westerlo,Polderstraat,45,51.084623583,4.915533275
2260,Westerlo,Hulshoutsesteenweg,20,51.072681589,4.83197827765
2260,Westerlo,Mechelsestraat,104,51.1391378886,4.88439980693
2260,Westerlo,Gevaertlaan,128,51.0873169905,4.84834222845
2260,Westerlo,Pottatenhuizen,25,51.1195801501,4.87936818955
2260,Westerlo,Heivelden,16,51.0811090326,4.87861708953
2260,Westerlo,Gevaertlaan,174,51.0875375036,4.84140465236
2260,Westerlo,Toekomststraat,11,51.1351034604,4.90775346842
2260,Westerlo,Verlorenkost,6,51.0898182343,4.92080265379
2260,Westerlo,Giselbertusstraat,4,51.1024267435,4.90091784966
2260,Westerlo,Nieuwstraat,27,51.085964714,4.91447626457
2260,Westerlo,Guido Gezellestraat,4,51.085576292,4.90607308321
2260,Westerlo,Baksveld,3C,51.091010976,4.91632075653
2260,Westerlo,Prior Backxlaan,16,51.1247552452,4.90156172894
2260,Westerlo,Prelaat Van der Achterlaan,6,51.1296538041,4.90347837767
2260,Westerlo,Prelaat Stalpaertslaan,12,51.1289413646,4.90174695607
2260,Westerlo,Uitbreidingsstraat,24,51.1376555598,4.9089778724
2260,Westerlo,Kastanjestraat,22,51.1104287865,4.86025984159
2260,Westerlo,Vismarkt,24,51.0857944521,4.91562119835
2260,Westerlo,Spikdorenveld,28,51.0868189093,4.90576481832
2260,Westerlo,Stippelberg,257,51.0723331012,4.84578963088
2260,Westerlo,Emiel Stalmanslaan,9,51.1256620415,4.86626092443
2260,Westerlo,Schuurveldstraat,38,51.1337549944,4.87162424188
2260,Westerlo,Stippelberg,204,51.0733260218,4.84820357204
2260,Westerlo,Nieuwebaan,55,51.1182617997,4.86768994255
2260,Westerlo,Prelaat Nootslaan,7,51.1267820347,4.90493894677
2260,Westerlo,Wimpstraat,40,51.1091753956,4.92615232319
2260,Westerlo,Koning Leopoldlaan,58,51.0853719912,4.90656069652
2260,Westerlo,Stijn Streuvelsstraat,17,51.1170039687,4.8628292594
2260,Westerlo,Doelstraat,18,51.0854055002,4.8999119596
2260,Westerlo,Hoogveld,36,51.1296989499,4.86050242399
2260,Westerlo,Jos Geunsplein,13,51.1061094068,4.9173279983
2260,Westerlo,Ernest Claesstraat,50,51.1099456169,4.86421077884
2260,Westerlo,Pachterserf,3,51.101496238,4.8845025965
2260,Westerlo,Wolfstraat,17,51.0870046212,4.9124639784
2260,Westerlo,Zandberg,21,51.0941937561,4.93339102166
2260,Westerlo,Prelaat Tsgrootenlaan,14,51.1280834878,4.89879140337
2260,Westerlo,Ter Voort,145,51.1168217846,4.85966335894
2260,Westerlo,Nieuwstraat,3,51.0863592776,4.91545739838
2260,Westerlo,Nijverheidsstraat,10,51.1363530465,4.92919741099
2260,Westerlo,Heieinde,24,51.1334820659,4.90802276048
2260,Westerlo,Pappotstraat,23,51.1014085097,4.89681443856
2260,Westerlo,Lange Nieuwstraat,51,51.1093980901,4.9182424081
2260,Westerlo,Hoogveld,18,51.1282726251,4.86124779276
2260,Westerlo,Ter Voort,2,51.108352911,4.86900551348
2260,Westerlo,E. J. Van Gansenstraat,3A,51.0887123646,4.91861976838
2260,Westerlo,Elf-Julilaan,30,51.1060131005,4.92095203331
2260,Westerlo,Nieuwebaan,5,51.1158823059,4.86311329581
2260,Westerlo,Begijnenland,5,51.0943184428,4.87381708834
2260,Westerlo,Geneinde,57,51.1031052096,4.89616715266
2260,Westerlo,Kromstraat,16,51.1111385139,4.85622465408
2260,Westerlo,Molenwijk,8,51.1038778719,4.91921843507
2260,Westerlo,Olenseweg,92,51.1022633229,4.87008458244
2260,Westerlo,De Reid,42,51.1263322782,4.87626731707
2260,Westerlo,Tongerlostraat,2,51.1356957479,4.90354848528
2260,Westerlo,Oude Zoerlebaan,131,51.0911773287,4.86926785137
2260,Westerlo,Lelielaan,24,51.136649448,4.91196666953
2260,Westerlo,Kapelstraat,41,51.1059583824,4.92339571925
2260,Westerlo,Koning Leopoldlaan,23,51.085207601,4.90893225795
2260,Westerlo,Ilse Velden,33,51.1332461488,4.89859960721
2260,Westerlo,Boeretangstraat,25,51.1082088495,4.9124293581
2260,Westerlo,Kloosterstraat,19,51.1150236664,4.85939752334
2260,Westerlo,Prior Backxlaan,34,51.1261032206,4.89967112533
2260,Westerlo,Lange Nieuwstraat,52F,51.1081966448,4.91852584401
2260,Westerlo,Gevaertlaan,156,51.0873874321,4.84387216852
2260,Westerlo,Geneinde,75,51.1031515759,4.89369608364
2260,Westerlo,Boerenkrijglaan,170,51.0974553893,4.91111896692
2260,Westerlo,Tongerlostraat,117,51.1255396331,4.90790283453
2260,Westerlo,Kloosterstraat,67,51.1139843276,4.85354473183
2260,Westerlo,Mechelsestraat,68,51.1387372304,4.89492082569
2260,Westerlo,De Hand,42,51.0977359434,4.85285065465
2260,Westerlo,Vijfhuizenstraat,34,51.0933835906,4.87563569227
2260,Westerlo,Begonialaan,15,51.1355902495,4.91475612067
2260,Westerlo,Hoevestraat,23,51.1046721803,4.86206179431
2260,Westerlo,Ter Voort,117,51.1153251006,4.86197217595
2260,Westerlo,Salvialaan,29,51.1361146993,4.91558208594
2260,Westerlo,Schaapsdries,30,51.1296511153,4.8676481697
2260,Westerlo,Smallerijt,18,51.0926909627,4.93552429661
2260,Westerlo,Olenseweg,281,51.1236784566,4.86757931194
2260,Westerlo,Brugstraat,6,51.1349295059,4.91855867557
2260,Westerlo,Langstraat,86,51.1135644584,4.91269038391
2260,Westerlo,Kapelstraat,6,51.1082419135,4.92114674855
2260,Westerlo,Stippelberg,185,51.0748216405,4.85414207942
2260,Westerlo,de Merodedreef,131,51.0915176273,4.92072396594
2260,Westerlo,Arthur Sterckxstraat,29,51.0969025417,4.91375226535
2260,Westerlo,Kerkplein,2,51.1059754842,4.91541082406
2260,Westerlo,Goorken,80,51.1023654046,4.91686111198
2260,Westerlo,Overwijs,36,51.0997288416,4.90445323895
2260,Westerlo,de Merodedreef,16,51.0835231854,4.91284560633
2260,Westerlo,Boerenkrijglaan,33,51.0880942685,4.91479674242
2260,Westerlo,Olenseweg,21,51.0942725881,4.8700331878
2260,Westerlo,Tongerlostraat,90,51.1262381616,4.90701854274
2260,Westerlo,de Merodedreef,34,51.0847508351,4.91222052222
2260,Westerlo,Zoerleberg,22,51.0845238165,4.87950411704
2260,Westerlo,Koning Boudewijnstraat,11,51.129401796,4.86440267954
2260,Westerlo,Klaverstraat,2,51.103175044,4.87009208912
2260,Westerlo,Sint-Sebastiaanstraat,14,51.0899291097,4.87379430711
2260,Westerlo,Ilsestraat,13,51.1259080235,4.88343267394
2260,Westerlo,Grote Markt,19A,51.0873234904,4.91705239314
2260,Westerlo,Asberg,33,51.0854465185,4.88556546268
2260,Westerlo,Schaapsdries,12,51.1312556741,4.86700116558
2260,Westerlo,Leyse Hoevestraat,47,51.1137534956,4.90660166378
2260,Westerlo,Trapstraat,17,51.1127191764,4.86665833388
2260,Westerlo,Prelaat Mudsaertslaan,3,51.1293489793,4.90085919081
2260,Westerlo,Ketelstraat,4,51.120395524,4.85593615051
2260,Westerlo,Olenseweg,2,51.0923272909,4.87106288871
2260,Westerlo,Dalialaan,11,51.1359523075,4.91129446323
2260,Westerlo,Gravin de Merodestraat,84,51.0801871592,4.83494050284
2260,Westerlo,Violetstraat,22,51.1358567699,4.91070513159
2260,Westerlo,Wimpstraat,5,51.1117966828,4.9246490657
2260,Westerlo,Bistplein,9,51.0921978741,4.92042682214
2260,Westerlo,Polderstraat,15,51.0855367067,4.91634292466
2260,Westerlo,Dennenstraat,110,51.1305679693,4.90322270659
2260,Westerlo,Olenseweg,307,51.1258277612,4.86731145775
2260,Westerlo,Dennenstraat,21,51.1373946868,4.89802433685
2260,Westerlo,Kloosterstraat,37,51.1146223146,4.85740695379
2260,Westerlo,Gravin de Merodestraat,41,51.0837749073,4.83610720075
2260,Westerlo,Elf-Julilaan,40,51.1062880158,4.92192251608
2260,Westerlo,Jagersweg,55,51.1022887773,4.89066972774
2260,Westerlo,Oirschotstraat,6,51.0935548859,4.90964805249
2260,Westerlo,Monnikendijk,2,51.1168842577,4.90909863864
2260,Westerlo,Voorteinde,22,51.1022215769,4.91930955675
2260,Westerlo,Haverstraat,16,51.0824928602,4.8439509557
2260,Westerlo,Koning Leopoldlaan,109,51.0837478852,4.89944026851
2260,Westerlo,Schoolstraat,44,51.0829376456,4.83958687999
2260,Westerlo,Koning Leopoldlaan,86B,51.0849825522,4.90233996268
2260,Westerlo,Bergveld,27,51.085463249,4.87388188277
2260,Westerlo,Grote Steenweg,42,51.1158826253,4.94377399665
2260,Westerlo,Aarthof,25,51.1096985497,4.92428879531
2260,Westerlo,Goudvinkstraat,38,51.0877437571,4.82859261641
2260,Westerlo,Achterheide,72,51.0929301953,4.82645557979
2260,Westerlo,Kloosterstraat,20A,51.115023858,4.85822789795
2260,Westerlo,Gelendel,62,51.103838811,4.85629862664
2260,Westerlo,Boerenkrijglaan,152,51.0969016707,4.9113322383
2260,Westerlo,Overwijs,18,51.0992432586,4.90624763698
2260,Westerlo,Bergveld,3,51.0862526488,4.87258549594
2260,Westerlo,Stippelberg,167,51.0755274355,4.85627979079
2260,Westerlo,Hollandse dreef,16,51.0924791445,4.90998531391
2260,Westerlo,Heidestraat,22,51.1265396183,4.91088861664
2260,Westerlo,Berkenstraat,8,51.1108392727,4.85821857051
2260,Westerlo,Ritseldonk,13,51.0715917935,4.8465600884
2260,Westerlo,Sint-Lambertusstraat,31,51.0902803169,4.9187569867
2260,Westerlo,Heieinde,9,51.1334492848,4.90573276917
2260,Westerlo,Stippelberg,222,51.0727097186,4.84568475322
2260,Westerlo,Langstraat,122,51.116581363,4.91132107924
2260,Westerlo,Olenseweg,163,51.1110187201,4.86859340589
2260,Westerlo,Olenseweg,325,51.1278758128,4.86671179744
2260,Westerlo,Stekelbesstraat,1,51.095714557,4.90513608333
2260,Westerlo,Kloosterstraat,103,51.1109445285,4.84847520548
2260,Westerlo,Slachterijstraat,25,51.1028604627,4.86379434998
2260,Westerlo,Pappotstraat,51,51.1015475808,4.8931302365
2260,Westerlo,Ritseldonk,31,51.0704048352,4.84648174616
2260,Westerlo,Patersbos,17,51.0911498948,4.87622293909
2260,Westerlo,Geelse straat,61,51.1090682695,4.92057221257
2260,Westerlo,Spechtstraat,12,51.0878251274,4.83044774287
2260,Westerlo,Sint-Lambertusstraat,13,51.0892736481,4.91904187498
2260,Westerlo,Ter Voort,200,51.1187191813,4.85244548263
2260,Westerlo,Langstraat,25,51.1091233867,4.91408328663
2260,Westerlo,Prelaat Nootslaan,22,51.1282861562,4.90464195451
2260,Westerlo,Langstraat,1,51.1082035394,4.91451076858
2260,Westerlo,Salvialaan,5,51.1371756345,4.91362734778
2260,Westerlo,Emiel Stalmanslaan,24,51.1265451239,4.864808302
2260,Westerlo,Kastanjestraat,7,51.1103909031,4.86304042454
2260,Westerlo,Meuleveld,7A,51.1070809413,4.9197928012
2260,Westerlo,Vismarkt,9,51.0861437134,4.91629052542
2260,Westerlo,De Wijk,13,51.0855161457,4.87019252785
2260,Westerlo,Heidestraat,57,51.1240123013,4.92671477381
2260,Westerlo,Sint-Niklaasstraat,38,51.0907062154,4.87339505343
2260,Westerlo,Arthur Sterckxstraat,5,51.096210823,4.91245183173
2260,Westerlo,Zandvoort,44,51.1153425149,4.91932065132
2260,Westerlo,Gevaertlaan,199,51.0870961854,4.83874476571
2260,Westerlo,Eikelstraat,37,51.0847295372,4.9021553899
2260,Westerlo,Salvialaan,40,51.1356158229,4.91517318736
2260,Westerlo,Braambesstraat,4,51.0963077631,4.90489493203
2260,Westerlo,Taxandriastraat,21,51.1355345907,4.90090402326
2260,Westerlo,Industrieweg,44,51.0908614654,4.83286248357
2260,Westerlo,Geelse straat,43,51.1077914111,4.91889361179
2260,Westerlo,Prelaat Geertslaan,20,51.127398818,4.90046368505
2260,Westerlo,Slachterijstraat,1,51.106415453,4.86899959981
2260,Westerlo,Zoerledorp,16B,51.0873972628,4.87228213195
2260,Westerlo,Molenstraat,124,51.0783309581,4.8356574467
2260,Westerlo,Oosterwijk,72,51.1207429236,4.85765572634
2260,Westerlo,Bergveld,88,51.0787674892,4.87549020478
2260,Westerlo,Ploegstraat,6,51.0929774527,4.82918216671
2260,Westerlo,Mechelsestraat,33,51.1384892836,4.89651661387
2260,Westerlo,Godfried Hermansstraat,1,51.1026925514,4.89505584602
2260,Westerlo,Tongerlodorp,21,51.1074130902,4.91446240354
2260,Westerlo,Langstraat,68,51.1116872491,4.91349619074
2260,Westerlo,Ter Voort,198,51.118679496,4.85300322256
2260,Westerlo,Kloosterstraat,49,51.1147432578,4.85585586713
2260,Westerlo,Gravin de Merodestraat,139,51.0758640514,4.83489749491
2260,Westerlo,Sint-Martinusstraat,51,51.0943964051,4.91384720805
2260,Westerlo,Nachtegaalstraat,54,51.1351596021,4.90677828862
2260,Westerlo,Prelaat Hamuslaan,14,51.1276541518,4.8998949057
2260,Westerlo,Rooiveld,1,51.1097343705,4.84258474049
2260,Westerlo,Kerkezil,6,51.1352031542,4.90229926405
2260,Westerlo,Zoerledorp,60,51.0894789986,4.87125933952
2260,Westerlo,Meuleveld,3,51.1073839978,4.91947738744
2260,Westerlo,de Trannoyplein,6,51.1040546083,4.9152972396
2260,Westerlo,Stippelberg,293,51.0722962655,4.84063433245
2260,Westerlo,Ter Voort,135,51.1160831831,4.86118785061
2260,Westerlo,Rodekruisstraat,8D,51.0915759076,4.91941172434
2260,Westerlo,Bosbesstraat,11,51.0945440497,4.90322806395
2260,Westerlo,Geneinde,194,51.107680037,4.86971510474
2260,Westerlo,Molenwijk,27,51.1050503767,4.92156517498
2260,Westerlo,Stekelbesstraat,15,51.0949732691,4.90372461127
2260,Westerlo,August Cannaertsstraat,53,51.0933734716,4.83082036168
2260,Westerlo,Verbindingsstraat,8,51.1356295806,4.9071833307
2260,Westerlo,Binnenblok,11,51.1075723264,4.92386111206
2260,Westerlo,Prelaat Streyterslaan,25,51.1277478583,4.90137933811
2260,Westerlo,de Merodedreef,69,51.0903917233,4.91531376456
2260,Westerlo,Ritseldonk,41,51.0694836627,4.84722720567
2260,Westerlo,Prelaat Van der Achterlaan,13,51.1294770563,4.90443406162
2260,Westerlo,Franz Scheerlaan,24,51.1273807019,4.90299849449
2260,Westerlo,Verlorenkost,13,51.0909244647,4.92318676635
2260,Westerlo,Nieuwland,17,51.1354253486,4.90600225779
2260,Westerlo,Kwachtstraat,14,51.0792744866,4.84295511162
2260,Westerlo,Kerkhofstraat,74,51.1264677533,4.87515715647
2260,Westerlo,Koning Leopoldlaan,4,51.0859763267,4.91059945469
2260,Westerlo,Stippelberg,66,51.0797533323,4.86493694397
2260,Westerlo,Uitbreidingsstraat,52,51.138886099,4.91137459154
2260,Westerlo,Ernest Claesstraat,22,51.1118072154,4.86400048673
2260,Westerlo,Parwijsstraat,11,51.0849241937,4.871504761
2260,Westerlo,de Merodedreef,87,51.090900965,4.9170515737
2260,Westerlo,Sint-Annekestraat,10,51.0705790656,4.83737739044
2260,Westerlo,P. E. Peetersstraat,11F,51.0878632768,4.91689958684
2260,Westerlo,Geneinde,39,51.1029622065,4.89848792034
2260,Westerlo,Groenstraat,15,51.1085572428,4.86598808088
2260,Westerlo,Haart,2,51.1168446738,4.84544458302
2260,Westerlo,Heivelden,9,51.0812799627,4.8775048274
2260,Westerlo,Rodekruisstraat,94,51.097504383,4.91487238093
2260,Westerlo,Mechelsestraat,15,51.138939124,4.89937169291
2260,Westerlo,Boerenkrijglaan,61,51.0904600739,4.91243269707
2260,Westerlo,Renderstraat,71,51.0977847191,4.85838121386
2260,Westerlo,Oude Westmeerbeekseweg,59,51.0858700608,4.82841560018
2260,Westerlo,Braambesstraat,11,51.0958033092,4.90384504048
2260,Westerlo,Zwarte Braak,13,51.1280224578,4.8648705786
2260,Westerlo,Prior Backxlaan,9,51.1244201012,4.90256278835
2260,Westerlo,Koning Leopoldlaan,51,51.0848307287,4.90660669952
2260,Westerlo,Processieweg,18,51.089780837,4.83748361171
2260,Westerlo,Haverstraat,9,51.0828765958,4.84424185687
2260,Westerlo,Asterlaan,25,51.1373262211,4.91538925238
2260,Westerlo,Ilsestraat,41,51.1284839391,4.88106944168
2260,Westerlo,August Cannaertsstraat,101,51.093552496,4.82427867131
2260,Westerlo,Kroonstraat,34,51.1419938183,4.89771171047
2260,Westerlo,Kabouterpad,2,51.134451577,4.90700757645
2260,Westerlo,Kathovestraat,23,51.0903103747,4.84429871706
2260,Westerlo,Hollandse dreef,9,51.0919245773,4.90983585929
2260,Westerlo,Meidoornstraat,6,51.1111826744,4.85933643951
2260,Westerlo,Heultjedorp,76,51.0922102328,4.83860397206
2260,Westerlo,Olenseweg,181,51.1127729857,4.86857677751
2260,Westerlo,Jagersweg,19,51.1003935747,4.89037656978
2260,Westerlo,Gooreinde,77,51.0909828434,4.88616571599
2260,Westerlo,Gravin de Merodestraat,167,51.0730531775,4.83569058474
2260,Westerlo,Boerenkrijglaan,43,51.0886244386,4.91452646968
2260,Westerlo,Zagerijstraat,35,51.111308647,4.85740281967
2260,Westerlo,Goorken,28B,51.0981769044,4.91321108594
2260,Westerlo,Stippelberg,114,51.0773818858,4.85943633454
2260,Westerlo,Verlindenstraat,6,51.105179082,4.91859211326
2260,Westerlo,Nieuwebaan,30,51.1161324191,4.86502766823
2260,Westerlo,Lindenstraat,6,51.1403059454,4.90383253305
2260,Westerlo,Zandberg,56,51.0944613478,4.93781978937
2260,Westerlo,Boskant,18,51.0958442757,4.90934152745
2260,Westerlo,Grensstraat,8,51.0763324248,4.83126363564
2260,Westerlo,Oevelse dreef,45,51.1253420942,4.90637955112
2260,Westerlo,Pappotstraat,4,51.1017369823,4.89855268561
2260,Westerlo,Rodekruisstraat,58,51.0954116013,4.91799331427
2260,Westerlo,Nieuwland,3,51.1348275648,4.90638141641
2260,Westerlo,Vekestraat,6,51.0887196175,4.86604846412
2260,Westerlo,Toekomststraat,28,51.1356847174,4.90831582645
2260,Westerlo,Maaldonk,8,51.068985283,4.83332481621
2260,Westerlo,Lelielaan,52,51.1344620443,4.91287186838
2260,Westerlo,Nieuwstraat,45,51.0859605893,4.91360060687
2260,Westerlo,Vijfhuizenstraat,9,51.0926986558,4.87238198075
2260,Westerlo,Kerkhofstraat,56,51.1278875242,4.87344563816
2260,Westerlo,Dennenstraat,2,51.1386417139,4.89724361936
2260,Westerlo,Leyse Hoevestraat,43,51.1138367458,4.90715000867
2260,Westerlo,Sint-Martinusstraat,4,51.0916418766,4.91588494319
2260,Westerlo,Oeveldorp,3,51.1396358522,4.90392515398
2260,Westerlo,Renderstraat,6,51.0930854857,4.84460376381
2260,Westerlo,Rodekruisstraat,102,51.0979201738,4.91451306282
2260,Westerlo,Schietboomstraat,8,51.088812648,4.87423968786
2260,Westerlo,Asberg,15,51.0853525837,4.8877109531
2260,Westerlo,Kapelstraat,13,51.1078674588,4.92190710437
2260,Westerlo,Dumpelstraat,15,51.1337111158,4.9020937566
2260,Westerlo,Jaak Lemmenslaan,32,51.0877401571,4.87610167633
2260,Westerlo,Kardinaal Cardijnstraat,16,51.0947630497,4.90752250366
2260,Westerlo,Kallist Fimmerslaan,3,51.1271959608,4.90573180362
2260,Westerlo,Baksveld,58,51.0951650141,4.91635633434
2260,Westerlo,Zwarte Braak,31,51.1290949509,4.86336729437
2260,Westerlo,Molenstraat,98,51.0790872093,4.83848051084
2260,Westerlo,Willaart,5,51.129177721,4.8883741058
2260,Westerlo,Holleweg,16,51.0766024815,4.83815928844
2260,Westerlo,Schuurveldstraat,21,51.1329849549,4.86863602796
2260,Westerlo,De Reid,7,51.1239982029,4.87298305271
2260,Westerlo,Gevaertlaan,121,51.086997494,4.84947276193
2260,Westerlo,Langstraat,140,51.117640064,4.91060286052
2260,Westerlo,Gevaertlaan,73,51.0880469382,4.86124416797
2260,Westerlo,Geneinde,50,51.1033262478,4.89211708505
2260,Westerlo,Vrijheidstraat,5,51.1296966499,4.86135439606
2260,Westerlo,Rietstraat,13,51.0879920218,4.92039812319
2260,Westerlo,Oud-Strijdersstraat,9,51.1064469219,4.91831633264
2260,Westerlo,Zagerijstraat,17,51.1126604872,4.86019194906
2260,Westerlo,Nieuwstraat,10,51.0865672797,4.91499369165
2260,Westerlo,Sint-Michielsplein,11,51.1393430266,4.90512432835
2260,Westerlo,Begonialaan,8,51.1351453709,4.91431329151
2260,Westerlo,Bistberg,18,51.0934520342,4.92170965631
2260,Westerlo,de Merodedreef,125A,51.0913587538,4.92017539317
2260,Westerlo,Polderstraat,33,51.0849063247,4.91593206333
2260,Westerlo,Nieuwland,35,51.1348536806,4.90577936522
2260,Westerlo,Jagersweg,5,51.0885540246,4.89175599217
2260,Westerlo,Leyse Hoevestraat,1,51.1166732623,4.90955449684
2260,Westerlo,Jaak Lemmenslaan,14,51.0878879108,4.87464544764
2260,Westerlo,Tolhuis,107,51.1197289192,4.93883685763
2260,Westerlo,Nijverheidsstraat,27,51.1381593849,4.92004486111
2260,Westerlo,Gemeentestraat,22,51.1387209651,4.90686637094
2260,Westerlo,Giselbertusstraat,11,51.1018554659,4.90150012967
2260,Westerlo,Ilsestraat,36A,51.1290160762,4.88119499694
2260,Westerlo,Baksveld,23,51.0928205359,4.91642348184
2260,Westerlo,Hazendreef,16,51.1149751337,4.90684981014
2260,Westerlo,Elsbroek,7,51.1057950194,4.85657392727
2260,Westerlo,Langblok,41,51.1071476608,4.92683405924
2260,Westerlo,Kerkhofstraat,38,51.1288253068,4.8717498196
2260,Westerlo,Nieuwstraat,63,51.0857455261,4.91283267475
2260,Westerlo,Hoog Heultje,79,51.0649625526,4.83517304061
2260,Westerlo,Nieuwebaan,12,51.1156302478,4.86350064962
2260,Westerlo,Begijnenland,12,51.0950142462,4.87416079285
2260,Westerlo,Bistberg,36,51.0943168928,4.92145623943
2260,Westerlo,Meierij,13,51.102312468,4.87362545191
2260,Westerlo,Gooreinde,59,51.089864543,4.88398689115
2260,Westerlo,De Reid,49,51.1275918418,4.87778008859
2260,Westerlo,Dumpelstraat,1,51.1340851323,4.90394063311
2260,Westerlo,Gerststraat,7,51.083390232,4.84470819842
2260,Westerlo,Ter Voort,79,51.1129194571,4.86437601404
2260,Westerlo,Asberg,1,51.0850501104,4.88976462275
2260,Westerlo,Kardinaal Cardijnstraat,34,51.0961799988,4.90618339661
2260,Westerlo,Lijsterbesstraat,3,51.0948339522,4.90482861844
2260,Westerlo,Balebossen,16,51.0993384249,4.84044355647
2260,Westerlo,Rozenstraat,5,51.1345349197,4.90949822463
2260,Westerlo,Boerenkrijglaan,187,51.0988581099,4.90836380361
2260,Westerlo,Leeuwerikenplein,11,51.0853999416,4.87470398681
2260,Westerlo,Joris van Geelstraat,3,51.1361442115,4.9049319588
2260,Westerlo,Gravin de Merodestraat,66,51.0820910173,4.83524007796
2260,Westerlo,Sint-Martinusstraat,58,51.0951957756,4.91553972622
2260,Westerlo,Meulemanslaan,35,51.1032690645,4.91310227859
2260,Westerlo,Vogelzangstraat,22,51.0795332913,4.8418356651
2260,Westerlo,Vlinderstraat,35,51.0834643356,4.8440323414
2260,Westerlo,De Reid,14,51.1242015245,4.87405497774
2260,Westerlo,Eilardusstraat,11,51.0940124291,4.91007831355
2260,Westerlo,Gravin de Merodestraat,132,51.0749266913,4.83405255345
2260,Westerlo,Blokstraat,16,51.1113371165,4.90985124811
2260,Westerlo,Stippelberg,150,51.0756073056,4.85537781679
2260,Westerlo,Tramstraat,18,51.1375478285,4.90217834065
2260,Westerlo,Olenseweg,253,51.1205901118,4.86773269034
2260,Westerlo,Geelse straat,1,51.1066836153,4.91628683223
2260,Westerlo,Zoerledorp,49,51.0886529016,4.87132367115
2260,Westerlo,Stijn Streuvelsstraat,3,51.1165728897,4.86172772259
2260,Westerlo,Zoerledorp,67A,51.0892254813,4.87099169894
2260,Westerlo,Bergveld,10,51.0858986087,4.87219832269
2260,Westerlo,August Cannaertsstraat,35,51.0931287735,4.83281322171
2260,Westerlo,Tongerlostraat,44,51.1323797247,4.90432323675
2260,Westerlo,Trienenkantlaan,35,51.1246627306,4.90607932716
2260,Westerlo,Sint-Niklaasstraat,48,51.0909622672,4.87388784137
2260,Westerlo,Arthur Sterckxstraat,12,51.0958440555,4.91280530222
2260,Westerlo,Kloosterstraat,60,51.1137764287,4.8522725828
2260,Westerlo,Vlinderstraat,17,51.0853449996,4.84581508398
2260,Westerlo,Renderstraat,104,51.0971266261,4.85905297887
2260,Westerlo,Nachtegaalstraat,4D,51.1383117033,4.90550540023
2260,Westerlo,Olenseweg,38,51.0951728094,4.87086267265
2260,Westerlo,Smissenhoekstraat,36,51.0872083067,4.8753220329
2260,Westerlo,Zoerleberg,39,51.0839032042,4.87904991257
2260,Westerlo,Olenseweg,288,51.1243632613,4.86818784768
2260,Westerlo,Heksenbrug,22,51.1011258609,4.90290179862
2260,Westerlo,Prelaat Mudsaertslaan,10,51.1286718026,4.9008084694
2260,Westerlo,Renderstraat,25,51.0957623398,4.84688396969
2260,Westerlo,Boerenkrijglaan,15,51.0872595949,4.91468864444
2260,Westerlo,Bosstraat,2,51.1197809748,4.90679581508
2260,Westerlo,Molenstraat,45,51.0816819933,4.84387577405
2260,Westerlo,Salvialaan,12,51.1370728286,4.91303776812
2260,Westerlo,August Cannaertsstraat,17,51.0924293704,4.83533009721
2260,Westerlo,Groenstraat,61,51.1065035012,4.86178329731
2260,Westerlo,Moleneinde,35,51.1453062727,4.90033785258
2260,Westerlo,Guldensporenlaan,92,51.099900785,4.9183285129
2260,Westerlo,Rodekruisstraat,23,51.0942028237,4.91770830241
2260,Westerlo,Gooreinde,24,51.0882205815,4.8798104549
2260,Westerlo,Heultjedorp,23,51.0893599801,4.83883420863
2260,Westerlo,Olenseweg,135,51.1076983238,4.86898678947
2260,Westerlo,Smissenhoekstraat,18,51.0866107863,4.87373615568
2260,Westerlo,Salvialaan,30,51.1358781904,4.91440115708
2260,Westerlo,Distelstraat,16,51.0997653035,4.87283796739
2260,Westerlo,Tongerlostraat,97,51.1272290289,4.90736909762
2260,Westerlo,Gelendel,69,51.1037637389,4.8571914852
2260,Westerlo,Boerenkrijglaan,169,51.096884184,4.91050304557
2260,Westerlo,Kerkhofstraat,2,51.1278205277,4.86771130634
2260,Westerlo,Moestoemaatheide,12,51.124253529,4.93853873948
2260,Westerlo,Mechelsestraat,43,51.1384169446,4.89502409012
2260,Westerlo,Olenseweg,300,51.1260305261,4.86799671104
2260,Westerlo,Tolhuis,56,51.1133564708,4.92626265775
2260,Westerlo,Oirschotstraat,13,51.0935035448,4.90841669671
2260,Westerlo,Biezenstraat,78,51.1007162996,4.88124057754
2260,Westerlo,Reigerstraat,9,51.1119381781,4.90807446475
2260,Westerlo,Eikelstraat,55,51.0845682257,4.90117292391
2260,Westerlo,Klaverheide,2,51.0970340872,4.90617466857
2260,Westerlo,Goudvinkstraat,21,51.0882999099,4.82889083213
2260,Westerlo,Schaapstraat,3,51.1292193587,4.86892510654
2260,Westerlo,Hoog Heultje,44,51.0685690898,4.83487035353
2260,Westerlo,Guldensporenlaan,56,51.0981295813,4.92019453629
2260,Westerlo,Kruisstraat,22,51.0882237968,4.88196442986
2260,Westerlo,Schaapstraat,17,51.1303323812,4.86879403745
2260,Westerlo,Ter Voort,110,51.1150859612,4.86268813524
2260,Westerlo,Zandberg,2,51.0930278724,4.93055313449
2260,Westerlo,Zoerledorp,85,51.0898185407,4.8706630789
2260,Westerlo,P. E. Peetersstraat,1,51.0876123868,4.91730598821
2260,Westerlo,Pastorijstraat,1,51.0876786545,4.83567741192
2260,Westerlo,Arthur Sterckxstraat,30,51.0968263456,4.91454139218
2260,Westerlo,Prelaat Geertslaan,5,51.1266978342,4.89971203141
2260,Westerlo,Tramstraat,36,51.1365275335,4.90256759017
2260,Westerlo,Lange Nieuwstraat,23,51.1087452828,4.91637541311
2260,Westerlo,Boogstraat,6,51.1340550922,4.9052098352
2260,Westerlo,Lindenstraat,25,51.1412151886,4.90301633052
2260,Westerlo,Geelse straat,68,51.1081193107,4.91999382808
2260,Westerlo,Zwarte Braak,71,51.1310177878,4.86136620274
2260,Westerlo,Britselaan,61,51.1289408836,4.85271602491
2260,Westerlo,Bell-Telephonelaan,4,51.1325752712,4.94150040181
2260,Westerlo,Rozenstraat,19,51.1355053204,4.90903712746
2260,Westerlo,Olenseweg,117,51.1040165034,4.86924659866
2260,Westerlo,Trienenkantlaan,3,51.1263155213,4.90608078879
2260,Westerlo,Truchelven,10,51.1349491176,4.86695874754
2260,Westerlo,Vekestraat,25,51.0891979756,4.86648289889
2260,Westerlo,Plassendonk,6,51.1302074343,4.92672685197
2260,Westerlo,Meulemanslaan,3,51.1044165671,4.91497408239
2260,Westerlo,Vlinderstraat,3,51.0863355234,4.84583148322
2260,Westerlo,Nijverheidsstraat,8,51.1359967479,4.93196493986
2260,Westerlo,Langstraat,129,51.1165143108,4.91053852007
2260,Westerlo,Lange Nieuwstraat,27A,51.1088311768,4.91665486805
2260,Westerlo,Nachtegaalstraat,36,51.1360089115,4.90645503816
2260,Westerlo,Godfried Hermansstraat,8,51.1024079512,4.89447397636
2260,Westerlo,Duivengracht,22,51.08936289,4.84408681465
2260,Westerlo,Geelse straat,15,51.1070017425,4.91701992406
2260,Westerlo,Moleneinde,3,51.1434093241,4.90110046406
2260,Westerlo,Oosterwijk,18,51.1269359109,4.86390137139
2260,Westerlo,Ketelstraat,11,51.1207535417,4.85495965215
2260,Westerlo,Busselen,15,51.1250825026,4.870189485
2260,Westerlo,Sint-Niklaasstraat,21,51.089706467,4.87223752033
2260,Westerlo,Guldensporenlaan,21,51.0952369028,4.91938808797
2260,Westerlo,Geneinde,123,51.103439543,4.88682319714
2260,Westerlo,Moleneinde,17,51.1444033222,4.90082000247
2260,Westerlo,Langstraat,61,51.1112355303,4.9126254036
2260,Westerlo,Nachtegaalstraat,18,51.1376624285,4.90592114495
2260,Westerlo,Bosbesstraat,28,51.0962022713,4.90259094381
2260,Westerlo,Loofven,10,51.1398213551,4.90543389395
2260,Westerlo,Hulshoutsesteenweg,5,51.0725250508,4.83431156669
2260,Westerlo,Heldenstraat,7,51.1282130058,4.86194099559
2260,Westerlo,Meulemanslaan,17,51.1038651521,4.91412666683
2260,Westerlo,Kloosterstraat,42,51.1148298515,4.85428085147
2260,Westerlo,Leemstraat,25,51.1190129372,4.87445226304
2260,Westerlo,Prelaat Streyterslaan,6,51.1285156081,4.89974485877
2260,Westerlo,Ter Voort,181,51.1184827426,4.85481145165
2260,Westerlo,Achterheide,18,51.0918432669,4.83333515063
2260,Westerlo,Gelendel,34,51.105193817,4.85956448753
2260,Westerlo,Boerenkrijglaan,120A,51.0949286292,4.91247044915
2260,Westerlo,Tongerlodorp,38,51.1078282579,4.91518734878
2260,Westerlo,Molenstraat,10,51.0850039076,4.8495168918
2260,Westerlo,Grote Markt,25,51.0875567724,4.9179170696
2260,Westerlo,Bistplein,24,51.093403429,4.92089956562
2260,Westerlo,Meidoornstraat,25,51.1113899978,4.86169568487
2260,Westerlo,Renderstraat,122,51.0958186226,4.86172599728
2260,Westerlo,Voorteinde,7,51.103317286,4.91793468813
2260,Westerlo,Steine-Hoevestraat,5,51.1031033312,4.88367183576
2260,Westerlo,Stippelberg,1,51.0821351974,4.87393194351
2260,Westerlo,Esdoornstraat,1,51.1114433443,4.86099780987
2260,Westerlo,Neurusstraat,4,51.1179659311,4.86935278353
2260,Westerlo,Langstraat,45,51.1101274552,4.91367604864
2260,Westerlo,Holleweg,9,51.0772798792,4.83832120734
2260,Westerlo,Nachtegaalstraat,59,51.1349089712,4.90733374633
2260,Westerlo,Langstraat,6,51.1085488535,4.91473356389
2260,Westerlo,Ter Voort,191,51.1183391622,4.85344358074
2260,Westerlo,Geelse straat,98,51.1096352799,4.92099773584
2260,Westerlo,Tramstraat,24,51.1370642744,4.902385988
2260,Westerlo,Grote Markt,47,51.0876968831,4.9188668658
2260,Westerlo,Kloosterstraat,73,51.1135145558,4.85280396771
2260,Westerlo,Renderstraat,88,51.09728991,4.85648834267
2260,Westerlo,Jaak Lemmenslaan,37,51.0879838864,4.87676030812
2260,Westerlo,Wolfstraat,25,51.0871867519,4.91218877946
2260,Westerlo,Ernest Claesstraat,29,51.1101257088,4.86535320824
2260,Westerlo,Bell-Telephonelaan,2,51.1323253332,4.93999081547
2260,Westerlo,Stippelberg,249,51.072533523,4.84688347863
2260,Westerlo,Bosstraat,13,51.1174339286,4.90811883248
2260,Westerlo,Mechelsestraat,6,51.1394158996,4.90271480842
2260,Westerlo,Ilsestraat,8,51.1254518461,4.88511505672
2260,Westerlo,Aspergevelden,35,51.0847139235,4.87647269655
2260,Westerlo,Gooreinde,18,51.0881072119,4.8795866986
2260,Westerlo,Vijverstraat,9,51.0879884713,4.84539820424
2260,Westerlo,Trapstraat,5,51.1127282581,4.86572106052
2260,Westerlo,Lievekensstraat,6,51.092588307,4.83369128498
2260,Westerlo,Leyse Hoevestraat,10,51.1146875457,4.90913461696
2260,Westerlo,de Trannoyplein,1,51.1049216169,4.91599045641
2260,Westerlo,Jaak Lemmenslaan,19,51.0882969107,4.87420627287
2260,Westerlo,Sint-Lambertusstraat,8,51.0905388391,4.91943089844
2260,Westerlo,Meierij,38,51.1000171364,4.87425207115
2260,Westerlo,Molenstraat,43,51.0815871905,4.84420189942
2260,Westerlo,Geneinde,30,51.1035630507,4.8961803205
2260,Westerlo,Nieuwstraat,15,51.0861824436,4.91499661246
2260,Westerlo,Koning Leopoldlaan,11,51.085353572,4.90969836372
2260,Westerlo,Stijn Streuvelsstraat,25,51.1172744271,4.86351908017
2260,Westerlo,Kardinaal Cardijnstraat,9,51.0941449305,4.90644789854
2260,Westerlo,Verlorenkost,38,51.0908012478,4.92348719555
2260,Westerlo,Overwijs,4,51.0989768631,4.90763565564
2260,Westerlo,Duivengracht,40,51.0924608268,4.84440683619
2260,Westerlo,Hulsdonk,3,51.0843390162,4.86606361451
2260,Westerlo,Tongerlostraat,34,51.1329864904,4.90414218864
2260,Westerlo,Asberg,10,51.0853625568,4.89055921351
2260,Westerlo,Boeretangstraat,17,51.1088823481,4.91203052578
2260,Westerlo,Schaapsdries,5,51.1311998142,4.86786002203
2260,Westerlo,Sint-Niklaasstraat,2,51.088463077,4.87369209984
2260,Westerlo,Slachterijstraat,6,51.1059466826,4.86759971893
2260,Westerlo,Guldensporenlaan,2,51.093585453,4.92068959577
2260,Westerlo,Baksveld,28,51.0930794014,4.91694925144
2260,Westerlo,Olenseweg,363,51.1303663257,4.86565693949
2260,Westerlo,Dennenstraat,84,51.1324132577,4.90126730239
2260,Westerlo,de Merodedreef,90,51.0900870526,4.91694481454
2260,Westerlo,Prior Backxlaan,26,51.1247521467,4.90033710961
2260,Westerlo,Het Locht,21,51.0758414074,4.83740778736
2260,Westerlo,Processieweg,7,51.0883988954,4.83641425027
2260,Westerlo,Oevelse dreef,15,51.1099610239,4.90394092993
2260,Westerlo,Olenseweg,102,51.1030319077,4.87005728533
2260,Westerlo,Mechelsestraat,32B,51.1394544812,4.89956602271
2260,Westerlo,Zwarte Braak,53,51.1297441449,4.86269917894
2260,Westerlo,Gelendel,26,51.106015537,4.85897257763
2260,Westerlo,Hondseinde,13,51.1092984275,4.9366973574
2260,Westerlo,Rietstraat,1,51.0883946919,4.92006132374
2260,Westerlo,Asterlaan,53,51.1355953969,4.91697803477
2260,Westerlo,Goudvinkstraat,2,51.0886991845,4.83281101758
2260,Westerlo,E. J. Van Gansenstraat,28,51.0880565153,4.91630638499
2260,Westerlo,Geneinde,151,51.1040469536,4.8824670567
2260,Westerlo,Renderstraat,170,51.0921243224,4.86399584162
2260,Westerlo,Pappotstraat,11,51.1013735175,4.8976813733
2260,Westerlo,Grote Steenweg,54,51.1119184387,4.94381698883
2260,Westerlo,Langblok,8,51.1084411934,4.9243021056
2260,Westerlo,Kapelstraat,1,51.1087229472,4.92163822318
2260,Westerlo,Hannekenshoek,8,51.1166958409,4.9396744297
2260,Westerlo,Tongerlostraat,109,51.1262032908,4.90764652211
2260,Westerlo,Bijstraat,36,51.1297754159,4.90004191022
2260,Westerlo,Hoog Heultje,16,51.0711396961,4.83511900998
2260,Westerlo,Elf-Julilaan,22,51.1056972347,4.91977932478
2260,Westerlo,Gevaertlaan,3,51.0877654388,4.8703482761
2260,Westerlo,Hoog Heultje,34,51.0694857167,4.83486737294
2260,Westerlo,Oosterwijk,77,51.1196352523,4.85615073557
2260,Westerlo,Oosterwijk,24,51.1270334134,4.86305145811
2260,Westerlo,Britselaan,6,51.1317676923,4.86407737257
2260,Westerlo,Ter Voort,109,51.1149834484,4.86226846956
2260,Westerlo,Gravin de Merodestraat,21,51.0852071954,4.83638442642
2260,Westerlo,Zwarte Heide,21,51.1058558312,4.88023111943
2260,Westerlo,Ter Voort,80,51.1132857897,4.86447501332
2260,Westerlo,Tongerlostraat,36A,51.1328014091,4.90418163899
2260,Westerlo,Tolhuis,41,51.1131040702,4.92452911179
2260,Westerlo,Kroonstraat,9,51.139582882,4.89711639576
2260,Westerlo,Olenseweg,227,51.1173552392,4.86820525257
2260,Westerlo,Lammendries,18,51.1401722014,4.89901635068
2260,Westerlo,Ernest Claesstraat,40,51.1105907216,4.86406897385
2260,Westerlo,Stippelberg,267,51.0722361124,4.84423398984
2260,Westerlo,Groenstraat,10,51.109117016,4.86644912758
2260,Westerlo,Aspergevelden,17,51.0863035422,4.87591066115
2260,Westerlo,Kroonstraat,44,51.1427252223,4.89735576043
2260,Westerlo,Bisschop Vanuytvenlaan,17,51.1271700958,4.90367118931
2260,Westerlo,Toekomststraat,23,51.1360071893,4.90771776029
2260,Westerlo,Renderstraat,152,51.093462029,4.86362019125
2260,Westerlo,Rooiveld,45,51.0984265216,4.83326861315
2260,Westerlo,De Zaart,11,51.0786234152,4.85890640226
2260,Westerlo,Stippelberg,214,51.0728723371,4.84656962018
2260,Westerlo,Renderstraat,106,51.0970561271,4.85933960789
2260,Westerlo,Wimpstraat,50,51.10842935,4.92675085442
2260,Westerlo,Ter Voort,62,51.1125783833,4.86517366678
2260,Westerlo,Asterlaan,38,51.1358068288,4.91631786052
2260,Westerlo,Nachtegaalstraat,24,51.1373440967,4.90620481229
2260,Westerlo,Kwachtstraat,19,51.0790800715,4.84386457344
2260,Westerlo,Goorbossen,7,51.0832228342,4.83460231973
2260,Westerlo,Olenseweg,345,51.1290315644,4.8662747123
2260,Westerlo,Zwarte Braak,38,51.1294253771,4.86377536481
2260,Westerlo,Bistplein,18,51.0930896401,4.92108713447
2260,Westerlo,Koekoekstraat,32,51.0864699991,4.85477539354
2260,Westerlo,Van Wesemaelstraat,10,51.0838401086,4.9134163134
2260,Westerlo,Sint-Niklaasstraat,41,51.0911036742,4.87334054043
2260,Westerlo,Prelaat Geertslaan,14,51.1269027134,4.90038517925
2260,Westerlo,Eilardusstraat,18,51.094138708,4.91060980278
2260,Westerlo,Hazendreef,9,51.1148317857,4.90802364073
2260,Westerlo,Sint-Martinusstraat,11,51.0914034487,4.91540925127
2260,Westerlo,Sint-Michielsstraat,23,51.1406419682,4.90594330907
2260,Westerlo,Bijstraat,18,51.1301624075,4.9023854816
2260,Westerlo,Kloosterstraat,55,51.1146771128,4.85482979704
2260,Westerlo,Smallerijt,4,51.0930346193,4.93260218427
2260,Westerlo,Bosstraat,31,51.119179867,4.89982516961
2260,Westerlo,Nieuwstraat,43,51.0859311004,4.91369874211
2260,Westerlo,Prelaat Hamuslaan,3,51.1271268939,4.89882953453
2260,Westerlo,O.-L.-Vrouwstraat,16,51.1390989211,4.91693847573
2260,Westerlo,Zoerleberg,12,51.0849065703,4.88060110963
2260,Westerlo,Achterheide,24,51.0919892018,4.83254895805
2260,Westerlo,Sint-Lambertusstraat,21,51.0895225879,4.91903495954
2260,Westerlo,Bergveld,114,51.0753606764,4.87629312487
2260,Westerlo,Meuleveld,15,51.106470961,4.92032747557
2260,Westerlo,Heidestraat,30,51.1262259381,4.91193532333
2260,Westerlo,Heidestraat,37,51.126373525,4.9129509697
2260,Westerlo,Doelstraat,4,51.0848111113,4.89983926321
2260,Westerlo,Franz Scheerlaan,18,51.1269848317,4.90323580511
2260,Westerlo,Olenseweg,155,51.1101489326,4.86874530914
2260,Westerlo,Gravin de Merodestraat,8,51.0866710909,4.83612676786
2260,Westerlo,Koning Leopoldlaan,46,51.0854928559,4.90765034437
2260,Westerlo,Loofven,15,51.1402877484,4.90577833645
2260,Westerlo,Boerenkrijglaan,45,51.0886908662,4.91452681777
2260,Westerlo,Haart,13,51.115874677,4.8473736616
2260,Westerlo,Verlorenkost,1,51.0903649537,4.92101265967
2260,Westerlo,Begijnenland,17,51.0953598932,4.87319196643
2260,Westerlo,Korenstraat,2,51.0819874854,4.84562080758
2260,Westerlo,Oude Zoerlebaan,72,51.0922024162,4.85210412537
2260,Westerlo,Oosterwijk,7,51.1269618806,4.86601651482
2260,Westerlo,Geneinde,65,51.1031325126,4.89520800768
2260,Westerlo,Geneinde,40,51.1035230563,4.89475167037
2260,Westerlo,De Hand,19,51.0992338033,4.85286647232
2260,Westerlo,Arthur Sterckxstraat,39,51.0972152021,4.91448526524
2260,Westerlo,Bosstraat,41,51.1213826373,4.89107180883
2260,Westerlo,Blauwvoetstraat,26,51.1413934997,4.89872144245
2260,Westerlo,Violetstraat,30,51.1366470021,4.91044727156
2260,Westerlo,Europastraat,3,51.1054314076,4.92001449238
2260,Westerlo,Aarthof,35,51.1098538582,4.92534077082
2260,Westerlo,Geelse straat,10,51.1065184438,4.9165474793
2260,Westerlo,Heidestraat,12,51.1270059597,4.90940269149
2260,Westerlo,Hogeheide,18,51.0851758615,4.83141573729
2260,Westerlo,Koning Boudewijnstraat,2,51.1294460491,4.86505814355
2260,Westerlo,Veststraat,8,51.1037821793,4.86272715486
2260,Westerlo,Langstraat,17,51.1088270429,4.91425289047
2260,Westerlo,Kwachtstraat,37,51.0774120321,4.84861424429
2260,Westerlo,Nieuwstraat,61,51.0857712695,4.91294187232
2260,Westerlo,Boeretangstraat,6,51.1096140719,4.91109002058
2260,Westerlo,Gelendel,9,51.1102321866,4.85864430779
2260,Westerlo,Henricusstraat,20,51.1013677404,4.89942524898
2260,Westerlo,Kloosterstraat,3,51.1156602487,4.86065112158
2260,Westerlo,Hulshoutsesteenweg,14,51.0727510952,4.83231541175
2260,Westerlo,Heldenstraat,12,51.1282034854,4.86277600762
2260,Westerlo,Tongerlostraat,127,51.1248093453,4.90812451588
2260,Westerlo,Zoerleberg,30,51.084138633,4.87803148331
2260,Westerlo,Gravin de Merodestraat,74,51.0814286563,4.83518451253
2260,Westerlo,Molenwijk,33,51.1054492247,4.92250184403
2260,Westerlo,Violetstraat,12,51.135026645,4.91099795192
2260,Westerlo,Processieweg,24,51.0902259645,4.83730495046
2260,Westerlo,Het Locht,8,51.0747789879,4.83559939472
2260,Westerlo,Rozenstraat,14,51.1352261624,4.90975398005
2260,Westerlo,Ter Voort,127,51.115646567,4.8615588433
2260,Westerlo,Stippelberg,232,51.0725810006,4.84455083002
2260,Westerlo,Bell-Telephonelaan,13,51.1309065719,4.94264395394
2260,Westerlo,Schobbroek,16,51.1090568491,4.8721253865
2260,Westerlo,Voorteinde,12,51.1029434374,4.91887746363
2260,Westerlo,Schaapsdries,22,51.1303725579,4.86737359558
2260,Westerlo,Bergveld,96,51.0780250814,4.87553209514
2260,Westerlo,Olenseweg,317,51.1264999622,4.86711779773
2260,Westerlo,Tongerlodorp,13,51.1069837625,4.91462030586
2260,Westerlo,Wimpstraat,39,51.1093573944,4.92663314597
2260,Westerlo,Rodekruisstraat,28,51.0932503783,4.91877954857
2260,Westerlo,Monnikendijk,13,51.1167409485,4.90729790679
2260,Westerlo,Olenseweg,209,51.114928508,4.86830795564
2260,Westerlo,Bergveld,78,51.0795108776,4.87545017888
2260,Westerlo,Ilsestraat,74,51.1345920653,4.88537638194
2260,Westerlo,Boerenkrijglaan,140,51.0963196979,4.91161012981
2260,Westerlo,Aarthof,17,51.1095204671,4.92339434565
2260,Westerlo,Ilse Velden,10,51.1303496904,4.88839572952
2260,Westerlo,Leeuwerikenveld,7,51.0845555035,4.87485197195
2260,Westerlo,Trapstraat,25,51.1128308081,4.86755334161
2260,Westerlo,Heieinde,54,51.1339141811,4.91183638563
2260,Westerlo,Asterlaan,1,51.138164489,4.9129692039
2260,Westerlo,Bergveld,15,51.0856696726,4.87293001763
2260,Westerlo,Gevaertlaan,134,51.0873143393,4.84762442769
2260,Westerlo,Toekomststraat,51,51.137341711,4.9074559895
2260,Westerlo,Mechelsestraat,35,51.1384601248,4.89620308271
2260,Westerlo,Koning Boudewijnstraat,23,51.129764104,4.8640046725
2260,Westerlo,Hoevestraat,11,51.1045079016,4.86340247178
2260,Westerlo,Slachterijstraat,35,51.1023433393,4.8617770524
2260,Westerlo,Merelbos,7,51.0863643079,4.87720283375
2260,Westerlo,Heieinde,72,51.1343470346,4.91426152357
2260,Westerlo,Geneinde,83,51.1030220757,4.89292206962
2260,Westerlo,Langstraat,98,51.1156033289,4.9128875207
2260,Westerlo,Kerkplein,16,51.1053430619,4.9154011343
2260,Westerlo,Bistberg,24,51.0936989249,4.92164134883
2260,Westerlo,Paddekens,8,51.0869905894,4.91413742914
2260,Westerlo,Uitbreidingsstraat,54,51.1390395246,4.91133879715
2260,Westerlo,Boerenkrijglaan,63,51.0909828826,4.91344309484
2260,Westerlo,Koning Leopoldlaan,64,51.0851575272,4.90521750525
2260,Westerlo,Kardinaal Cardijnstraat,44,51.0969135524,4.90599554885
2260,Westerlo,Wolfstraat,5,51.0866826041,4.91278150544
2260,Westerlo,Olenseweg,13,51.0935240232,4.87017146615
2260,Westerlo,Blokstraat,9,51.1109549674,4.9093284547
2260,Westerlo,Lange Nieuwstraat,28,51.108397098,4.91690594257
2260,Westerlo,Tolhuis,2,51.109959456,4.92100999588
2260,Westerlo,Prelaat Nootslaan,12,51.1275322963,4.90516612916
2260,Westerlo,Gelendel,90,51.1023232225,4.85361023374
2260,Westerlo,Klaverstraat,34,51.1044788782,4.87805763216
2260,Westerlo,Lijsterbesstraat,8,51.094593706,4.90446627347
2260,Westerlo,Asberg,45,51.0858132339,4.88232857207
2260,Westerlo,Prelaat Mudsaertslaan,15,51.1286053031,4.9014609812
2260,Westerlo,Ilsestraat,56,51.1316239319,4.88148579362
2260,Westerlo,Den Ast,4,51.0990972229,4.86925953375
2260,Westerlo,Olenseweg,398,51.1364971209,4.86398742844
2260,Westerlo,Ter Voort,210,51.1188771036,4.85133081234
2260,Westerlo,Kerkhofstraat,41,51.1287032717,4.87312975579
2260,Westerlo,Zwarte Braak,1,51.1274692076,4.8657837912
2260,Westerlo,Zandstraat,16,51.0883322942,4.87803125851
2260,Westerlo,Klaverstraat,16,51.103320722,4.87258552413
2260,Westerlo,Olenseweg,335,51.1283985902,4.86656695314
2260,Westerlo,August Cannaertsstraat,71,51.0934171373,4.82977090213
2260,Westerlo,Zandberg,41,51.0946078104,4.9353151634
2260,Westerlo,Prelaat Tsgrootenlaan,20,51.1285556253,4.89894262008
2260,Westerlo,Dennenstraat,66,51.134005565,4.89969090215
2260,Westerlo,Molenstraat,114,51.0782034711,4.83695287751
2260,Westerlo,Hotelstraat,5,51.1315010164,4.9403677403
2260,Westerlo,P. E. Peetersstraat,10,51.0879923064,4.91714274291
2260,Westerlo,Hulshoutsesteenweg,32,51.072400464,4.83034064866
2260,Westerlo,Pastorijstraat,10,51.088012164,4.83542369225
2260,Westerlo,Gevaertlaan,179,51.0869376251,4.8412134652
2260,Westerlo,Oude Westmeerbeekseweg,18,51.0873606898,4.82726776476
2260,Westerlo,Zoerledorp,108,51.0919496484,4.87100287165
2260,Westerlo,Ritseldonk,21,51.0712271073,4.84638286191
2260,Westerlo,Aspergevelden,6,51.0858858455,4.87555017422
2260,Westerlo,Duivengracht,29,51.0907615322,4.84371994438
2260,Westerlo,Gevaertlaan,116,51.087465048,4.85036591043
2260,Westerlo,Smissenhoekstraat,52,51.0875034071,4.87705538073
2260,Westerlo,Dennenstraat,13,51.1380936574,4.89802569438
2260,Westerlo,Olenseweg,173,51.111697311,4.8685688283
2260,Westerlo,Leyse Hoevestraat,45,51.1137978902,4.90687965233
2260,Westerlo,Leistraat,36,51.1137447512,4.91655673982
2260,Westerlo,Bisschop Vanuytvenlaan,6,51.1263823419,4.90473136852
2260,Westerlo,Heultjedorp,28,51.0895325926,4.83977284948
2260,Westerlo,Nieuwebaan,22,51.1158769633,4.86429931213
2260,Westerlo,Oude Zoerlebaan,36,51.092801608,4.84573796617
2260,Westerlo,de Merodedreef,97,51.0909059501,4.91781442825
2260,Westerlo,Bochtestraat,30,51.1154846112,4.86683207872
2260,Westerlo,Bosbesstraat,18,51.0956872618,4.90287455932
2260,Westerlo,Kloosterstraat,14,51.115322985,4.85903364186
2260,Westerlo,Hubertusstraat,3,51.1016247193,4.90068441425
2260,Westerlo,Prelaat Tsgrootenlaan,3,51.1276948198,4.89802845009
2260,Westerlo,Heultjedorp,11,51.0885519207,4.83789718314
2260,Westerlo,Patersbos,12,51.0910255719,4.8757649673
2260,Westerlo,Molenstraat,68,51.0808156515,4.8406527708
2260,Westerlo,Duivengracht,9,51.0881129574,4.84335416432
2260,Westerlo,Renderstraat,53,51.0973917438,4.85368350308
2260,Westerlo,Putstraat,7,51.1032993954,4.86754373148
2260,Westerlo,Boerenkrijglaan,95D,51.0932699332,4.91199135175
2260,Westerlo,Eilardusstraat,6,51.0931208452,4.91075358452
2260,Westerlo,Kloosterstraat,32,51.1150968528,4.85662331548
2260,Westerlo,Leeuwerikenplein,6,51.0853270505,4.87438778335
2260,Westerlo,Geneinde,29,51.1029620415,4.89998149125
2260,Westerlo,Zoerledorp,55,51.0888202732,4.87119829843
2260,Westerlo,Lammendries,6,51.1406475178,4.89874011654
2260,Westerlo,Kapelstraat,21,51.107225654,4.92236399134
2260,Westerlo,Ernest Claesstraat,12,51.1123549039,4.86366028528
2260,Westerlo,Schuurveldstraat,13,51.1330113203,4.86765367293
2260,Westerlo,De Reid,20,51.1245586702,4.87434467013
2260,Westerlo,Nijverheidsstraat,15,51.1366324237,4.92364921793
2260,Westerlo,Eikelstraat,49,51.084609631,4.90143885388
2260,Westerlo,Abdijstraat,17,51.104754818,4.91092848509
2260,Westerlo,Vijverstraat,26,51.0903352261,4.84650866741
2260,Westerlo,Stippelberg,124,51.0768417395,4.85829066921
2260,Westerlo,Grote Markt,53,51.0871791439,4.91824404238
2260,Westerlo,Gravin de Merodestraat,38,51.0843185853,4.83571660062
2260,Westerlo,Langstraat,47,51.1102505636,4.91352940442
2260,Westerlo,Gevaertlaan,197,51.0871488481,4.83910810596
2260,Westerlo,Gesneuveldenstraat,3,51.1287924248,4.86222139977
2260,Westerlo,Prelaat Streyterslaan,1,51.1292620837,4.89995649455
2260,Westerlo,Ernest Claesstraat,30,51.1111823699,4.86385634022
2260,Westerlo,de Merodedreef,79,51.0905648106,4.91607758145
2260,Westerlo,Olenseweg,210,51.1167545637,4.86887020709
2260,Westerlo,Mollemansstraat,10,51.1248148317,4.85617555874
2260,Westerlo,Korenstraat,13,51.0827881608,4.84512691898
2260,Westerlo,Oude Zoerlebaan,24A,51.0923453281,4.8440259653
2260,Westerlo,Asberg,27,51.0854124915,4.88629268073
2260,Westerlo,Baksveld,11,51.0919816709,4.91688840405
2260,Westerlo,Nachtegaalstraat,52,51.1352269198,4.90676063419
2260,Westerlo,Kardinaal Cardijnstraat,26,51.0953480237,4.90672355974
2260,Westerlo,Groenstraat,47,51.1071897969,4.86303008683
2260,Westerlo,Bosbesstraat,36,51.0965759525,4.90237123209
2260,Westerlo,Overwijs,24,51.0994335427,4.90575800327
2260,Westerlo,Boerenkrijglaan,175,51.0973580629,4.91031267916
2260,Westerlo,Kerkstraat,4,51.0874833905,4.8722371023
2260,Westerlo,Giselbertusstraat,23,51.1014426469,4.90141032774
2260,Westerlo,Zandvoort,80,51.1256976871,4.91414755726
2260,Westerlo,Pachterserf,8,51.1015770056,4.88377307283
2260,Westerlo,Bergveld,33,51.0847767245,4.87334411174
2260,Westerlo,de Merodedreef,115,51.0912262188,4.91941473805
2260,Westerlo,Prelaat Verbraekenlaan,5,51.1295848841,4.90289801802
2260,Westerlo,Breerijt,29,51.0994198419,4.93327333435
2260,Westerlo,Wibertusstraat,14,51.1018475263,4.89895684241
2260,Westerlo,Ter Voort,87,51.1136995104,4.8634369117
2260,Westerlo,Hoog Heultje,69,51.0659174573,4.83519698337
2260,Westerlo,Bijstraat,72,51.124936476,4.89283955261
2260,Westerlo,Dennenstraat,109,51.1309337897,4.90338761552
2260,Westerlo,Grote Markt,41A,51.0883822178,4.91961514178
2260,Westerlo,Lossing,15,51.0903410335,4.82240790197
2260,Westerlo,Dalialaan,2,51.1365157938,4.91321115299
2260,Westerlo,Guldensporenlaan,13,51.0946383113,4.91960172139
2260,Westerlo,Sint-Niklaasstraat,13,51.0892280632,4.87247044094
2260,Westerlo,Kievitstraat,2,51.1121157083,4.90891862774
2260,Westerlo,Gooreinde,7,51.0878678949,4.87785006646
2260,Westerlo,Gevaertlaan,49,51.0879384659,4.8660070323
2260,Westerlo,Henricusstraat,19,51.1010716192,4.89945029433
2260,Westerlo,Neurusstraat,24,51.1194935396,4.87145713597
2260,Westerlo,Sint-Barbarastraat,3,51.0938084757,4.87507759575
2260,Westerlo,Mostdonk,4,51.1126076521,4.92276384194
2260,Westerlo,Tolhuis,66,51.114855057,4.92913636973
2260,Westerlo,Schoolstraat,16,51.0850499146,4.83795890664
2260,Westerlo,Binnenblok,23,51.1067753583,4.92464296314
2260,Westerlo,Crilsplein,8,51.1267258093,4.90086356148
2260,Westerlo,Emiel Stalmanslaan,18,51.1260792473,4.8650600424
2260,Westerlo,Asterlaan,17,51.1376223382,4.9145891565
2260,Westerlo,Schoolstraat,62,51.0814606674,4.84061718938
2260,Westerlo,Eikelstraat,32,51.0851333629,4.90135305768
2260,Westerlo,Sint-Martinusstraat,46,51.095005132,4.91412154419
2260,Westerlo,Maaldonk,10,51.0689708267,4.83359389215
2260,Westerlo,Tongerlostraat,69,51.1296792088,4.90605509583
2260,Westerlo,Pastorijstraat,6,51.0880877744,4.83569249317
2260,Westerlo,Molenstraat,86,51.0796556187,4.83961972103
2260,Westerlo,Groenstraat,27,51.1081006246,4.8647038131
2260,Westerlo,Schuurveldstraat,31,51.1337390117,4.87058684053
2260,Westerlo,Mechelsestraat,27,51.1387784612,4.89815920254
2260,Westerlo,Vogelzangstraat,9,51.0805811444,4.84728353248
2260,Westerlo,Molenstraat,33,51.0816180881,4.84549701699
2260,Westerlo,Ter Voort,69,51.1125423921,4.86471259779
2260,Westerlo,Bell-Telephonelaan,9,51.131422819,4.94260472995
2260,Westerlo,Elf-Julilaan,39,51.1065306641,4.92141721388
2260,Westerlo,Sint-Martinusstraat,28,51.0934310749,4.91495207435
2260,Westerlo,Vinkenstraat,9,51.0840436074,4.83739134382
2260,Westerlo,Lange Nieuwstraat,8,51.1079981389,4.91573208565
2260,Westerlo,Oude Westmeerbeekseweg,7,51.0930361897,4.82601239931
2260,Westerlo,Kathovestraat,11,51.0904481349,4.8428379284
2260,Westerlo,De Hand,20,51.0993519408,4.85216087434
2260,Westerlo,Achterheide,70,51.0928919439,4.82667602923
2260,Westerlo,Boerenkrijglaan,193,51.0994789769,4.90822764313
2260,Westerlo,Vennenstraat,15,51.1196975007,4.85343812248
2260,Westerlo,Eikelstraat,14,51.0860729176,4.90305547752
2260,Westerlo,Molenwijk,61,51.1072248853,4.92783693106
2260,Westerlo,Zwarte Braak,21,51.1283426854,4.86434771534
2260,Westerlo,Nieuwland,25,51.1352882692,4.90558762987
2260,Westerlo,Pastoor Binckstraat,11,51.0886663802,4.83991554906
2260,Westerlo,Zoerledorp,20,51.0876215764,4.87225243678
2260,Westerlo,Stippelberg,260,51.0726713689,4.84090579357
2260,Westerlo,Prelaat Streyterslaan,17,51.1282168712,4.90066942917
2260,Westerlo,Bijstraat,54,51.1286295731,4.89798962578
2260,Westerlo,Zeptstraat,9,51.0850587516,4.90023955628
2260,Westerlo,Gemeentestraat,9,51.1393902243,4.90833339373
2260,Westerlo,Baksveld,8,51.0916949776,4.91759003771
2260,Westerlo,Renderstraat,35,51.0959904449,4.84775524551
2260,Westerlo,Heldenstraat,20,51.1286059202,4.86337553822
2260,Westerlo,Gooreinde,54,51.0892237889,4.88396983027
2260,Westerlo,Busselen,27,51.1241356151,4.87172783416
2260,Westerlo,Zoerledorp,37,51.0883152781,4.87149102842
2260,Westerlo,De Hand,3,51.1006038731,4.85191100325
2260,Westerlo,Goudvinkstraat,31,51.0875283264,4.82925032318
2260,Westerlo,Biezenstraat,53,51.1008952009,4.88055382481
2260,Westerlo,Kerkstraat,16,51.08716453,4.87243077016
2260,Westerlo,Teunsberg,4,51.1397387291,4.88274795312
2260,Westerlo,Boerenkrijglaan,6,51.0867735827,4.91567062822
2260,Westerlo,Snelwegstraat,7,51.1351139785,4.9375736651
2260,Westerlo,Zoerledorp,3,51.0866684151,4.87184438495
2260,Westerlo,Moleneinde,25,51.1447368081,4.90068090347
2260,Westerlo,Vogelzangstraat,12,51.0806878899,4.84423341552
2260,Westerlo,Salvialaan,22,51.1359051131,4.91341948367
2260,Westerlo,Gooreinde,72,51.0909396753,4.88729429887
2260,Westerlo,Zandstraat,41,51.0890314609,4.88080860829
2260,Westerlo,Loofven,33,51.14028122,4.90805491988
2260,Westerlo,Kwachtstraat,20,51.078797373,4.84346184983
2260,Westerlo,Populierenstraat,6,51.1214211038,4.8666572009
2260,Westerlo,Meulemanslaan,25,51.1036118422,4.91369923023
2260,Westerlo,Vlinderstraat,25,51.0838147992,4.84445977526
2260,Westerlo,Lange Nieuwstraat,64,51.1089846532,4.91859609734
2260,Westerlo,Industrieweg,16,51.0911915916,4.83774927983
2260,Westerlo,Olenseweg,298,51.1255748268,4.86800883364
2260,Westerlo,Jaak Lemmenslaan,55,51.0871180341,4.87984063643
2260,Westerlo,Drie Engelenstraat,36,51.1103687799,4.90852799457
2260,Westerlo,Gildenstraat,11,51.1038296233,4.92356275252
2260,Westerlo,Olenseweg,263,51.1218885948,4.86772500749
2260,Westerlo,Spechtstraat,5,51.0882339956,4.83148857277
2260,Westerlo,Vekestraat,17,51.0890727864,4.86553981558
2260,Westerlo,Langstraat,106,51.1152936111,4.91196276497
2260,Westerlo,Fazantendreef,5,51.1158062717,4.90843792293
2260,Westerlo,Prelaat Stalpaertslaan,17,51.1287440531,4.9026812541
2260,Westerlo,Drie Engelenstraat,18,51.1105661902,4.91130399947
2260,Westerlo,Kapelplein,1,51.1158909892,4.86088919727
2260,Westerlo,Heultjedorp,46,51.0907397349,4.84084784866
2260,Westerlo,Boerenkrijglaan,7A,51.0869992069,4.91485758653
2260,Westerlo,Voorteinde,29,51.1020776529,4.9202722907
2260,Westerlo,Heksenbrug,30,51.0999818608,4.90287471973
2260,Westerlo,Heultjedorp,82,51.0922652556,4.83790266393
2260,Westerlo,Tongerlodorp,2A,51.1064942664,4.91600532136
2260,Westerlo,Gevaertlaan,14,51.0880927901,4.8705239241
2260,Westerlo,Korenhoeve,2,51.1052545047,4.87275774456
2260,Westerlo,Stippelberg,92,51.078572763,4.86186533371
2260,Westerlo,de Merodedreef,161,51.09249254,4.92495485007
2260,Westerlo,Boerenkrijglaan,122,51.0950557739,4.91238399475
2260,Westerlo,Rodekruisstraat,26A,51.0931098887,4.91883527755
2260,Westerlo,Nieuwstraat,68,51.0861497234,4.91254979412
2260,Westerlo,Grote Markt,17,51.0871484849,4.91679885311
2260,Westerlo,Violetstraat,29,51.1361794138,4.9098373298
2260,Westerlo,Gravin de Merodestraat,124,51.0759848324,4.83415598769
2260,Westerlo,Mechelsestraat,106,51.1391570932,4.88397536273
2260,Westerlo,Rodekruisstraat,110,51.0983727786,4.91431763031
2260,Westerlo,Bosbesstraat,6,51.0943559552,4.90381175339
2260,Westerlo,Lindenstraat,17,51.1408969444,4.90314357413
2260,Westerlo,Tongerlostraat,87,51.1285241923,4.90686906074
2260,Westerlo,Lijsterbesstraat,12,51.0943467685,4.9045669336
2260,Westerlo,Hoogton,4,51.121273087,4.84574963269
2260,Westerlo,Kolveniersstraat,8,51.0826097657,4.87300102308
2260,Westerlo,Leyse Hoevestraat,6,51.1151708207,4.90942255293
2260,Westerlo,Henricusstraat,3,51.1010365827,4.90046213158
2260,Westerlo,Zandberg,66,51.0945557114,4.93828915999
2260,Westerlo,Ploegstraat,21,51.0915005025,4.82935815872
2260,Westerlo,Doelstraat,59,51.0857883836,4.90026184627
2260,Westerlo,Uitbreidingsstraat,18,51.1377003411,4.90834628258
2260,Westerlo,Kastanjestraat,16,51.1106133772,4.8611524178
2260,Westerlo,Vismarkt,18,51.0860443777,4.91586646991
2260,Westerlo,Vijfhuizenstraat,44,51.0943995595,4.87875150983
2260,Westerlo,Stippelberg,74,51.0795026958,4.86353264992
2260,Westerlo,Dennenstraat,41,51.1360331182,4.8987488468
2260,Westerlo,Rodekruisstraat,11,51.0925339855,4.91827136491
2260,Westerlo,Heieinde,36,51.1336167523,4.90966345505
2260,Westerlo,Jagersweg,49,51.1017020844,4.8907261312
2260,Westerlo,Boerenkrijglaan,157,51.0965385815,4.91067319802
2260,Westerlo,Kerkhofstraat,66,51.127086875,4.87432792524
2260,Westerlo,Gelendel,79,51.103172315,4.85596399605
2260,Westerlo,Wimpstraat,75,51.1046573945,4.93096250086
2260,Westerlo,Spoorwegstraat,2,51.102262766,4.82602839954
2260,Westerlo,Zandberg,13,51.0939666395,4.93227598051
2260,Westerlo,Stippelberg,21,51.0812665756,4.87156157469
2260,Westerlo,Heidestraat,40,51.1258653905,4.91327944523
2260,Westerlo,Ilsestraat,38,51.1292267645,4.88111502626
2260,Westerlo,Lindenstraat,35,51.1419482062,4.9023474058
2260,Westerlo,Nieuwebaan,42,51.1166584455,4.86618008038
2260,Westerlo,Sint-Michielsstraat,2,51.1390717922,4.90671095716
2260,Westerlo,Leistraat,54,51.1151817601,4.918750074
2260,Westerlo,Doelstraat,77,51.086014473,4.90163085518
2260,Westerlo,De Wijk,8,51.0859405068,4.87021635199
2260,Westerlo,Guldensporenlaan,31,51.0960701901,4.91906072781
2260,Westerlo,Lelielaan,36,51.1355039141,4.91235366742
2260,Westerlo,Duivengracht,30,51.0899221447,4.84418614191
2260,Westerlo,Prior Backxlaan,44,51.1276288191,4.89761286304
2260,Westerlo,Geneinde,133,51.103664776,4.8850903813
2260,Westerlo,Prelaat Stalpaertslaan,1,51.1297193976,4.90173784359
2260,Westerlo,Sint-Niklaasstraat,31,51.0905546574,4.87268215658
2260,Westerlo,Doelstraat,24,51.0854470804,4.90017960783
2260,Westerlo,Overwijs,80,51.0971348331,4.90015745345
2260,Westerlo,Gevaertlaan,180,51.0874872483,4.84071177338
2260,Westerlo,Gevaertlaan,67,51.0879640411,4.86221456486
2260,Westerlo,Hogekant,18,51.1175574203,4.87185531293
2260,Westerlo,Asberg,6,51.0851523682,4.8916182801
2260,Westerlo,August Cannaertsstraat,111,51.0938597862,4.82011218536
2260,Westerlo,Boerenkrijglaan,27,51.0878469418,4.91451395839
2260,Westerlo,Vekestraat,1,51.0885439575,4.86175581879
2260,Westerlo,Olenseweg,41,51.096089452,4.86988424464
2260,Westerlo,Lelielaan,18,51.1370728543,4.91184343638
2260,Westerlo,Brugstraat,21,51.1361792679,4.9174329583
2260,Westerlo,Van Wesemaelstraat,6,51.0841232177,4.91377612443
2260,Westerlo,Zoerleberg,40,51.0836683843,4.87706116622
2260,Westerlo,August Cannaertsstraat,25,51.0929119247,4.83427918631
2260,Westerlo,Trienenkantlaan,25,51.1250252554,4.90487533678
2260,Westerlo,Grote Markt,35,51.0882213336,4.9187647107
2260,Westerlo,Stippelberg,56,51.0800800021,4.86640442539
2260,Westerlo,Franz Scheerlaan,7,51.1267132855,4.90283714876
2260,Westerlo,Lindenstraat,1,51.1401642068,4.90347239849
2260,Westerlo,Jos Geunsplein,4,51.1059265153,4.91658651039
2260,Westerlo,Verlindenstraat,1,51.1052796036,4.91902964104
2260,Westerlo,Guldensporenlaan,84,51.0992345351,4.91859435004
2260,Westerlo,Vinkenstraat,12,51.083647052,4.83749411544
2260,Westerlo,Schietboomstraat,10,51.0888878999,4.87442491222
2260,Westerlo,Lange Nieuwstraat,11,51.1083760667,4.91553203553
2260,Westerlo,Heieinde,18,51.1331917697,4.90720663004
2260,Westerlo,Hoogveld,24,51.1286880543,4.86145031575
2260,Westerlo,Renderstraat,17,51.0956468949,4.84620371467
2260,Westerlo,Meidoornstraat,1,51.1118909961,4.85871198562
2260,Westerlo,Ritseldonk,38,51.0707375223,4.84776395626
2260,Westerlo,Rodekruisstraat,46,51.0945242402,4.91835117189
2260,Westerlo,Begonialaan,10,51.1351648742,4.91441095962
2260,Westerlo,Violetstraat,40,51.1373604383,4.91003934417
2260,Westerlo,Olenseweg,127,51.1061058148,4.86916134047
2260,Westerlo,Grote Markt,1,51.0862058889,4.91650933723
2260,Westerlo,Gevaertlaan,32,51.0882828903,4.86847807497
2260,Westerlo,Gevaertlaan,85,51.0875841467,4.85953083456
2260,Westerlo,Overwijs,62,51.0981934691,4.901828668
2260,Westerlo,Gevaertlaan,162,51.0872835633,4.84281322108
2260,Westerlo,Kwarekkendreef,1,51.0821344556,4.91005824951
2260,Westerlo,Leemstraat,35,51.1176882426,4.87612347035
2260,Westerlo,Uitbreidingsstraat,36,51.137782822,4.9111160022
2260,Westerlo,Oude Zoerlebaan,115,51.09128454,4.86796165157
2260,Westerlo,Kapellegoed,3,51.0888039197,4.87545466903
2260,Westerlo,Pastoor Binckstraat,8,51.0879327292,4.84031164021
2260,Westerlo,Polderstraat,43,51.0846921835,4.9156077215
2260,Westerlo,Stippelberg,142,51.0759349135,4.85632228542
2260,Westerlo,Voorteinde,40,51.1013038218,4.92164531193
2260,Westerlo,Zeptstraat,12,51.0853211662,4.90069211522
2260,Westerlo,Jaak Lemmenslaan,20,51.0877813791,4.87514998122
2260,Westerlo,De Reid,55,51.1279619044,4.87859352214
2260,Westerlo,Goudvinkstraat,13,51.0885567055,4.83029668866
2260,Westerlo,Heultjedorp,64,51.0920658477,4.84004877381
2260,Westerlo,Sint-Martinusstraat,48,51.09508334,4.914353715
2260,Westerlo,Langblok,11,51.1088953272,4.92468134421
2260,Westerlo,Elf-Julilaan,14,51.1055753068,4.91817071356
2260,Westerlo,Heivelden,18,51.0812293757,4.87901598973
2260,Westerlo,Joris van Geelstraat,15,51.1363113162,4.90652996221
2260,Westerlo,Bergveld,5,51.0862513349,4.87301836354
2260,Westerlo,Ter Voort,220,51.1191630094,4.8501741794
2260,Westerlo,Kloosterstraat,101,51.1110109167,4.84888215175
2260,Westerlo,O.-L.-Vrouwstraat,4,51.139368611,4.9147256127
2260,Westerlo,Sint-Niklaasstraat,51,51.0917416126,4.87416091349
2260,Westerlo,Stippelberg,277,51.0721009777,4.84283748514
2260,Westerlo,Baksveld,1A,51.09062196,4.9165267337
2260,Westerlo,Olenseweg,373,51.1311436957,4.8651639199
2260,Westerlo,Oosterwijk,69,51.1201176105,4.85725454332
2260,Westerlo,Baksveld,42A,51.0938637413,4.91655334078
2260,Westerlo,Rodekruisstraat,1,51.0914736299,4.9186384348
2260,Westerlo,Toekomststraat,13,51.1352724322,4.90773813277
2260,Westerlo,Prior Backxlaan,18,51.1247520848,4.90132628933
2260,Westerlo,Nieuwstraat,25,51.0861217208,4.91450264766
2260,Westerlo,Moestoemaat,19A,51.1161352232,4.92356206519
2260,Westerlo,Prelaat Nootslaan,20,51.1281309175,4.90474073968
2260,Westerlo,Stippelberg,259,51.0723020185,4.84556302129
2260,Westerlo,Prelaat Nootslaan,9,51.126963713,4.904857325
2260,Westerlo,Dennenstraat,112,51.1303812861,4.90355585867
2260,Westerlo,Asterlaan,45,51.1361559967,4.916793167
2260,Westerlo,Emiel Stalmanslaan,7,51.1257736046,4.8663861031
2260,Westerlo,Kastanjestraat,24,51.110274914,4.86014769622
2260,Westerlo,Nijverheidsstraat,6,51.135085538,4.93449924061
2260,Westerlo,Ter Voort,202,51.1187624078,4.85222898256
2260,Westerlo,Wimpstraat,42,51.1089921508,4.92606760023
2260,Westerlo,Doelstraat,16,51.0853627249,4.8996101878
2260,Westerlo,Heieinde,97,51.1346377425,4.92113122732
2260,Westerlo,Toekomststraat,31,51.136368032,4.90757405068
2260,Westerlo,Prelaat Mudsaertslaan,5,51.1291938666,4.90095070657
2260,Westerlo,Olenseweg,391,51.1332048861,4.86425778666
2260,Westerlo,Stijn Streuvelsstraat,15,51.1169617772,4.86264429235
2260,Westerlo,Geelse straat,88,51.1088628365,4.92098231511
2260,Westerlo,Oosterwijk,87,51.1188275367,4.85659976214
2260,Westerlo,Beeltjensdreef,19,51.0885184826,4.90886764386
2260,Westerlo,Abdijstraat,10,51.1059573753,4.91468312394
2260,Westerlo,Gooreinde,26,51.0882725442,4.88005751866
2260,Westerlo,Stippelberg,295,51.0723482233,4.8404098492
2260,Westerlo,Gevaertlaan,154,51.0872230967,4.84436590034
2260,Westerlo,Kathovestraat,46,51.0889571266,4.85144351099
2260,Westerlo,Prelaat Tsgrootenlaan,12,51.1279700829,4.89874354549
2260,Westerlo,Prior Backxlaan,36,51.1265149854,4.89911627741
2260,Westerlo,Zandberg,23,51.0942338307,4.93371312009
2260,Westerlo,Wolfstraat,15,51.0869386628,4.91245935692
2260,Westerlo,Hoogveld,16,51.1281242606,4.86119465718
2260,Westerlo,Eikelstraat,39,51.0847174956,4.90207518664
2260,Westerlo,Molenstraat,71,51.0802635982,4.84104291435
2260,Westerlo,Duivengracht,37,51.0914698103,4.84382278484
2260,Westerlo,Gevaertlaan,50,51.088419032,4.86500275961
2260,Westerlo,Prelaat Streyterslaan,8,51.1283529668,4.89991143154
2260,Westerlo,Prelaat Van der Achterlaan,4,51.1297663491,4.90337852448
2260,Westerlo,Elf-Julilaan,32,51.1060602639,4.92130327138
2260,Westerlo,Olenseweg,94,51.1024137606,4.87011460986
2260,Westerlo,Olenseweg,112,51.1044107057,4.87010478848
2260,Westerlo,Langstraat,53,51.1105781678,4.91350024117
2260,Westerlo,Oude Zoerlebaan,133,51.0910058343,4.86939090928
2260,Westerlo,Zwarte Braak,63,51.1304996202,4.86189345263
2260,Westerlo,De Wijk,46,51.0818312714,4.86343487346
2260,Westerlo,Koning Leopoldlaan,21,51.0852411798,4.90901942091
2260,Westerlo,Ernest Claesstraat,19,51.1106411182,4.86461057153
2260,Westerlo,Baksveld,38,51.093576339,4.91667401641
2260,Westerlo,Verlorenkost,28,51.0906891492,4.92303010094
2260,Westerlo,Renderstraat,160,51.0928909069,4.86361071237
2260,Westerlo,Hubertusstraat,12,51.1017713379,4.89952706398
2260,Westerlo,Violetstraat,9,51.1347777153,4.91053457996
2260,Westerlo,Meuleveld,5,51.1072656383,4.91968332047
2260,Westerlo,Prelaat Streyterslaan,10,51.1282604377,4.89999851833
2260,Westerlo,Polderstraat,6,51.0860938224,4.91640683155
2260,Westerlo,Moleneinde,33,49.2933351651,2.30668956214
2260,Westerlo,Hoog Heultje,52,51.0677676913,4.83471726463
2260,Westerlo,Tongerlostraat,119,51.1253998974,4.90791321895
2260,Westerlo,Groenstraat,53,51.1068268088,4.86260473692
2260,Westerlo,Oude Zoerlebaan,7,51.091898916,4.8416195214
2260,Westerlo,Kloosterstraat,65,51.114126739,4.85366931239
2260,Westerlo,Binnenweg,10,51.0981375189,4.89910958151
2260,Westerlo,Tongerlostraat,70,51.1299649444,4.9051720955
2260,Westerlo,Zoerleberg,73,51.0822675743,4.8750692188
2260,Westerlo,Aspergevelden,27,51.0852777769,4.87616683832
2260,Westerlo,Industrieweg,95,51.0893222476,4.82821864449
2260,Westerlo,Gravin de Merodestraat,11,51.086542142,4.8366362878
2260,Westerlo,Zwarte Heide,11,51.1063004488,4.87675731396
2260,Westerlo,Crilsplein,1,51.1253964333,4.90205700487
2260,Westerlo,Renderstraat,142,51.0942524955,4.86369080747
2260,Westerlo,Ter Voort,119,51.1153793048,4.86182165289
2260,Westerlo,Boogstraat,10,51.1343442146,4.90504328562
2260,Westerlo,Zoerleberg,9,51.0851229125,4.88215499668
2260,Westerlo,August Cannaertsstraat,33,51.0932498073,4.83312175435
2260,Westerlo,Geneinde,115,51.1031538266,4.88779318606
2260,Westerlo,Trienenkantlaan,33,51.1247568305,4.90582615188
2260,Westerlo,Kerkplein,4,51.1058747418,4.91536680908
2260,Westerlo,Bisschop Vanuytvenlaan,27,51.1277829205,4.9030858105
2260,Westerlo,Hoog Heultje,70,51.0657504679,4.83453194263
2260,Westerlo,Sint-Annekestraat,25,51.071723533,4.84057689671
2260,Westerlo,Rodekruisstraat,48,51.094793529,4.91851022501
2260,Westerlo,Heultjedorp,1,51.0882187215,4.8368751748
2260,Westerlo,Industrieweg,24,51.0915021846,4.83620653048
2260,Westerlo,Brandstee,16,51.1171798285,4.94255716019
2260,Westerlo,Vlinderstraat,33,51.0835348384,4.84411426395
2260,Westerlo,Oude Zoerlebaan,97,51.0912992729,4.86481612067
2260,Westerlo,Goorken,36,51.0990170772,4.9144029646
2260,Westerlo,Loofven,25,51.1402738658,4.90726479881
2260,Westerlo,Geneinde,161,51.1042063868,4.88113297175
2260,Westerlo,Arthur Sterckxstraat,3,51.0960984895,4.91238699798
2260,Westerlo,Asterlaan,10,51.1372794906,4.91437782571
2260,Westerlo,Violetstraat,20,51.1357490659,4.91074788618
2260,Westerlo,Oude Zoerlebaan,79,51.0923475031,4.8541351376
2260,Westerlo,Zwarte Braak,28,51.1290613524,4.86417563818
2260,Westerlo,Goorken,18,51.0974627741,4.91310325616
2260,Westerlo,Baksveld,46,51.0941325925,4.91649782497
2260,Westerlo,Salvialaan,3,51.1373096247,4.91355704379
2260,Westerlo,Sint-Michielsstraat,13,51.1397485591,4.90594388059
2260,Westerlo,Ketelstraat,2,51.1201256628,4.85593947464
2260,Westerlo,Kloosterstraat,39,51.1146766377,4.85716131717
2260,Westerlo,Stippelberg,99,51.078936641,4.86355733432
2260,Westerlo,Monnikendijk,4,51.1169069246,4.90882097709
2260,Westerlo,Sint-Martinusstraat,21,51.0921754753,4.91503131331
2260,Westerlo,Fazantendreef,14,51.115986779,4.90694259229
2260,Westerlo,Jagersweg,57,51.1024581787,4.89065877191
2260,Westerlo,Henricusstraat,12,51.1013439841,4.90006887347
2260,Westerlo,Schoolstraat,59,51.0825500656,4.84045580048
2260,Westerlo,Lange Nieuwstraat,1,51.1082119033,4.91503348357
2260,Westerlo,Van Hemelstraat,6,51.0876633468,4.86290304793
2260,Westerlo,Koning Leopoldlaan,107,51.0838203823,4.89980901642
2260,Westerlo,Ansfriedstraat,9,51.0842861329,4.91312779992
2260,Westerlo,Gelendel,18,51.1079247825,4.85821870791
2260,Westerlo,Oirschotstraat,15,51.0935516731,4.90815359971
2260,Westerlo,Zoerledorp,30,51.0883672203,4.87195731694
2260,Westerlo,Zwarte Braak,45,51.1294914608,4.86291507329
2260,Westerlo,Ter Voort,165,51.1179809716,4.85735600241
2260,Westerlo,Lelielaan,7,51.1376716147,4.91244593718
2260,Westerlo,Olenseweg,355,51.1298695848,4.86587350601
2260,Westerlo,Heidestraat,20,51.1266819457,4.91039287354
2260,Westerlo,De Busserstraat,2,51.0853040063,4.91391578382
