PKANCODE,COMMUNE_NL,STREET_NL,HUISNR,LAT,LON
2360,Oud-Turnhout,Steenweg op Mol,56,51.3166680051,4.98552174454
2360,Oud-Turnhout,Staatsbaan,48,51.3119989945,5.01757944561
2360,Oud-Turnhout,Burg. Van Loonstraat,6,51.3408937966,4.97492424096
2360,Oud-Turnhout,Draaiboom,66,51.323088183,4.99328896291
2360,Oud-Turnhout,Sint-Antoniusstraat,34,51.3401888926,4.97393160472
2360,Oud-Turnhout,Heieinde,49,51.3389092936,4.98004457087
2360,Oud-Turnhout,Hoge Darisdonk,11,51.2949472483,4.99158702133
2360,Oud-Turnhout,Schuurhoven,157,51.3312324867,4.99013030833
2360,Oud-Turnhout,Hoge Beemdstraat,4,51.3312199601,4.98575422831
2360,Oud-Turnhout,Van der Bekenlaan,56,51.3211533737,4.98403492338
2360,Oud-Turnhout,Brooseinde,79,51.3201781738,4.996320548
2360,Oud-Turnhout,Steenweg op Oosthoven,59,51.3218508816,4.97676157854
2360,Oud-Turnhout,Molenbergen,2,51.3150422063,4.98727580077
2360,Oud-Turnhout,Wezelakkers,130,51.3337110048,4.9769759072
2360,Oud-Turnhout,Hendrickxstraat,16,51.3197384058,4.97004855805
2360,Oud-Turnhout,Wezelakkers,6,51.335324487,4.97478528055
2360,Oud-Turnhout,Rabauwakkers,25,51.339177906,4.97299657983
2360,Oud-Turnhout,Rode Kruisstraat,22,51.3222070651,4.98048186253
2360,Oud-Turnhout,Schuurhovenberg,58,51.3245040382,4.99727715012
2360,Oud-Turnhout,Nadorst,34,51.3211072975,4.97421529679
2360,Oud-Turnhout,Eendendreef,6,51.3122820302,5.0304063861
2360,Oud-Turnhout,Augustijnenstraat,27,51.3104617893,4.99359616998
2360,Oud-Turnhout,Fazantendreef,10,51.3169833551,5.02139953342
2360,Oud-Turnhout,Lijnwaadstraat,3,51.3085096052,5.00287205043
2360,Oud-Turnhout,Steenweg op Mol,74,51.3160223425,4.98652694221
2360,Oud-Turnhout,Onze Lieve Vrouwstraat,46,51.3182829458,4.99082769524
2360,Oud-Turnhout,Kerkstraat,23,51.3200854884,4.98106758437
2360,Oud-Turnhout,Rist,39,51.3406206734,4.96717867281
2360,Oud-Turnhout,Winterdreef,13,51.3008365809,5.00491084647
2360,Oud-Turnhout,Paradijs,9,51.3164020776,5.0091570518
2360,Oud-Turnhout,Meibloemstraat,23,51.3158069412,4.98912933654
2360,Oud-Turnhout,Zweepstraat,9,51.3141336354,4.99245324214
2360,Oud-Turnhout,Van der Bekenlaan,74,51.3219521622,4.98450238311
2360,Oud-Turnhout,Brouwerstraat,3,51.3201917895,4.97959496351
2360,Oud-Turnhout,Steenweg op Turnhout,97,51.3201833347,4.97322340003
2360,Oud-Turnhout,Steenweg op Oosthoven,95,51.3248461412,4.97614990358
2360,Oud-Turnhout,Polderstraat,56,51.3361870667,4.96912672131
2360,Oud-Turnhout,Nieuwe Staatsbaan,63,51.3127757661,5.03594559719
2360,Oud-Turnhout,Leeuwerkstraat,14,51.3488979586,4.98692935215
2360,Oud-Turnhout,Heieinde,85,51.3411824689,4.98497786296
2360,Oud-Turnhout,Steenweg op Oosthoven,141,51.3283133438,4.97524489524
2360,Oud-Turnhout,Koekoekdreef,5,51.3192552886,5.02772089221
2360,Oud-Turnhout,Neerstraat,123,51.3117080628,4.98813524897
2360,Oud-Turnhout,Heieinde,32,51.3386040182,4.97832515614
2360,Oud-Turnhout,Steenweg op Mol,92,51.3157370984,4.98706890001
2360,Oud-Turnhout,Sportveldstraat,7,51.3204474659,4.98886781663
2360,Oud-Turnhout,Steenweg op Oosthoven,77,51.323572697,4.9764788379
2360,Oud-Turnhout,Hendrik van Zellestraat,22,51.3095761327,4.99141948228
2360,Oud-Turnhout,Kruispad,31,51.3206531302,4.99528325738
2360,Oud-Turnhout,Staatsbaan,36,51.3118055626,5.01700565575
2360,Oud-Turnhout,Lage Darisdonk,50,51.3018983263,4.98742929299
2360,Oud-Turnhout,Polderstraat,28,51.336414599,4.97111861813
2360,Oud-Turnhout,Winterdreef,31,51.2979669127,5.00231864975
2360,Oud-Turnhout,Heieinde,14,51.3377952077,4.97630572357
2360,Oud-Turnhout,Rabauwakkers,1,51.3392030752,4.97123226779
2360,Oud-Turnhout,Driedostraat,30,51.3117851561,4.99183873872
2360,Oud-Turnhout,Polderstraat,74,51.3358825307,4.96895217447
2360,Oud-Turnhout,Blijkerstraat,18,51.2994873265,5.00959122717
2360,Oud-Turnhout,Oude Retiese Baan,18,51.3063011051,5.01593040169
2360,Oud-Turnhout,Albert Sohiestraat,23,51.3227700843,4.98024009951
2360,Oud-Turnhout,Steenweg op Ravels,99,51.3398083829,4.9708004239
2360,Oud-Turnhout,Sint-Annaplein,9,51.319439762,4.98660320901
2360,Oud-Turnhout,Neerstraat,176,51.3077830023,4.98944214422
2360,Oud-Turnhout,Petrus Dielsstraat,23,51.3181218133,4.987237752
2360,Oud-Turnhout,Onze Lieve Vrouwstraat,18,51.3194144446,4.9908018165
2360,Oud-Turnhout,Steenweg op Ravels,288,51.3477156485,4.97888680904
2360,Oud-Turnhout,Heieinde,67,51.3399288629,4.98255782755
2360,Oud-Turnhout,Draaiboom,102,51.3217463077,4.99863359568
2360,Oud-Turnhout,Grote Vondelweg,19,51.32149772,4.97873767551
2360,Oud-Turnhout,Steenweg op Turnhout,143,51.3206170246,4.97040017625
2360,Oud-Turnhout,Goordijk,7,51.3120512005,5.02757201291
2360,Oud-Turnhout,Eug. Surinxstraat,23,51.3191059112,4.98820701863
2360,Oud-Turnhout,Dennenlaan,2,51.3120392556,5.02331001266
2360,Oud-Turnhout,Heerestraat,95,51.3354506649,4.97301252832
2360,Oud-Turnhout,Neringstraat,5,51.3247498822,4.9691367518
2360,Oud-Turnhout,Steenweg op Mol,4,51.3179172814,4.98253319234
2360,Oud-Turnhout,Slootstraat,19,51.2854581283,4.98200850022
2360,Oud-Turnhout,Dode Dreef,72,51.3468540487,4.97594656953
2360,Oud-Turnhout,Pastoor Geptsstraat,7,51.3138186283,4.99600104639
2360,Oud-Turnhout,Primus J. Boschlaan,4,51.3156979685,4.97001406988
2360,Oud-Turnhout,Steenweg op Oosthoven,131,51.327784026,4.97534960312
2360,Oud-Turnhout,Eigen,43,51.3178329673,4.97297896755
2360,Oud-Turnhout,Draaiboom,38,51.3223184886,4.98999691671
2360,Oud-Turnhout,Brooseinde,26,51.3173538366,4.99319713365
2360,Oud-Turnhout,Bosrand,25,51.3134347702,5.00588829811
2360,Oud-Turnhout,Kerkstraat,76,51.3226295855,4.98431741377
2360,Oud-Turnhout,Jef Claesenstraat,70,51.3164064954,4.98807651934
2360,Oud-Turnhout,Jan Roesstraat,3,51.3177312604,4.98959149754
2360,Oud-Turnhout,Steenweg op Mol,28,51.3175793569,4.98366889522
2360,Oud-Turnhout,Ganzendreef,18,51.3151316251,5.02836107074
2360,Oud-Turnhout,Kerkedries,7,51.3229831661,4.98859280152
2360,Oud-Turnhout,Dode Dreef,54,51.3456566473,4.9750499805
2360,Oud-Turnhout,Korenbloemstraat,2,51.3156030052,4.9909424272
2360,Oud-Turnhout,Steenweg op Sevendonk,49,51.3148623851,4.97998560834
2360,Oud-Turnhout,Oude Arendonkse Baan,28,51.3145028401,4.99477552691
2360,Oud-Turnhout,Lijsterdreef,8,51.3181240545,5.02956710335
2360,Oud-Turnhout,Zwanendreef,8,51.30793397,5.01391676948
2360,Oud-Turnhout,Steenweg op Ravels,11,51.3369651278,4.96911927044
2360,Oud-Turnhout,Kleiputstraat,35,51.3490505605,4.96639251612
2360,Oud-Turnhout,Van der Bekenlaan,28,51.3193480637,4.98285876446
2360,Oud-Turnhout,Driedostraat,12,51.3108612736,4.99022584848
2360,Oud-Turnhout,Neerstraat,105,51.3126168463,4.98719576792
2360,Oud-Turnhout,Nadorst,44,51.3212459381,4.97476937125
2360,Oud-Turnhout,Nieuwstraat,11,51.3375633159,4.97416387384
2360,Oud-Turnhout,Jozef Van Miertstraat,10,51.3177249755,4.99030945252
2360,Oud-Turnhout,Sint-Bavostraat,24,51.3198948438,4.98763501507
2360,Oud-Turnhout,Heerestraat,59,51.3335546748,4.97326005796
2360,Oud-Turnhout,Vlinderweg,9,51.3170422981,5.0173645573
2360,Oud-Turnhout,Kleine Vondelweg,10,51.3218755188,4.97772142627
2360,Oud-Turnhout,Bosdreef,35,51.3028434473,5.00779248573
2360,Oud-Turnhout,Kuiltjesstraat,42,51.3452121003,4.9716324158
2360,Oud-Turnhout,Kleiputstraat,17,51.349037482,4.96846408724
2360,Oud-Turnhout,Kerkstraat,58,51.3220741846,4.98281431448
2360,Oud-Turnhout,Leemstraat,7,51.3497588321,4.96724661591
2360,Oud-Turnhout,Steenweg op Ravels,110,51.3390035021,4.96968245184
2360,Oud-Turnhout,Domin Bauwensstraat,3,51.3201221588,4.98518918333
2360,Oud-Turnhout,Steenweg op Mol,127,51.3122575741,4.99509293512
2360,Oud-Turnhout,Schuurhoven,51,51.3348763306,4.98206433905
2360,Oud-Turnhout,Donk,20,51.3006710562,5.02337494406
2360,Oud-Turnhout,Lage Mierdse Weg,29,51.3483837332,5.01786049478
2360,Oud-Turnhout,Vinkendreef,2,51.3125505421,5.0263211503
2360,Oud-Turnhout,Groendreef,5,51.308286351,5.01821540899
2360,Oud-Turnhout,Veldbloemstraat,4,51.3149853394,4.98963901104
2360,Oud-Turnhout,Werkendam,9,51.3479213378,4.97721955563
2360,Oud-Turnhout,Steenweg op Sevendonk,67,51.3138772401,4.98021604303
2360,Oud-Turnhout,Steenweg op Ravels,163,51.342648713,4.97357803548
2360,Oud-Turnhout,Weilandstraat,2,51.3508233833,4.96799539015
2360,Oud-Turnhout,Horzelweg,16,51.3194500675,5.01981055761
2360,Oud-Turnhout,Steenweg op Ravels,181,51.3438562753,4.97509091875
2360,Oud-Turnhout,Steenweg op Turnhout,26,51.3190134003,4.97982504352
2360,Oud-Turnhout,Jozef Embrechtsstraat,4,51.3180667363,4.98845364901
2360,Oud-Turnhout,Alois Peetersstraat,22,51.3190758745,4.99059259624
2360,Oud-Turnhout,Arselt,3,51.3031179943,5.02583715321
2360,Oud-Turnhout,Het Bergske,21,51.3146210497,4.97805048743
2360,Oud-Turnhout,Steenweg op Turnhout,79,51.3199388754,4.97446716368
2360,Oud-Turnhout,Kuiltjesstraat,60,51.3467506336,4.97169917573
2360,Oud-Turnhout,Werkendam,62,51.3494345335,4.97403887607
2360,Oud-Turnhout,Donk,65,51.297280356,5.02853424014
2360,Oud-Turnhout,Jozef Embrechtsstraat,28,51.3170945119,4.98646775556
2360,Oud-Turnhout,Steenweg op Turnhout,2,51.3186048529,4.98080451857
2360,Oud-Turnhout,Buizerdweg,10,51.3221016284,5.02373848916
2360,Oud-Turnhout,Zandstraat,42,51.3092013353,4.98362934168
2360,Oud-Turnhout,Jef Claesenstraat,16,51.3184120935,4.98571328601
2360,Oud-Turnhout,Dijkzijde,2,51.3194315427,4.97542103015
2360,Oud-Turnhout,Korenbloemstraat,44,51.3178563974,4.99228933724
2360,Oud-Turnhout,Neerstraat,34,51.3158014864,4.9825214589
2360,Oud-Turnhout,Brooseinde,44,51.3185845777,4.99436088991
2360,Oud-Turnhout,De Blokken,13,51.3233171534,4.98682590033
2360,Oud-Turnhout,Arselt,37,51.2996786499,5.03343346612
2360,Oud-Turnhout,Pausenstraat,45,51.3202665891,4.98645010211
2360,Oud-Turnhout,Steenweg op Sevendonk,121,51.3107636814,4.97929179815
2360,Oud-Turnhout,Hoge Darisdonk,18,51.2930129605,4.99435891933
2360,Oud-Turnhout,Steenweg op Oosthoven,42,51.3232944523,4.97591186061
2360,Oud-Turnhout,Steenweg op Sevendonk,7,51.3168148937,4.98108674507
2360,Oud-Turnhout,Korenbloemstraat,62,51.3188096311,4.99279727786
2360,Oud-Turnhout,Polderstraat,109,51.3365977347,4.96939361736
2360,Oud-Turnhout,Wezelakkers,129,51.3344551849,4.97724780071
2360,Oud-Turnhout,Winterdreef,6,51.3016529441,5.00640721271
2360,Oud-Turnhout,Hendrik van Zellestraat,29,51.3085888592,4.99133211629
2360,Oud-Turnhout,Steenweg op Oosthoven,60,51.32471984,4.97555706635
2360,Oud-Turnhout,Jef Claesenstraat,34,51.3178402382,4.98650922296
2360,Oud-Turnhout,De Laks,21,51.351543433,4.99255774478
2360,Oud-Turnhout,Driedostraat,5,51.3108506171,4.98949902486
2360,Oud-Turnhout,Rist,32,51.3410368363,4.96755055165
2360,Oud-Turnhout,Petrus Dielsstraat,41,51.317468094,4.98563549183
2360,Oud-Turnhout,Dijkzijde,36,51.3187358358,4.97342073476
2360,Oud-Turnhout,Neerstraat,151,51.3094178185,4.98954313547
2360,Oud-Turnhout,Paradijs,26,51.3143660666,5.01180274122
2360,Oud-Turnhout,Kleiputstraat,1,51.3492340525,4.97013059823
2360,Oud-Turnhout,Herfstdreef,10,51.2994879696,5.00562692913
2360,Oud-Turnhout,Heieinde,39,51.338759951,4.97946157265
2360,Oud-Turnhout,Steenweg op Ravels,82,51.3383874859,4.96924972576
2360,Oud-Turnhout,Wezelakkers,140,51.3342805608,4.97743663759
2360,Oud-Turnhout,Hendrik van Zellestraat,40,51.3080643087,4.99247348574
2360,Oud-Turnhout,Pausenstraat,81,51.3212866556,4.98783013281
2360,Oud-Turnhout,Tijkstraat,10,51.3075135247,5.00248360424
2360,Oud-Turnhout,Dijkzijde,90,51.3186449244,4.96892548964
2360,Oud-Turnhout,Sint-Antoniusstraat,9,51.3384339428,4.97545853442
2360,Oud-Turnhout,Lage Darisdonk,32,51.3031966161,4.98773765334
2360,Oud-Turnhout,Guldenweg,6,51.3144707022,5.01019408877
2360,Oud-Turnhout,Steenweg op Mol,109,51.3124050046,4.99277497063
2360,Oud-Turnhout,Lentedreef,32,51.3005070544,5.00997463632
2360,Oud-Turnhout,Schuurhoven,86,51.3343385088,4.98486183201
2360,Oud-Turnhout,Polderstraat,21,51.3367317147,4.97365539913
2360,Oud-Turnhout,Driedostraat,19,51.3115948211,4.99068655835
2360,Oud-Turnhout,De Hoogt,33,51.3250475474,4.97697684606
2360,Oud-Turnhout,Hendrickxstraat,9,51.3200002255,4.96994436391
2360,Oud-Turnhout,Begijnenhoefstraat,19,51.3172853363,5.00589805241
2360,Oud-Turnhout,Sportveldstraat,24,51.3201387881,4.98947146624
2360,Oud-Turnhout,Heieinde,50,51.3391046934,4.97947069689
2360,Oud-Turnhout,Steenweg op Ravels,300,51.3482748884,4.97981217188
2360,Oud-Turnhout,Begijnenhoefstraat,5,51.3150176945,5.00734269444
2360,Oud-Turnhout,Onze Lieve Vrouwstraat,11,51.3207129235,4.98985596432
2360,Oud-Turnhout,Leeuwerkstraat,39,51.343303258,4.98644200426
2360,Oud-Turnhout,Lage Darisdonk,14,51.304542141,4.98952922124
2360,Oud-Turnhout,Veestraat,13,51.350220729,4.9681366039
2360,Oud-Turnhout,Draaiboom,119,51.3220283728,4.99787097037
2360,Oud-Turnhout,Pausenstraat,10,51.3185302688,4.98426727782
2360,Oud-Turnhout,Blijkerstraat,11,51.303829829,5.00601061845
2360,Oud-Turnhout,Corsendonk,9,51.2901411966,5.01252599502
2360,Oud-Turnhout,Lintbekelaan,15,51.3178313443,5.01995885931
2360,Oud-Turnhout,Oude Retiese Baan,11,51.3073203699,5.01417340803
2360,Oud-Turnhout,Lentedreef,14,51.3030336115,5.01220981298
2360,Oud-Turnhout,Sint-Annaplein,26,51.3188455521,4.9869113057
2360,Oud-Turnhout,Jef Claesenstraat,52,51.3171154168,4.98731830859
2360,Oud-Turnhout,Pausenstraat,63,51.3208406844,4.98760099115
2360,Oud-Turnhout,Kuiltjesstraat,141,51.3510265044,4.97003725638
2360,Oud-Turnhout,Koningin Fabiolalaan,2,51.3175625408,4.97835368806
2360,Oud-Turnhout,Dijkzijde,54,51.3185495777,4.97168041744
2360,Oud-Turnhout,Gorzendreef,14,51.3178735933,5.0277856437
2360,Oud-Turnhout,Ambachtstraat,7,51.3254501003,4.96893591838
2360,Oud-Turnhout,Van der Bekenlaan,21,51.3192609274,4.98335119109
2360,Oud-Turnhout,Kuiltjesstraat,95,51.3486903065,4.97183717265
2360,Oud-Turnhout,Bosduivenlaan,1,51.3143113571,5.0290840577
2360,Oud-Turnhout,Dode Dreef,89,51.3484989899,4.97655841544
2360,Oud-Turnhout,Gaaienlaan,4,51.3151272415,5.03555967785
2360,Oud-Turnhout,Herfstdreef,3,51.3006174211,5.00738421932
2360,Oud-Turnhout,Horzelweg,9,51.3188883177,5.01821925741
2360,Oud-Turnhout,Rist,67,51.3420539166,4.96511609451
2360,Oud-Turnhout,Tijkstraat,3,51.3079791946,5.00213459277
2360,Oud-Turnhout,Oude Arendonkse Baan,21,51.3148757567,4.99089124161
2360,Oud-Turnhout,Dijkzijde,48,51.3185938287,4.97230968053
2360,Oud-Turnhout,Steenweg op Ravels,135,51.3412970566,4.97209909303
2360,Oud-Turnhout,Corn. Mertenslaan,23,51.3162504632,4.9695220783
2360,Oud-Turnhout,Oude Heerestraat,18,51.3245191811,4.97414297882
2360,Oud-Turnhout,Sint-Ritaplein,17,51.3169023125,4.98867364036
2360,Oud-Turnhout,Nieuwstraat,4,51.338660791,4.9745135362
2360,Oud-Turnhout,Nieuwstraat,18,51.3387259724,4.97285652866
2360,Oud-Turnhout,Kuiltjesstraat,77,51.347202221,4.97238348708
2360,Oud-Turnhout,Verbindingsweg,11,51.3479057814,4.97455589275
2360,Oud-Turnhout,Dijkzijde,72,51.31855458,4.97020264146
2360,Oud-Turnhout,Oude Heerestraat,4,51.3253419221,4.97508316798
2360,Oud-Turnhout,Gemeentestraat,2,51.3202017264,4.98537499361
2360,Oud-Turnhout,Kwarteldreef,7,51.3174048348,5.02326881859
2360,Oud-Turnhout,Neerstraat,69,51.3143529352,4.98454370085
2360,Oud-Turnhout,Het Bergske,28,51.3147754587,4.97614666205
2360,Oud-Turnhout,Blekerijstraat,4,51.3197736396,4.96887982101
2360,Oud-Turnhout,De Hoogt,15,51.3237834294,4.97760670466
2360,Oud-Turnhout,Jan Roesstraat,20,51.3172526284,4.98921490029
2360,Oud-Turnhout,Waterstraat,2,51.3117833932,5.03315879541
2360,Oud-Turnhout,Kuiltjesstraat,103,51.3490283233,4.97126025762
2360,Oud-Turnhout,Steenweg op Ravels,4,51.3360965143,4.96735959532
2360,Oud-Turnhout,Zwanevenstraat,36,51.305839897,5.0044752626
2360,Oud-Turnhout,Torteldreef,8,51.3139982463,5.03417936792
2360,Oud-Turnhout,Steenweg op Sevendonk,50,51.3159068745,4.97995975795
2360,Oud-Turnhout,De Lint,11,51.3156097453,5.0143368487
2360,Oud-Turnhout,Steenweg op Mol,173,51.3084715098,5.0059980985
2360,Oud-Turnhout,Jozef Embrechtsstraat,21,51.3167175851,4.98656257495
2360,Oud-Turnhout,Gaaienlaan,18,51.3171654648,5.0342796463
2360,Oud-Turnhout,Kuiltjesstraat,24,51.343827733,4.97152661555
2360,Oud-Turnhout,Steenweg op Turnhout,44,51.3194663927,4.97853917142
2360,Oud-Turnhout,Wezelakkers,76,51.3334039546,4.97762502575
2360,Oud-Turnhout,Schuurhoven,15,51.336413621,4.97718118667
2360,Oud-Turnhout,Kerkstraat,41,51.3213173702,4.98276185408
2360,Oud-Turnhout,Werkendam,79,51.3519977333,4.97094653263
2360,Oud-Turnhout,Veldstraat,18,51.3428752339,4.97071704055
2360,Oud-Turnhout,Schoutenhoefstraat,8,51.3057318449,5.0035398278
2360,Oud-Turnhout,Sint-Ritaplein,1,51.3163945144,4.98928276239
2360,Oud-Turnhout,Veldstraat,4,51.343038175,4.97153287342
2360,Oud-Turnhout,Steenweg op Ravels,117,51.3406326575,4.97162033758
2360,Oud-Turnhout,Jan de Beerstraat,8,51.3099543797,4.99250874177
2360,Oud-Turnhout,Berkendreef,1,51.3161749211,5.02478463832
2360,Oud-Turnhout,Spechtendreef,9,51.3168700129,5.0314608155
2360,Oud-Turnhout,Zwanevenstraat,2,51.3079854305,5.00631266464
2360,Oud-Turnhout,Oude Arendonkse Baan,56,51.3136255843,5.00878849483
2360,Oud-Turnhout,Sint-Bavostraat,42,51.3191440726,4.98847203066
2360,Oud-Turnhout,Steenweg op Turnhout,62,51.3201412859,4.97604709974
2360,Oud-Turnhout,Kruispad,23,51.3202481064,4.99375485734
2360,Oud-Turnhout,Schuurhoven,43,51.3352470693,4.9808886012
2360,Oud-Turnhout,Polderstraat,82,51.3360913049,4.96886805914
2360,Oud-Turnhout,Winterdreef,23,51.2993597435,5.0033782756
2360,Oud-Turnhout,Augustijnenstraat,17,51.310918564,4.99237209846
2360,Oud-Turnhout,Draaiboom,94,51.3227954478,4.99832548036
2360,Oud-Turnhout,Kerkstraat,13,51.3195935429,4.98027059788
2360,Oud-Turnhout,Engelstraat,12,51.3101192563,5.02234792679
2360,Oud-Turnhout,Veldbloemstraat,11,51.3153330719,4.99099618506
2360,Oud-Turnhout,Jozef Van Miertstraat,3,51.3182686898,4.98984538891
2360,Oud-Turnhout,Steenweg op Ravels,171,51.3431729883,4.97421287902
2360,Oud-Turnhout,Rode Kruisstraat,32,51.3222592625,4.97925060549
2360,Oud-Turnhout,Van der Bekenlaan,46,51.3207507695,4.98379606477
2360,Oud-Turnhout,Sint-Antoniusstraat,24,51.3399749833,4.97514171408
2360,Oud-Turnhout,Steenweg op Oosthoven,69,51.3224760699,4.97664667817
2360,Oud-Turnhout,Van der Bekenlaan,64,51.32135734,4.98416916454
2360,Oud-Turnhout,Rode Kruisstraat,14,51.3215592165,4.98051091779
2360,Oud-Turnhout,Werkendam,90,51.3508557685,4.97165601553
2360,Oud-Turnhout,Steenweg op Oosthoven,87,51.3242708291,4.97626675963
2360,Oud-Turnhout,Kleine Vondelweg,3,51.3220508172,4.97722696023
2360,Oud-Turnhout,Polderstraat,46,51.3363416552,4.96973095823
2360,Oud-Turnhout,Veestraat,4,51.3494800392,4.96873462092
2360,Oud-Turnhout,Pausenstraat,35,51.3199757331,4.98586299888
2360,Oud-Turnhout,Begijnenhoefstraat,20,51.3175276978,5.00660908472
2360,Oud-Turnhout,Steenweg op Mol,64,51.3163535851,4.98602316768
2360,Oud-Turnhout,Lentedreef,29,51.30048485,5.01168115992
2360,Oud-Turnhout,Meibloemstraat,13,51.3153643256,4.98904913281
2360,Oud-Turnhout,Landbouwstraat,16,51.3516305953,4.9674124121
2360,Oud-Turnhout,Onze Lieve Vrouwstraat,56,51.3179698577,4.99055857752
2360,Oud-Turnhout,Lage Darisdonk,29,51.3020715416,4.98809763242
2360,Oud-Turnhout,Schuurhovenberg,13,51.3292827423,4.99373362847
2360,Oud-Turnhout,Steenweg op Mol,82,51.3158842936,4.98681727408
2360,Oud-Turnhout,Petrus Dielsstraat,13,51.3182658502,4.98777956678
2360,Oud-Turnhout,Rist,29,51.3398475411,4.96736717818
2360,Oud-Turnhout,Draaiboom,58,51.3229943538,4.99217896176
2360,Oud-Turnhout,Heieinde,57,51.3393941593,4.9812545055
2360,Oud-Turnhout,Steenweg op Turnhout,105,51.3202320785,4.97270749536
2360,Oud-Turnhout,Hendrik van Zellestraat,32,51.3087578866,4.99219411136
2360,Oud-Turnhout,Bergstraat,5,51.3251002336,5.00268800707
2360,Oud-Turnhout,Pausenstraat,17,51.3193319421,4.98443940937
2360,Oud-Turnhout,Neerstraat,9,51.316725733,4.98233558418
2360,Oud-Turnhout,Wezelakkers,122,51.3337202071,4.97619891412
2360,Oud-Turnhout,Steenweg op Turnhout,151,51.3207238936,4.96988759785
2360,Oud-Turnhout,Heieinde,22,51.3381137596,4.97702192846
2360,Oud-Turnhout,Neerstraat,133,51.3112257542,4.9884429024
2360,Oud-Turnhout,Eigen,25,51.3140910948,4.97672260276
2360,Oud-Turnhout,Koning Boudewijnlaan,32,51.3179003062,4.97860109903
2360,Oud-Turnhout,Steenweg op Mol,102,51.3157073344,4.98798243623
2360,Oud-Turnhout,Burg. Luytenstraat,2,51.3102441001,4.97924998101
2360,Oud-Turnhout,Onze Lieve Vrouwstraat,28,51.3188812442,4.99109475478
2360,Oud-Turnhout,Hendrik van Zellestraat,14,51.3098055059,4.99080617311
2360,Oud-Turnhout,Rabauwakkers,47,51.3391138945,4.9741081698
2360,Oud-Turnhout,Pastoor Kerselaersstraat,2,51.3192826872,4.99143205176
2360,Oud-Turnhout,Nieuwe Staatsbaan,53,51.3127989182,5.03360443447
2360,Oud-Turnhout,Eekhoornweg,10,51.3199333692,5.01855158723
2360,Oud-Turnhout,Gorzendreef,7,51.3166977646,5.02739231652
2360,Oud-Turnhout,Brouwerstraat,19,51.3207691861,4.97841210391
2360,Oud-Turnhout,Meibloemstraat,31,51.3161145697,4.9892232303
2360,Oud-Turnhout,Wouter van Gierlestraat,2,51.3101767478,4.99085330434
2360,Oud-Turnhout,Dode Dreef,80,51.3473891084,4.97635142127
2360,Oud-Turnhout,Wezelakkers,104,51.3338336776,4.97566562872
2360,Oud-Turnhout,Neerstraat,186,51.307227008,4.98955690026
2360,Oud-Turnhout,Echelstraat,5,51.2994356795,5.00121600204
2360,Oud-Turnhout,Eigen,1,51.3138712805,4.97861879923
2360,Oud-Turnhout,Driedostraat,20,51.3112737745,4.9909908936
2360,Oud-Turnhout,Jef Claesenstraat,9,51.3187180592,4.9859713776
2360,Oud-Turnhout,Heieinde,7,51.3374263441,4.97630290842
2360,Oud-Turnhout,Lage Darisdonk,40,51.3027340188,4.98755899687
2360,Oud-Turnhout,Kerkstraat,31,51.3204455356,4.98157610328
2360,Oud-Turnhout,Leeuwerkstraat,22,51.3468572843,4.98639281998
2360,Oud-Turnhout,Polderstraat,64,51.3360268593,4.96924030524
2360,Oud-Turnhout,Oude Retiese Baan,28,51.3054236309,5.01775655168
2360,Oud-Turnhout,Albert Sohiestraat,13,51.323082447,4.98049740263
2360,Oud-Turnhout,Geleg,2,51.3574856051,4.96877676259
2360,Oud-Turnhout,Neerstraat,42,51.3153758796,4.98285232134
2360,Oud-Turnhout,Steenweg op Ravels,21,51.3372948535,4.96921838236
2360,Oud-Turnhout,Draaiboom,4,51.3223540225,4.98667710012
2360,Oud-Turnhout,Schuurhoven,139,51.3312430562,4.98785547309
2360,Oud-Turnhout,Dorp,23,51.3183002616,4.9815990227
2360,Oud-Turnhout,Nieuwstraat,21,51.3382202157,4.97361121175
2360,Oud-Turnhout,Sint-Bavoplein,9,51.3179741342,4.98952130245
2360,Oud-Turnhout,Steenweg op Oosthoven,16,51.3212190025,4.97651662514
2360,Oud-Turnhout,Bosduivenlaan,10,51.3145128671,5.03185103469
2360,Oud-Turnhout,Sint-Ritaplein,8,51.3163276724,4.98848769065
2360,Oud-Turnhout,Dode Dreef,62,51.3462048834,4.9754274271
2360,Oud-Turnhout,Neerstraat,203,51.3055512345,4.99109268655
2360,Oud-Turnhout,Steenweg op Oosthoven,121,51.3268568518,4.97563633382
2360,Oud-Turnhout,Donk,73,51.2965326871,5.0294055069
2360,Oud-Turnhout,Verbindingsweg,28,51.3485327998,4.97228480815
2360,Oud-Turnhout,Draaiboom,127,51.3210790216,4.99824341522
2360,Oud-Turnhout,Neerstraat,60,51.3145379219,4.98359165335
2360,Oud-Turnhout,Eug. Surinxstraat,13,51.3195169829,4.98976123212
2360,Oud-Turnhout,Van der Bekenlaan,18,51.3189157115,4.9826707402
2360,Oud-Turnhout,Nadorst,54,51.3217157312,4.97579182488
2360,Oud-Turnhout,Dijkzijde,79,51.3182939974,4.96963857348
2360,Oud-Turnhout,Jef Claesenstraat,60,51.3167070622,4.98775077318
2360,Oud-Turnhout,Neerstraat,115,51.3120744301,4.98773985065
2360,Oud-Turnhout,Steenweg op Oosthoven,34,51.3227311564,4.97603418042
2360,Oud-Turnhout,Steenweg op Mol,18,51.3177603384,4.98327928008
2360,Oud-Turnhout,Sint-Antoniusstraat,59,51.3409919816,4.97252507786
2360,Oud-Turnhout,Steenweg op Sevendonk,141,51.3094777393,4.97722815971
2360,Oud-Turnhout,Oude Arendonkse Baan,18,51.3145197964,4.99314815875
2360,Oud-Turnhout,Kuiltjesstraat,70,51.3475816086,4.97176694394
2360,Oud-Turnhout,Werkendam,72,51.3499731015,4.97319516403
2360,Oud-Turnhout,Steenweg op Mol,137,51.3116842434,4.99712044242
2360,Oud-Turnhout,Staprijk,31,51.3071616098,5.00099171468
2360,Oud-Turnhout,Eekhoornweg,8,51.320274021,5.01901121093
2360,Oud-Turnhout,Fazantendreef,3,51.3165445696,5.02116631851
2360,Oud-Turnhout,Rabauwakkers,33,51.3391710314,4.97325163614
2360,Oud-Turnhout,Alois Peetersstraat,14,51.3189664968,4.99023124306
2360,Oud-Turnhout,Donk,30,51.2994040339,5.0260357273
2360,Oud-Turnhout,Valkenweg,11,51.3216573137,5.02455375602
2360,Oud-Turnhout,Rabauwakkers,45,51.3390772139,4.97388124681
2360,Oud-Turnhout,Sperwersweg,9,51.3217083268,5.02525837778
2360,Oud-Turnhout,Donk,12,51.3013445185,5.02209782573
2360,Oud-Turnhout,Het Bergske,11,51.314733759,4.97866210026
2360,Oud-Turnhout,Eug. Surinxstraat,31,51.3189758635,4.98775775405
2360,Oud-Turnhout,Sint-Bavostraat,34,51.3195582496,4.98797507872
2360,Oud-Turnhout,Jan Roesstraat,19,51.3171899554,4.98975079367
2360,Oud-Turnhout,Kleiputstraat,27,51.3490261933,4.96744429105
2360,Oud-Turnhout,Rist,40,51.341485546,4.9674405246
2360,Oud-Turnhout,Steenweg op Ravels,153,51.3421188584,4.97285573575
2360,Oud-Turnhout,Jozef Embrechtsstraat,18,51.317725982,4.98776778621
2360,Oud-Turnhout,Rhoode,22,51.303811865,5.02105145602
2360,Oud-Turnhout,Sint-Bavostraat,16,51.320265771,4.98724362038
2360,Oud-Turnhout,Steenweg op Oosthoven,103,51.3254919008,4.97598447184
2360,Oud-Turnhout,Bosduivenlaan,8,51.3143917378,5.03144369775
2360,Oud-Turnhout,Veldstraat,21,51.3421444862,4.96933718714
2360,Oud-Turnhout,Rhoode,57,51.3019669487,5.03402209319
2360,Oud-Turnhout,Steenweg op Turnhout,89,51.3201092348,4.97372305141
2360,Oud-Turnhout,Bruno'sstraat,17,51.3336961018,4.98973352043
2360,Oud-Turnhout,Steenweg op Sevendonk,22,51.3171629083,4.9804463085
2360,Oud-Turnhout,Eksterstraat,6,51.3166287119,5.00486652063
2360,Oud-Turnhout,Donk,55,51.2981238255,5.0269057012
2360,Oud-Turnhout,Polderstraat,99,51.3366367422,4.9698720991
2360,Oud-Turnhout,Rhoode,93,51.3050378484,5.04560880908
2360,Oud-Turnhout,Veldbloemstraat,18,51.3150588628,4.99064929215
2360,Oud-Turnhout,Lage Mierdse Weg,50,51.3501933626,5.02717086603
2360,Oud-Turnhout,Reebokweg,9,51.3213080212,5.0189660042
2360,Oud-Turnhout,Steenweg op Sevendonk,131,51.3101050312,4.97815506827
2360,Oud-Turnhout,Steenweg op Ravels,178,51.3417292103,4.97135788332
2360,Oud-Turnhout,Korenbloemstraat,72,51.3192576128,4.99296724556
2360,Oud-Turnhout,Steenweg op Sevendonk,75,51.3134698823,4.98021713807
2360,Oud-Turnhout,Steenweg op Ravels,56,51.3375558726,4.96873960806
2360,Oud-Turnhout,Warande,9,51.3102441711,5.00901772082
2360,Oud-Turnhout,Onze Lieve Vrouwstraat,48,51.3182275674,4.99077832878
2360,Oud-Turnhout,Steenweg op Turnhout,90,51.3205038078,4.97347959952
2360,Oud-Turnhout,Rhoode,75,51.3042425409,5.03791398434
2360,Oud-Turnhout,Korenbloemstraat,54,51.318504471,4.99269607279
2360,Oud-Turnhout,Meibloemstraat,6,51.3154022247,4.9896722617
2360,Oud-Turnhout,De Lint,2,51.3132190922,5.01496496543
2360,Oud-Turnhout,Steenweg op Ravels,207,51.3451332897,4.97669276752
2360,Oud-Turnhout,Goudbloemstraat,7,51.316063125,4.99008585192
2360,Oud-Turnhout,Jef Claesenstraat,24,51.3182169264,4.9860466249
2360,Oud-Turnhout,Steenweg op Ravels,74,51.3381803295,4.96919208801
2360,Oud-Turnhout,Heieinde,29,51.338284476,4.9787633702
2360,Oud-Turnhout,Dijkzijde,26,51.3189771917,4.97412027267
2360,Oud-Turnhout,Veestraat,23,51.3509266665,4.9679581112
2360,Oud-Turnhout,Draaiboom,109,51.3229989584,4.99757870043
2360,Oud-Turnhout,Lentedreef,22,51.3015306648,5.01103375118
2360,Oud-Turnhout,Blijkerstraat,21,51.3037677561,5.00730417556
2360,Oud-Turnhout,Steenweg op Mol,99,51.3125853905,4.99170217364
2360,Oud-Turnhout,Draaiboom,41,51.3219050082,4.99006870803
2360,Oud-Turnhout,Kraaienbosstraat,21,51.3171078884,5.00067046342
2360,Oud-Turnhout,Pausenstraat,53,51.3204833095,4.98689550773
2360,Oud-Turnhout,Sportveldstraat,16,51.3199840694,4.98885976866
2360,Oud-Turnhout,Oude Arendonkse Baan,99,51.3138589592,5.00474686401
2360,Oud-Turnhout,Onze Lieve Vrouwstraat,21,51.3203748431,4.99027245366
2360,Oud-Turnhout,Lage Darisdonk,22,51.3043192194,4.98874245114
2360,Oud-Turnhout,Steenweg op Ravels,196,51.3425894754,4.97268088765
2360,Oud-Turnhout,Kerkstraat,6,51.3193358182,4.97930127856
2360,Oud-Turnhout,Steenweg op Ravels,92,51.3386182623,4.96941744672
2360,Oud-Turnhout,Jef Claesenstraat,42,51.3175777103,4.98678055523
2360,Oud-Turnhout,Steenweg op Mol,119,51.3122365493,4.99430972846
2360,Oud-Turnhout,Polderstraat,11,51.3367866201,4.97411515198
2360,Oud-Turnhout,Steenweg op Sevendonk,113,51.3108474373,4.97967796566
2360,Oud-Turnhout,Hendrik van Zellestraat,50,51.3085247436,4.99079061198
2360,Oud-Turnhout,Schuurhovenberg,6,51.329967337,4.99231025428
2360,Oud-Turnhout,Petrus Dielsstraat,6,51.3187839901,4.98831934366
2360,Oud-Turnhout,Steenweg op Mol,165,51.3092335368,5.00362521815
2360,Oud-Turnhout,Reesdijkstraat,16,51.2872463684,4.99594655145
2360,Oud-Turnhout,Beukenlaan,13,51.3127621366,5.01917920057
2360,Oud-Turnhout,Lage Darisdonk,7,51.3043242241,4.99001600316
2360,Oud-Turnhout,Brouwerstraat,12,51.3209910802,4.97878381341
2360,Oud-Turnhout,Heieinde,40,51.3388976789,4.97881102871
2360,Oud-Turnhout,Koning Boudewijnlaan,39,51.3175500953,4.97677172444
2360,Oud-Turnhout,Steenweg op Ravels,225,51.3468270872,4.97891891168
2360,Oud-Turnhout,Lijnwaadstraat,12,51.3079335523,5.00347309329
2360,Oud-Turnhout,Het Bergske,4,51.3149651505,4.97879551181
2360,Oud-Turnhout,Kerkedries,16,51.3226236683,4.98834571819
2360,Oud-Turnhout,Zwanendreef,15,51.3080196491,5.01712007499
2360,Oud-Turnhout,Neerstraat,59,51.3149792837,4.98396566923
2360,Oud-Turnhout,Blekerijstraat,28,51.3188730325,4.96933608878
2360,Oud-Turnhout,De Hoogt,25,51.3244809375,4.97720168545
2360,Oud-Turnhout,Lijsterdreef,15,51.3185737447,5.02835828226
2360,Oud-Turnhout,Dode Dreef,79,51.3476892357,4.97598131395
2360,Oud-Turnhout,Pastoor Geptsstraat,16,51.3131031793,4.9953685121
2360,Oud-Turnhout,Donk,5,51.3010258648,5.02043782809
2360,Oud-Turnhout,Onze Lieve Vrouwstraat,2,51.3208485163,4.98902392904
2360,Oud-Turnhout,Kerkstraat,84,51.3227996029,4.98458462027
2360,Oud-Turnhout,Schuurhoven,25,51.3359791948,4.97867068134
2360,Oud-Turnhout,Hendrickxstraat,42,51.318847886,4.97030541013
2360,Oud-Turnhout,Gemeentestraat,26,51.3211735622,4.98730103092
2360,Oud-Turnhout,Goordijk,16,51.3150436128,5.02636100887
2360,Oud-Turnhout,Verbindingsweg,21,51.3480701348,4.97370231652
2360,Oud-Turnhout,Steenweg op Sevendonk,29,51.3154552688,4.98080062106
2360,Oud-Turnhout,Koning Boudewijnlaan,7,51.3175695325,4.98039572065
2360,Oud-Turnhout,Steenweg op Mol,11,51.3170574515,4.98388459886
2360,Oud-Turnhout,Kraaienbosstraat,2,51.3188043638,4.99452693866
2360,Oud-Turnhout,Rabauwakkers,51,51.3391032137,4.97454456172
2360,Oud-Turnhout,Van der Bekenlaan,11,51.318597579,4.98297206123
2360,Oud-Turnhout,Corn. Mertenslaan,13,51.3169171869,4.96952811496
2360,Oud-Turnhout,Bosrand,8,51.3125768564,5.00883156613
2360,Oud-Turnhout,Rode Kruisstraat,7,51.3217689591,4.97996283865
2360,Oud-Turnhout,Blijkerstraat,2,51.3028397523,5.0062446825
2360,Oud-Turnhout,Pausenstraat,71,51.3210579993,4.98813807754
2360,Oud-Turnhout,Eug. Surinxstraat,6,51.3199220982,4.98993045671
2360,Oud-Turnhout,Steenweg op Ravels,28,51.3365512071,4.96818135763
2360,Oud-Turnhout,Steenweg op Sevendonk,148,51.3097688172,4.97681923329
2360,Oud-Turnhout,Landbouwstraat,9,51.3513058199,4.9672586579
2360,Oud-Turnhout,Schuurhoven,104,51.3331536256,4.98607892667
2360,Oud-Turnhout,Wezelakkers,66,51.3340429451,4.97865257975
2360,Oud-Turnhout,Het Bergske,18,51.3148741794,4.97733079188
2360,Oud-Turnhout,Heerestraat,70,51.3337029008,4.97385644364
2360,Oud-Turnhout,Steenweg op Turnhout,54,51.319657539,4.97826684569
2360,Oud-Turnhout,Kuiltjesstraat,34,51.3446236698,4.97160913458
2360,Oud-Turnhout,Werkendam,89,51.3521955425,4.96962334659
2360,Oud-Turnhout,Kapelstraat,26,51.3195424049,4.98204142289
2360,Oud-Turnhout,Zwanendreef,1,51.3087512728,5.01330887476
2360,Oud-Turnhout,Krekelweg,6,51.3182946784,5.01974947703
2360,Oud-Turnhout,Oude Arendonkse Baan,64,51.3128172848,5.01050988912
2360,Oud-Turnhout,Neerstraat,95,51.3131783385,4.98635446974
2360,Oud-Turnhout,Gaaienlaan,28,51.3187634648,5.03345609095
2360,Oud-Turnhout,Kuiltjesstraat,87,51.3479067391,4.97243211397
2360,Oud-Turnhout,Kuiltjesstraat,131,51.3506224948,4.97010609058
2360,Oud-Turnhout,Oude Arendonkse Baan,11,51.3148028611,4.99017270228
2360,Oud-Turnhout,Kuiltjesstraat,16,51.3432818306,4.97151823965
2360,Oud-Turnhout,Rist,57,51.3417352442,4.96617598131
2360,Oud-Turnhout,Zandstraat,34,51.3088964477,4.98264296164
2360,Oud-Turnhout,Molenbergen,26,51.3134834047,4.98755868309
2360,Oud-Turnhout,Sint-Bavostraat,9,51.3212594354,4.98660602796
2360,Oud-Turnhout,Draaiboom,76,51.3236442987,4.99551523957
2360,Oud-Turnhout,Kleine Vondelweg,17,51.3223865687,4.97826778157
2360,Oud-Turnhout,Leemstraat,16,51.3501116467,4.96626206156
2360,Oud-Turnhout,Neerstraat,77,51.3138673633,4.98508299487
2360,Oud-Turnhout,Jozef Van Miertstraat,17,51.3178171457,4.99107161294
2360,Oud-Turnhout,Zwanevenstraat,26,51.3063537502,5.00492941324
2360,Oud-Turnhout,Steenweg op Mol,46,51.3169673675,4.98501165244
2360,Oud-Turnhout,Taxandriastraat,7,51.3183169896,4.98481740436
2360,Oud-Turnhout,Dijkzijde,44,51.3186854761,4.97270389183
2360,Oud-Turnhout,Jozef Embrechtsstraat,11,51.3174641813,4.98805418111
2360,Oud-Turnhout,Steenweg op Turnhout,72,51.3204180154,4.97456033561
2360,Oud-Turnhout,Jan Roesstraat,12,51.3175683796,4.98914811517
2360,Oud-Turnhout,Kruispad,41,51.3196090199,4.99459127689
2360,Oud-Turnhout,Neerstraat,143,51.3105321523,4.988934599
2360,Oud-Turnhout,Bosdreef,33,51.3031718634,5.00806256014
2360,Oud-Turnhout,Kuiltjesstraat,44,51.3453686523,4.97165454074
2360,Oud-Turnhout,Driedostraat,14,51.310974978,4.99041380801
2360,Oud-Turnhout,Steenweg op Oosthoven,97,51.3249977938,4.97612850225
2360,Oud-Turnhout,Sportveldstraat,9,51.3204001912,4.98895282184
2360,Oud-Turnhout,Albert Sohiestraat,21,51.3228513384,4.98018794827
2360,Oud-Turnhout,Koekoekdreef,3,51.3192004206,5.02711407675
2360,Oud-Turnhout,Eigen,17,51.3139376642,4.9776316237
2360,Oud-Turnhout,Neerstraat,121,51.3117616327,4.98799799539
2360,Oud-Turnhout,Eug. Surinxstraat,1,51.3196544667,4.99045331028
2360,Oud-Turnhout,Heieinde,30,51.3385962868,4.97820322332
2360,Oud-Turnhout,Steenweg op Mol,94,51.3156737309,4.98717204325
2360,Oud-Turnhout,Steenweg op Ravels,119,51.3408179096,4.97153118467
2360,Oud-Turnhout,Steenweg op Turnhout,59,51.3194412773,4.97660698176
2360,Oud-Turnhout,Heerestraat,79,51.3343281604,4.97309277303
2360,Oud-Turnhout,Bosdreef,15,51.3032107305,5.01072845123
2360,Oud-Turnhout,Wezelakkers,74,51.3335230696,4.97783076481
2360,Oud-Turnhout,Staatsbaan,34,51.3117752949,5.01698501174
2360,Oud-Turnhout,Burg. Luytenstraat,16,51.3095871222,4.98003699355
2360,Oud-Turnhout,Hendrik van Zellestraat,20,51.3096933577,4.99126258344
2360,Oud-Turnhout,Veldstraat,2,51.3430535863,4.97159535827
2360,Oud-Turnhout,Steenweg op Oosthoven,115,51.3264033446,4.97575077548
2360,Oud-Turnhout,Sint-Annaplein,7,51.3193625631,4.98642890639
2360,Oud-Turnhout,Pastoor Kerselaersstraat,16,51.319396935,4.99223340865
2360,Oud-Turnhout,Kuiltjesstraat,62,51.3469822285,4.9717936081
2360,Oud-Turnhout,Lentedreef,19,51.3019692945,5.01260588847
2360,Oud-Turnhout,Driedostraat,32,51.3118550377,4.99203558391
2360,Oud-Turnhout,Heieinde,12,51.3377019659,4.97608452314
2360,Oud-Turnhout,Petrus Dielsstraat,21,51.3181431572,4.98733299128
2360,Oud-Turnhout,Lage Darisdonk,19,51.3031414055,4.98854879637
2360,Oud-Turnhout,Schuurhovenberg,21,51.3344825388,5.00283281324
2360,Oud-Turnhout,Staprijk,1,51.3091094851,5.00315816068
2360,Oud-Turnhout,Opstal,4,51.3333889925,4.9728782443
2360,Oud-Turnhout,Zandstraat,44,51.3092608635,4.98386661132
2360,Oud-Turnhout,Zwanevenstraat,4,51.3078003617,5.00627886413
2360,Oud-Turnhout,Steenweg op Turnhout,141,51.3206059419,4.97045855801
2360,Oud-Turnhout,Dijkzijde,69,51.3182792361,4.97020883179
2360,Oud-Turnhout,Oude Arendonkse Baan,58,51.3134503208,5.00921864471
2360,Oud-Turnhout,Oude Retiese Baan,38,51.3057398992,5.01882713977
2360,Oud-Turnhout,Koning Boudewijnlaan,20,51.3178034519,4.97895956492
2360,Oud-Turnhout,Guldenweg,11,51.3153470166,5.01065138472
2360,Oud-Turnhout,Sint-Antoniusstraat,36,51.3402232143,4.97368795021
2360,Oud-Turnhout,Burg. Van Loonstraat,4,51.3407561841,4.97478424847
2360,Oud-Turnhout,Hoge Darisdonk,13,51.2944230015,4.99253308268
2360,Oud-Turnhout,Neringstraat,7,51.3247066275,4.96963685738
2360,Oud-Turnhout,Steenweg op Mol,196,51.3075137075,5.00982519799
2360,Oud-Turnhout,Rist,65,51.3420427825,4.96531012096
2360,Oud-Turnhout,Onze Lieve Vrouwstraat,38,51.3185735772,4.99105979566
2360,Oud-Turnhout,Pastoor Geptsstraat,5,51.3139896286,4.99597624682
2360,Oud-Turnhout,Gaaienlaan,2,51.3148624795,5.0357446305
2360,Oud-Turnhout,Draaiboom,82,51.3247198822,4.99382475645
2360,Oud-Turnhout,Steenweg op Turnhout,77,51.3199504541,4.97490926026
2360,Oud-Turnhout,Wezelakkers,132,51.3335732164,4.97701054835
2360,Oud-Turnhout,Dode Dreef,70,51.3467069429,4.97585279049
2360,Oud-Turnhout,Neerstraat,54,51.3148534139,4.98338384212
2360,Oud-Turnhout,Rabauwakkers,27,51.3391797496,4.97305802248
2360,Oud-Turnhout,Rode Kruisstraat,20,51.3220382418,4.98055581152
2360,Oud-Turnhout,Rist,19,51.339134729,4.96767814398
2360,Oud-Turnhout,Jef Claesenstraat,72,51.3163433978,4.98814509934
2360,Oud-Turnhout,Augustijnenstraat,25,51.3104905937,4.99336695228
2360,Oud-Turnhout,Nadorst,36,51.3212145041,4.97432542575
2360,Oud-Turnhout,Wezelakkers,114,51.3330490871,4.976297321
2360,Oud-Turnhout,Zweepstraat,7,51.3139262446,4.99249291276
2360,Oud-Turnhout,Nieuwstraat,2,51.3386504363,4.9747454406
2360,Oud-Turnhout,Blekerijstraat,2,51.3205709074,4.96898536365
2360,Oud-Turnhout,Paradijs,7,51.3162787873,5.0088191496
2360,Oud-Turnhout,Kerkstraat,21,51.3200581882,4.98097599511
2360,Oud-Turnhout,Dode Dreef,52,51.3455278272,4.97493075508
2360,Oud-Turnhout,Begijnenhoefstraat,32,51.3194711121,5.00559996729
2360,Oud-Turnhout,Zwanendreef,6,51.3081271936,5.0134599767
2360,Oud-Turnhout,Gemeentestraat,4,51.3203008283,4.98553782594
2360,Oud-Turnhout,Oude Heerestraat,2,51.3254954493,4.9751695254
2360,Oud-Turnhout,Lijsterdreef,6,51.3175210933,5.02987652781
2360,Oud-Turnhout,Winterdreef,11,51.3011100893,5.0051465852
2360,Oud-Turnhout,Kleiputstraat,33,51.3490524131,4.96666654241
2360,Oud-Turnhout,Meibloemstraat,21,51.3157290079,4.9891301609
2360,Oud-Turnhout,Kruispad,11,51.32057954,4.99163418421
2360,Oud-Turnhout,Nadorst,42,51.3212111882,4.97469231783
2360,Oud-Turnhout,Brouwerstraat,5,51.3201458332,4.97939095735
2360,Oud-Turnhout,Neerstraat,103,51.3127201936,4.98707896474
2360,Oud-Turnhout,Kraaienbosstraat,38,51.3145211811,5.00510574125
2360,Oud-Turnhout,Eigen,35,51.3173158106,4.97330716271
2360,Oud-Turnhout,Steenweg op Turnhout,95,51.3201451799,4.97339044501
2360,Oud-Turnhout,Steenweg op Ravels,2,51.3360714811,4.96727977825
2360,Oud-Turnhout,Meibloemstraat,1,51.3149039796,4.98895621588
2360,Oud-Turnhout,Pausenstraat,96,51.3211902465,4.98919660921
2360,Oud-Turnhout,Werkendam,138,51.3521492836,4.96665129514
2360,Oud-Turnhout,Werkendam,7,51.347817516,4.97737851657
2360,Oud-Turnhout,Nieuwe Staatsbaan,61,51.3127965662,5.03546055826
2360,Oud-Turnhout,Rhoode,30,51.3028471259,5.02203089905
2360,Oud-Turnhout,Steenweg op Mol,107,51.312404299,4.99267012164
2360,Oud-Turnhout,Steenweg op Oosthoven,143,51.3284536324,4.97521344172
2360,Oud-Turnhout,Sint-Bavostraat,26,51.3198226927,4.98773331619
2360,Oud-Turnhout,Tweesprongdreef,5,51.3086273656,5.01513015957
2360,Oud-Turnhout,Polderstraat,41,51.3367939413,4.97229373194
2360,Oud-Turnhout,Kleiputstraat,15,51.3490224413,4.96868306619
2360,Oud-Turnhout,Tijkstraat,12,51.3074148825,5.00265878997
2360,Oud-Turnhout,Draaiboom,117,51.3222127525,4.99783172256
2360,Oud-Turnhout,Steenweg op Mol,125,51.312270458,4.99479838283
2360,Oud-Turnhout,Vlinderweg,7,51.3168057068,5.01756450067
2360,Oud-Turnhout,Steenweg op Ravels,31,51.337547856,4.96975316358
2360,Oud-Turnhout,Groendreef,3,51.3078600384,5.01816485407
2360,Oud-Turnhout,Steenweg op Ravels,165,51.3428159819,4.97378959868
2360,Oud-Turnhout,Nieuwstraat,31,51.3379566821,4.97273043491
2360,Oud-Turnhout,Alois Peetersstraat,20,51.3190373865,4.99051046406
2360,Oud-Turnhout,Arselt,5,51.3025065016,5.02659908577
2360,Oud-Turnhout,Van der Bekenlaan,41,51.3201183155,4.98394117864
2360,Oud-Turnhout,Steenweg op Sevendonk,30,51.3167149106,4.98048473288
2360,Oud-Turnhout,Neerstraat,90,51.3127943412,4.98606439116
2360,Oud-Turnhout,Koningin Fabiolalaan,4,51.3173280011,4.97816830678
2360,Oud-Turnhout,Staatsbaan,69,51.3106876111,5.02693442739
2360,Oud-Turnhout,Steenweg op Turnhout,24,51.3189821671,4.97988573802
2360,Oud-Turnhout,Beukenlaan,8,51.313163783,5.02121223557
2360,Oud-Turnhout,Albert Sohiestraat,1,51.3222300999,4.98171066651
2360,Oud-Turnhout,Draaiboom,18,51.3222024927,4.9880160505
2360,Oud-Turnhout,Wezelakkers,8,51.3353232517,4.97504411985
2360,Oud-Turnhout,Oude Heerestraat,13,51.3239288517,4.97482358298
2360,Oud-Turnhout,Koning Boudewijnlaan,37,51.317543909,4.97689112478
2360,Oud-Turnhout,Polderstraat,107,51.3366216872,4.96950900894
2360,Oud-Turnhout,Kromme Schoutstraat,8,51.298070012,5.00454667329
2360,Oud-Turnhout,Dijkzijde,4,51.3193787167,4.97520561008
2360,Oud-Turnhout,Heerestraat,97,51.3355745482,4.97297238394
2360,Oud-Turnhout,Het Bergske,23,51.3145584812,4.97782534939
2360,Oud-Turnhout,Eigen,45,51.3179499537,4.97286387498
2360,Oud-Turnhout,Begijnenhoefstraat,49,51.3205481498,5.00049102901
2360,Oud-Turnhout,Korenbloemstraat,24,51.3170279813,4.99142809263
2360,Oud-Turnhout,Steenweg op Sevendonk,151,51.3083561902,4.97522844518
2360,Oud-Turnhout,Goordijk,9,51.3123276336,5.02737112748
2360,Oud-Turnhout,Brooseinde,24,51.3172740667,4.99317124776
2360,Oud-Turnhout,Veldstraat,31,51.3421154675,4.96796843881
2360,Oud-Turnhout,Dode Dreef,95,51.348794549,4.97676337075
2360,Oud-Turnhout,Lijsterdreef,10,51.3185199477,5.02920481156
2360,Oud-Turnhout,Steenweg op Turnhout,113,51.3204038296,4.9720055626
2360,Oud-Turnhout,Jan Roesstraat,5,51.3176335726,4.98960568363
2360,Oud-Turnhout,Zwanendreef,10,51.3079118283,5.01444964503
2360,Oud-Turnhout,Steenweg op Oosthoven,79,51.3237133914,4.97642100108
2360,Oud-Turnhout,Steenweg op Ravels,66,51.3378839791,4.96885677832
2360,Oud-Turnhout,Steenweg op Oosthoven,26,51.3220270477,4.97632493037
2360,Oud-Turnhout,Hendrik van Zellestraat,37,51.3079276321,4.99174989202
2360,Oud-Turnhout,Steenweg op Ravels,209,51.3452579626,4.97714663207
2360,Oud-Turnhout,Steenweg op Ravels,13,51.3370190508,4.96908509807
2360,Oud-Turnhout,Dorp,11,51.3182985396,4.98055936651
2360,Oud-Turnhout,Kerkstraat,1,51.319128081,4.97946135363
2360,Oud-Turnhout,Korenbloemstraat,59,51.3190092504,4.99228787863
2360,Oud-Turnhout,Nieuwstraat,13,51.3376229455,4.97357617068
2360,Oud-Turnhout,Dennenlaan,24,51.3153998922,5.02250321771
2360,Oud-Turnhout,Petrus Dielsstraat,28,51.3184598043,4.98709450889
2360,Oud-Turnhout,Schuurhoven,88,51.3343019158,4.985122923
2360,Oud-Turnhout,Werkendam,59,51.3509308762,4.97258008229
2360,Oud-Turnhout,Steenweg op Oosthoven,80,51.3269536695,4.97496704814
2360,Oud-Turnhout,Sint-Antoniusstraat,7,51.3382472023,4.97539898305
2360,Oud-Turnhout,Vinkendreef,4,51.3126501659,5.02557074869
2360,Oud-Turnhout,Leeuwerkstraat,19,51.348596283,4.98755486317
2360,Oud-Turnhout,Koningin Fabiolalaan,16,51.317132077,4.9769759557
2360,Oud-Turnhout,Lage Darisdonk,30,51.3035044921,4.98814540039
2360,Oud-Turnhout,Aastraat,4,51.3533159019,4.98698758664
2360,Oud-Turnhout,Lintbekelaan,1,51.31226842,5.01583133967
2360,Oud-Turnhout,Steenweg op Turnhout,42,51.3194188282,4.97864698849
2360,Oud-Turnhout,Polderstraat,48,51.3362824702,4.96947362786
2360,Oud-Turnhout,Veldbloemstraat,2,51.3149862283,4.98948670321
2360,Oud-Turnhout,Weilandstraat,4,51.3508391851,4.96759010071
2360,Oud-Turnhout,Kuiltjesstraat,79,51.3473856568,4.97240381201
2360,Oud-Turnhout,Grote Vondelweg,14,51.3217127113,4.97922764616
2360,Oud-Turnhout,Lentedreef,30,51.3006835246,5.01028462761
2360,Oud-Turnhout,Steenweg op Sevendonk,65,51.3139356454,4.9801501193
2360,Oud-Turnhout,Torteldreef,6,51.3137405185,5.0330647153
2360,Oud-Turnhout,Hendrickxstraat,7,51.3199770506,4.96972904411
2360,Oud-Turnhout,Begijnenhoefstraat,3,51.3147369751,5.00762812943
2360,Oud-Turnhout,Onze Lieve Vrouwstraat,13,51.3206608797,4.9899589793
2360,Oud-Turnhout,Pausenstraat,101,51.321428135,4.98831055687
2360,Oud-Turnhout,Oude Retiese Baan,13,51.3072445561,5.01462579819
2360,Oud-Turnhout,Blijkerstraat,13,51.3036173784,5.00617088704
2360,Oud-Turnhout,Jan de Beerstraat,6,51.3098639092,4.99233012779
2360,Oud-Turnhout,Steenweg op Turnhout,4,51.3186673769,4.98079386691
2360,Oud-Turnhout,Sint-Annaplein,24,51.3188684371,4.98722774996
2360,Oud-Turnhout,Corsendonk,7,51.2889526217,5.01115906663
2360,Oud-Turnhout,Steenweg op Ravels,84,51.3384731449,4.9692849859
2360,Oud-Turnhout,Donk,67,51.2970346494,5.02891413209
2360,Oud-Turnhout,Lentedreef,12,51.3033807729,5.01246899478
2360,Oud-Turnhout,Pausenstraat,5,51.3184366744,4.98347670027
2360,Oud-Turnhout,Sint-Bavostraat,44,51.3190576767,4.98852696355
2360,Oud-Turnhout,Jozef Embrechtsstraat,2,51.3181263517,4.98856948029
2360,Oud-Turnhout,Sparrendreef,6,51.318182748,5.02535173007
2360,Oud-Turnhout,Schoutenhoefstraat,6,51.3057375121,5.00368975707
2360,Oud-Turnhout,Ambachtstraat,5,51.3254383122,4.96947015133
2360,Oud-Turnhout,Rabauwakkers,10,51.339524957,4.97251792083
2360,Oud-Turnhout,Dijkzijde,16,51.3190464666,4.97475747263
2360,Oud-Turnhout,Oude Arendonkse Baan,41,51.3149111722,4.99239382682
2360,Oud-Turnhout,Dijkzijde,52,51.3186031699,4.97197602142
2360,Oud-Turnhout,Meibloemstraat,28,51.3166249778,4.98996771636
2360,Oud-Turnhout,Bergstraat,32,51.3247432264,5.02456488226
2360,Oud-Turnhout,Steenweg op Sevendonk,9,51.3167883951,4.98101396246
2360,Oud-Turnhout,Dode Dreef,87,51.3484107167,4.97647257746
2360,Oud-Turnhout,Neerstraat,36,51.315683866,4.98261829812
2360,Oud-Turnhout,De Blokken,11,51.3231687814,4.9866661293
2360,Oud-Turnhout,Steenweg op Mol,2,51.3180584444,4.98252429887
2360,Oud-Turnhout,Werkendam,95,51.3523821809,4.96768047699
2360,Oud-Turnhout,Draaiboom,99,51.3234050998,4.9963840659
2360,Oud-Turnhout,Primus J. Boschlaan,2,51.3157538908,4.97031183536
2360,Oud-Turnhout,Blijkerstraat,31,51.3026119151,5.00732457839
2360,Oud-Turnhout,Kerkstraat,28,51.3199017965,4.98000110971
2360,Oud-Turnhout,Steenweg op Mol,48,51.3169466353,4.98507477501
2360,Oud-Turnhout,Eksterstraat,1,51.315976719,5.003338525
2360,Oud-Turnhout,Kerkstraat,74,51.3225714869,4.98435853173
2360,Oud-Turnhout,Werkendam,77,51.3518215197,4.97114979771
2360,Oud-Turnhout,Dorp,8,51.3180231791,4.9806729292
2360,Oud-Turnhout,Winterdreef,18,51.2996089158,5.00438046212
2360,Oud-Turnhout,Schuurhoven,152,51.3315884047,4.98913975859
2360,Oud-Turnhout,Dijkzijde,70,51.3185264395,4.97031014251
2360,Oud-Turnhout,De Hoogt,13,51.3236383297,4.97766462372
2360,Oud-Turnhout,De Laks,23,51.3516373887,4.99415445764
2360,Oud-Turnhout,Van der Bekenlaan,48,51.3208248596,4.98382559089
2360,Oud-Turnhout,Driedostraat,3,51.3108354892,4.98940144445
2360,Oud-Turnhout,Brooseinde,4,51.315256384,4.99168289602
2360,Oud-Turnhout,Kruispad,18,51.3200920988,4.99158361416
2360,Oud-Turnhout,Jef Claesenstraat,36,51.3177779557,4.98657681397
2360,Oud-Turnhout,Korenbloemstraat,4,51.3156862038,4.99096591593
2360,Oud-Turnhout,Kerkstraat,56,51.3219269729,4.9826030779
2360,Oud-Turnhout,Dennenlaan,4,51.3123369387,5.0234260717
2360,Oud-Turnhout,Van der Bekenlaan,2,51.318253211,4.98219696554
2360,Oud-Turnhout,Kuiltjesstraat,105,51.3491229204,4.97107546708
2360,Oud-Turnhout,Dode Dreef,69,51.3472479805,4.97565275382
2360,Oud-Turnhout,Kuiltjesstraat,123,51.3503169931,4.97042322455
2360,Oud-Turnhout,Zwanevenstraat,34,51.3058852053,5.00452420777
2360,Oud-Turnhout,Schuurhoven,35,51.3354768837,4.97983023188
2360,Oud-Turnhout,Opstal,16,51.3329851443,4.97141549833
2360,Oud-Turnhout,Kuiltjesstraat,26,51.3439876735,4.97157174607
2360,Oud-Turnhout,Steenweg op Ravels,291,51.3518048213,4.98532895338
2360,Oud-Turnhout,Steenweg op Sevendonk,19,51.316481847,4.98095326865
2360,Oud-Turnhout,Zwanevenstraat,16,51.3071557796,5.00563230985
2360,Oud-Turnhout,Schuurhoven,17,51.3363313308,4.97734785207
2360,Oud-Turnhout,Schuurhovenberg,56,51.3246489679,4.99762541587
2360,Oud-Turnhout,Hazenweg,9,51.320140101,5.01673174021
2360,Oud-Turnhout,Wezelakkers,21,51.3355806007,4.9759006729
2360,Oud-Turnhout,Steenweg op Mol,100,51.3155149989,4.98744674885
2360,Oud-Turnhout,Spechtendreef,7,51.3166775981,5.03092607864
2360,Oud-Turnhout,Molenbergen,16,51.3140567304,4.98734314777
2360,Oud-Turnhout,Staatsbaan,52,51.3118178106,5.01765737411
2360,Oud-Turnhout,Werkendam,24,51.3488217651,4.97497848393
2360,Oud-Turnhout,Polderstraat,76,51.3358590557,4.96890207971
2360,Oud-Turnhout,Van der Bekenlaan,58,51.321192468,4.98407044187
2360,Oud-Turnhout,Neerstraat,184,51.3072993635,4.98960848797
2360,Oud-Turnhout,Pausenstraat,61,51.3207929438,4.98750023075
2360,Oud-Turnhout,Kuiltjesstraat,143,51.3511689493,4.97053631811
2360,Oud-Turnhout,Zomerdreef,10,51.2988643832,5.00718880499
2360,Oud-Turnhout,Steenweg op Mol,58,51.3166072543,4.98562320548
2360,Oud-Turnhout,Bosrand,10,51.3127430619,5.00839742589
2360,Oud-Turnhout,Van der Bekenlaan,23,51.3193005466,4.98342415244
2360,Oud-Turnhout,Gorzendreef,12,51.3175404388,5.02793898607
2360,Oud-Turnhout,Hoge Beemdstraat,2,51.3314792144,4.98590330131
2360,Oud-Turnhout,Horzelweg,7,51.3186819086,5.01781617807
2360,Oud-Turnhout,Waterstraat,16,51.3089739246,5.03430306139
2360,Oud-Turnhout,Leeuwerkstraat,9,51.3508313134,4.98669040267
2360,Oud-Turnhout,Draaiboom,64,51.3230558723,4.99300736247
2360,Oud-Turnhout,Kuiltjesstraat,97,51.3487810478,4.97170371872
2360,Oud-Turnhout,Korenbloemstraat,60,51.3186877083,4.99273683091
2360,Oud-Turnhout,Molenbergen,4,51.3149718397,4.9873078526
2360,Oud-Turnhout,Herfstdreef,5,51.3002909891,5.00712924692
2360,Oud-Turnhout,Oude Arendonkse Baan,23,51.3148976986,4.99104313761
2360,Oud-Turnhout,Eigen,6,51.3134150783,4.97908051316
2360,Oud-Turnhout,Steenweg op Oosthoven,44,51.3234361582,4.97590209241
2360,Oud-Turnhout,Steenweg op Ravels,137,51.3414373815,4.97207781083
2360,Oud-Turnhout,Corn. Mertenslaan,21,51.3163869954,4.96946905245
2360,Oud-Turnhout,Steenweg op Mol,23,51.3165831292,4.98480188012
2360,Oud-Turnhout,Sint-Ritaplein,15,51.3168727391,4.98836500836
2360,Oud-Turnhout,Verbindingsweg,13,51.347982817,4.97439643243
2360,Oud-Turnhout,Gemeentestraat,16,51.3207246312,4.98645073928
2360,Oud-Turnhout,Steenweg op Oosthoven,62,51.3248847063,4.97550040169
2360,Oud-Turnhout,Schuurhoven,1,51.3367254754,4.9757176139
2360,Oud-Turnhout,Donk,29,51.3003446412,5.02270032135
2360,Oud-Turnhout,Steenweg op Mol,76,51.3159920047,4.98662206352
2360,Oud-Turnhout,Jan Roesstraat,22,51.3171798008,4.98921909167
2360,Oud-Turnhout,Veldstraat,38,51.3424663631,4.96859078307
2360,Oud-Turnhout,Heidestraat,26,51.3485709595,4.97340283285
2360,Oud-Turnhout,Polderstraat,58,51.3361796793,4.96905918449
2360,Oud-Turnhout,Winterdreef,8,51.3013186675,5.00610639404
2360,Oud-Turnhout,Steenweg op Mol,84,51.3158430864,4.98687667976
2360,Oud-Turnhout,Petrus Dielsstraat,11,51.318306328,4.98785971368
2360,Oud-Turnhout,Heerestraat,89,51.3349418765,4.97302284228
2360,Oud-Turnhout,Kuiltjesstraat,72,51.3477257167,4.97177929252
2360,Oud-Turnhout,Neerstraat,7,51.3167636616,4.9822493082
2360,Oud-Turnhout,Werkendam,70,51.3498664649,4.97334319562
2360,Oud-Turnhout,Hendrik van Zellestraat,30,51.3090769132,4.99198385007
2360,Oud-Turnhout,Bergstraat,3,51.3241006419,4.99815681419
2360,Oud-Turnhout,Staatsbaan,24,51.3111900539,5.01308540259
2360,Oud-Turnhout,Lintbekelaan,10,51.316548436,5.01999094308
2360,Oud-Turnhout,Rabauwakkers,35,51.3391639449,4.9733720852
2360,Oud-Turnhout,Pausenstraat,15,51.3191462116,4.98458368792
2360,Oud-Turnhout,Dijkzijde,77,51.3182546215,4.9697638586
2360,Oud-Turnhout,Steenweg op Sevendonk,161,51.3064515891,4.97214500461
2360,Oud-Turnhout,Heieinde,20,51.3380546795,4.97676472367
2360,Oud-Turnhout,Neerstraat,131,51.3113507934,4.98837214429
2360,Oud-Turnhout,Kuiltjesstraat,54,51.3462352707,4.97158900513
2360,Oud-Turnhout,Rist,55,51.3416825355,4.96637937345
2360,Oud-Turnhout,Dorp,1,51.3174578272,4.981451938
2360,Oud-Turnhout,Hendrik van Zellestraat,12,51.3097890851,4.99069825154
2360,Oud-Turnhout,Draaiboom,74,51.3235271936,4.99502032308
2360,Oud-Turnhout,Eksterstraat,8,51.3168760078,5.00516265253
2360,Oud-Turnhout,Eigen,27,51.3141331139,4.97648664559
2360,Oud-Turnhout,Koning Boudewijnlaan,30,51.3178924659,4.97870972064
2360,Oud-Turnhout,Schuurhoven,167,51.3312163547,4.99126772392
2360,Oud-Turnhout,Steenweg op Ravels,210,51.343139729,4.97326338877
2360,Oud-Turnhout,Steenweg op Turnhout,87,51.3200639771,4.97383764668
2360,Oud-Turnhout,Bosduivenlaan,6,51.3142985098,5.03098125472
2360,Oud-Turnhout,Steenweg op Ravels,109,51.3403722004,4.97124513526
2360,Oud-Turnhout,De Hoogt,41,51.3256867773,4.97592992141
2360,Oud-Turnhout,Driedostraat,22,51.3113617116,4.99108758586
2360,Oud-Turnhout,Gorzendreef,9,51.3170033762,5.02721348186
2360,Oud-Turnhout,Leeuwerkstraat,20,51.3479556856,4.98702259149
2360,Oud-Turnhout,Albert Sohiestraat,11,51.3232865703,4.98105396051
2360,Oud-Turnhout,Polderstraat,84,51.3360846759,4.96877499072
2360,Oud-Turnhout,Kruispad,21,51.3202082267,4.99347704497
2360,Oud-Turnhout,Neerstraat,148,51.3097684103,4.98879734711
2360,Oud-Turnhout,Grote Vondelweg,3,51.3210476321,4.97747145365
2360,Oud-Turnhout,Taxandriastraat,12,51.3179483587,4.98475198782
2360,Oud-Turnhout,Sint-Ritaplein,6,51.3163458017,4.9887159883
2360,Oud-Turnhout,Neerstraat,44,51.3152866544,4.98277742044
2360,Oud-Turnhout,Het Bergske,2,51.3150388323,4.97906138896
2360,Oud-Turnhout,Onze Lieve Vrouwstraat,4,51.3207741964,4.98908992595
2360,Oud-Turnhout,Winterdreef,21,51.2997111592,5.00378625773
2360,Oud-Turnhout,Augustijnenstraat,15,51.3110725237,4.99215244408
2360,Oud-Turnhout,Veldbloemstraat,13,51.315343942,4.99111695382
2360,Oud-Turnhout,Kerkstraat,11,51.3195295641,4.98018010535
2360,Oud-Turnhout,Jozef Van Miertstraat,5,51.3182401762,4.98993494302
2360,Oud-Turnhout,Valkenweg,2,51.3206080821,5.02255869108
2360,Oud-Turnhout,Steenweg op Sevendonk,37,51.3154776552,4.98022576723
2360,Oud-Turnhout,Engelstraat,14,51.3103699031,5.02194817203
2360,Oud-Turnhout,Neerstraat,62,51.3144988158,4.98362756615
2360,Oud-Turnhout,Eksterstraat,10,51.3170697385,5.00552446369
2360,Oud-Turnhout,Rode Kruisstraat,30,51.322258777,4.97953635046
2360,Oud-Turnhout,Dode Dreef,60,51.3461431205,4.97539504528
2360,Oud-Turnhout,Neerstraat,205,51.3054252271,4.99122751439
2360,Oud-Turnhout,Sint-Antoniusstraat,26,51.3400429549,4.97492705798
2360,Oud-Turnhout,Kraaienbosstraat,4,51.3186282007,4.99493322308
2360,Oud-Turnhout,Rode Kruisstraat,12,51.321476953,4.98030614001
2360,Oud-Turnhout,Hoge Darisdonk,23,51.2927885367,4.99551022608
2360,Oud-Turnhout,Neerstraat,166,51.308354586,4.98916554389
2360,Oud-Turnhout,Neerstraat,113,51.3121202689,4.98767147684
2360,Oud-Turnhout,Oude Retiese Baan,4,51.3073866738,5.0108912334
2360,Oud-Turnhout,Begijnenhoefstraat,22,51.3177956244,5.00634525331
2360,Oud-Turnhout,Blijkerstraat,4,51.3026505821,5.00647151185
2360,Oud-Turnhout,Jef Claesenstraat,62,51.316643275,4.98781375101
2360,Oud-Turnhout,Meibloemstraat,11,51.3152899817,4.98903394125
2360,Oud-Turnhout,Van der Bekenlaan,38,51.3201191333,4.98340313498
2360,Oud-Turnhout,Steenweg op Ravels,298,51.3481724148,4.97946520481
2360,Oud-Turnhout,Alois Peetersstraat,12,51.3189425405,4.99013754364
2360,Oud-Turnhout,Steenweg op Turnhout,16,51.3190415366,4.98027696122
2360,Oud-Turnhout,Fazantendreef,5,51.3167610515,5.02088148672
2360,Oud-Turnhout,Steenweg op Turnhout,103,51.3202340803,4.97289643597
2360,Oud-Turnhout,Wezelakkers,18,51.3347676281,4.97551181399
2360,Oud-Turnhout,Onze Lieve Vrouwstraat,41,51.3197355441,4.99101726079
2360,Oud-Turnhout,Rabauwakkers,43,51.339137185,4.97366634536
2360,Oud-Turnhout,Steenweg op Mol,38,51.3172494712,4.98465680773
2360,Oud-Turnhout,Jagersstraat,7,51.3081871302,5.02544473693
2360,Oud-Turnhout,Kleiputstraat,6,51.3494166039,4.96922698112
2360,Oud-Turnhout,Oude Arendonkse Baan,117,51.3132156732,5.01115175332
2360,Oud-Turnhout,Hazenweg,11,51.3204428855,5.01649153232
2360,Oud-Turnhout,Oude Arendonkse Baan,38,51.3125069518,5.00157327329
2360,Oud-Turnhout,Kinschotsebaan,7,51.2935348313,5.03234799797
2360,Oud-Turnhout,Draaiboom,107,51.323173763,4.99751450378
2360,Oud-Turnhout,Steenweg op Mol,117,51.3123374819,4.99420897239
2360,Oud-Turnhout,Lijnwaadstraat,8,51.3081032491,5.00303802128
2360,Oud-Turnhout,Donk,14,51.3011995529,5.02243632874
2360,Oud-Turnhout,Tramwissel,10,51.3208212814,4.97479639553
2360,Oud-Turnhout,Sint-Bavostraat,36,51.3195148377,4.98809499087
2360,Oud-Turnhout,Kruispad,1,51.3215066489,4.99046173538
2360,Oud-Turnhout,Steenweg op Ravels,155,51.3422308997,4.97295205365
2360,Oud-Turnhout,Nieuwe Staatsbaan,51,51.312618131,5.03319367359
2360,Oud-Turnhout,Staatsbaan,59,51.3106140699,5.02353460986
2360,Oud-Turnhout,Steenweg op Ravels,58,51.3376728902,4.96875920002
2360,Oud-Turnhout,Draaiboom,28,51.3221530414,4.98889459224
2360,Oud-Turnhout,Augustijnenstraat,33,51.3102864439,4.994239314
2360,Oud-Turnhout,Wezelakkers,106,51.3335271977,4.97571428374
2360,Oud-Turnhout,Veldstraat,23,51.3421438238,4.9690424077
2360,Oud-Turnhout,Bruno'sstraat,15,51.3338449288,4.98949718044
2360,Oud-Turnhout,Steenweg op Sevendonk,20,51.3171542172,4.98054530684
2360,Oud-Turnhout,Zweepstraat,16,51.3143780342,4.99361095268
2360,Oud-Turnhout,Ganzendreef,4,51.3130465185,5.03004824319
2360,Oud-Turnhout,Kleiputstraat,25,51.3490288434,4.96764900167
2360,Oud-Turnhout,Lijnwaadstraat,10,51.3080189725,5.00324954243
2360,Oud-Turnhout,Dorp,21,51.318370081,4.98137718491
2360,Oud-Turnhout,Dennenlaan,16,51.3141627067,5.02374293955
2360,Oud-Turnhout,Korenbloemstraat,34,51.3174125601,4.99181004807
2360,Oud-Turnhout,Steenweg op Ravels,23,51.3373374569,4.96923629604
2360,Oud-Turnhout,Brooseinde,34,51.3178886616,4.99373861934
2360,Oud-Turnhout,Bosdreef,25,51.3046321043,5.00922923161
2360,Oud-Turnhout,Steenweg op Ravels,173,51.3432556172,4.9744887857
2360,Oud-Turnhout,Hoge Darisdonk,4,51.2954497281,4.98913586732
2360,Oud-Turnhout,Roskamstraat,7,51.3206759178,4.97634355734
2360,Oud-Turnhout,Nieuwe Staatsbaan,5,51.3067072517,5.02096359263
2360,Oud-Turnhout,Steenweg op Oosthoven,123,51.3269960968,4.97561562863
2360,Oud-Turnhout,Korenbloemstraat,16,51.3165708775,4.99119764082
2360,Oud-Turnhout,Brooseinde,69,51.3189107142,4.99396221536
2360,Oud-Turnhout,Donk,75,51.296331063,5.02974572776
2360,Oud-Turnhout,Eug. Surinxstraat,11,51.31954642,4.98990678804
2360,Oud-Turnhout,Eggestraat,1,51.3100415015,4.97433474989
2360,Oud-Turnhout,Steenweg op Oosthoven,89,51.3244431714,4.97629469143
2360,Oud-Turnhout,Aastraat,16,51.3529329922,4.98907005321
2360,Oud-Turnhout,Weilandstraat,16,51.3508709474,4.96617738309
2360,Oud-Turnhout,Pausenstraat,33,51.3199242626,4.98575329921
2360,Oud-Turnhout,Nieuwstraat,23,51.3383647644,4.97364294166
2360,Oud-Turnhout,Blijkerstraat,41,51.3007075933,5.00942580546
2360,Oud-Turnhout,Guldenweg,1,51.314631358,5.00890962714
2360,Oud-Turnhout,Heieinde,37,51.338716486,4.97940187914
2360,Oud-Turnhout,Tramwissel,8,51.3207456257,4.97491418114
2360,Oud-Turnhout,Steenweg op Ravels,76,51.3382170814,4.96921179185
2360,Oud-Turnhout,Steenweg op Ravels,191,51.3442626648,4.97561116382
2360,Oud-Turnhout,Lentedreef,20,51.3018362957,5.01116171625
2360,Oud-Turnhout,Kuiltjesstraat,89,51.3480523081,4.97238707212
2360,Oud-Turnhout,Blijkerstraat,23,51.3035537769,5.0070811295
2360,Oud-Turnhout,Pausenstraat,111,51.3213975848,4.98873776498
2360,Oud-Turnhout,Kraaienbosstraat,23,51.3169483777,5.00093364658
2360,Oud-Turnhout,Kraaienstraat,4,51.3157179849,5.00620774636
2360,Oud-Turnhout,Begijnenhoefstraat,29,51.3188969885,5.00435278283
2360,Oud-Turnhout,Krekelweg,8,51.3185250238,5.02013009042
2360,Oud-Turnhout,Onze Lieve Vrouwstraat,23,51.3203198569,4.99035376808
2360,Oud-Turnhout,Corn. Mertenslaan,1,51.3180667099,4.96947383854
2360,Oud-Turnhout,Werkendam,87,51.352130266,4.96987570917
2360,Oud-Turnhout,Lage Darisdonk,20,51.3044225825,4.98882886262
2360,Oud-Turnhout,Heerestraat,54,51.3321199238,4.97427100105
2360,Oud-Turnhout,Schuurhovenberg,18,51.3284522521,4.99367697847
2360,Oud-Turnhout,Polderstraat,13,51.3367395102,4.97392397799
2360,Oud-Turnhout,Bosdreef,5,51.3016760782,5.00939599146
2360,Oud-Turnhout,Lentedreef,9,51.3033899046,5.01358169871
2360,Oud-Turnhout,Steenweg op Sevendonk,55,51.3143849335,4.98008818923
2360,Oud-Turnhout,Steenweg op Mol,163,51.3093525915,5.00349892232
2360,Oud-Turnhout,Dijkzijde,42,51.3187004233,4.97296284894
2360,Oud-Turnhout,Lage Darisdonk,9,51.3040430943,4.98971972361
2360,Oud-Turnhout,Tijkstraat,8,51.3075689548,5.00227068707
2360,Oud-Turnhout,Eigen,10,51.3134312791,4.97881482104
2360,Oud-Turnhout,Beukenlaan,11,51.312740133,5.01971542985
2360,Oud-Turnhout,Dode Dreef,77,51.3476063855,4.9758895213
2360,Oud-Turnhout,Hendrik van Zellestraat,19,51.3083667677,4.99296785202
2360,Oud-Turnhout,Kerkedries,14,51.3226861406,4.9882591895
2360,Oud-Turnhout,Donk,57,51.2979102845,5.02690124499
2360,Oud-Turnhout,Neerstraat,141,51.3106406956,4.98882145954
2360,Oud-Turnhout,Paradijs,16,51.3159523044,5.0109311145
2360,Oud-Turnhout,Draaiboom,48,51.3226117122,4.99088219794
2360,Oud-Turnhout,Pastoor Geptsstraat,14,51.3133039001,4.99534956127
2360,Oud-Turnhout,Kerkstraat,18,51.3196386142,4.97968853196
2360,Oud-Turnhout,Sint-Antoniusstraat,44,51.3404758106,4.97274955621
2360,Oud-Turnhout,Warande,7,51.3100331979,5.00946900168
2360,Oud-Turnhout,Alois Peetersstraat,9,51.3192541139,4.98994204048
2360,Oud-Turnhout,Rhoode,91,51.3052413034,5.04478307326
2360,Oud-Turnhout,Steenweg op Sevendonk,133,51.3100241331,4.97791121161
2360,Oud-Turnhout,Reebokweg,7,51.3211744405,5.01849377336
2360,Oud-Turnhout,Neerstraat,26,51.3163177357,4.98209597473
2360,Oud-Turnhout,Steenweg op Sevendonk,73,51.3136539345,4.98037933255
2360,Oud-Turnhout,Polderstraat,31,51.3367703222,4.97336446525
2360,Oud-Turnhout,Taxandriastraat,19,51.318076731,4.98542153044
2360,Oud-Turnhout,De Laks,13,51.3536774593,5.00169861094
2360,Oud-Turnhout,Meibloemstraat,18,51.3162775445,4.98976857992
2360,Oud-Turnhout,Bergstraat,22,51.3242368442,5.02083490222
2360,Oud-Turnhout,Rabauwakkers,53,51.3391004284,4.97477269253
2360,Oud-Turnhout,Eug. Surinxstraat,8,51.3198968537,4.98982526293
2360,Oud-Turnhout,Kuiltjesstraat,151,51.3516242281,4.96973451856
2360,Oud-Turnhout,Goudbloemstraat,9,51.3160673812,4.99030234554
2360,Oud-Turnhout,Bosrand,6,51.3124268098,5.00930235455
2360,Oud-Turnhout,Torteldreef,10,51.3141543186,5.03458893029
2360,Oud-Turnhout,Dode Dreef,59,51.3465943742,4.97498256539
2360,Oud-Turnhout,Jef Claesenstraat,26,51.3181712647,4.98611572879
2360,Oud-Turnhout,Kruispad,28,51.3198683464,4.99375534447
2360,Oud-Turnhout,Dijkzijde,24,51.3189383633,4.97422548155
2360,Oud-Turnhout,Kerkstraat,46,51.3212989848,4.98193908859
2360,Oud-Turnhout,Steenweg op Ravels,310,51.3489596283,4.98067921445
2360,Oud-Turnhout,Staatsbaan,60,51.3120732868,5.02010694678
2360,Oud-Turnhout,Oude Arendonkse Baan,31,51.3149724207,4.99192592849
2360,Oud-Turnhout,Kuiltjesstraat,36,51.3446774648,4.97158256428
2360,Oud-Turnhout,Arselt,14,51.3001542253,5.02811691347
2360,Oud-Turnhout,Schuurhovenberg,46,51.3258237571,4.99740259587
2360,Oud-Turnhout,Wezelakkers,11,51.3356260691,4.97506112945
2360,Oud-Turnhout,Heieinde,55,51.3393121618,4.98099856461
2360,Oud-Turnhout,Steenweg op Mol,31,51.3161894859,4.98510374792
2360,Oud-Turnhout,Rist,37,51.3404814077,4.96715061717
2360,Oud-Turnhout,Pausenstraat,51,51.3204184108,4.98679279933
2360,Oud-Turnhout,Kapelstraat,24,51.3195638302,4.98215645859
2360,Oud-Turnhout,Neerstraat,97,51.313020707,4.98660809509
2360,Oud-Turnhout,Steenweg op Turnhout,138,51.3211642351,4.97020528889
2360,Oud-Turnhout,Schoutenhoefstraat,10,51.3058180357,5.00332346811
2360,Oud-Turnhout,Steenweg op Ravels,281,51.3497987006,4.98440379422
2360,Oud-Turnhout,Kuiltjesstraat,133,51.3506865699,4.9700551034
2360,Oud-Turnhout,Van der Bekenlaan,31,51.3197814056,4.983721556
2360,Oud-Turnhout,Molenbergen,24,51.3136416609,4.98739226793
2360,Oud-Turnhout,Oude Arendonkse Baan,13,51.3148125776,4.9903250079
2360,Oud-Turnhout,Kleine Vondelweg,15,51.3222977508,4.97804340909
2360,Oud-Turnhout,Steenweg op Sevendonk,115,51.3106305587,4.98019800134
2360,Oud-Turnhout,Jef Claesenstraat,44,51.3175017093,4.98689328849
2360,Oud-Turnhout,Jan de Beerstraat,10,51.3100366738,4.99272080511
2360,Oud-Turnhout,Jozef Van Miertstraat,15,51.3178408845,4.99096722249
2360,Oud-Turnhout,Arselt,32,51.2984219316,5.03602768641
2360,Oud-Turnhout,Neerstraat,194,51.3065960871,4.98990439702
2360,Oud-Turnhout,Pastoor Kerselaersstraat,4,51.3192939631,4.99154394301
2360,Oud-Turnhout,Taxandriastraat,9,51.3182847172,4.98492182924
2360,Oud-Turnhout,Jozef Embrechtsstraat,13,51.3173291012,4.98770770827
2360,Oud-Turnhout,Polderstraat,66,51.3359902616,4.96919018407
2360,Oud-Turnhout,Sint-Bavostraat,7,51.3214426811,4.98631827081
2360,Oud-Turnhout,Nieuwe Staatsbaan,68,51.3119642267,5.0339292434
2360,Oud-Turnhout,Jan Roesstraat,14,51.3174956381,4.98915302501
2360,Oud-Turnhout,Steenweg op Mol,110,51.3152324669,4.98807077209
2360,Oud-Turnhout,Staatsbaan,42,51.3122947594,5.01724295288
2360,Oud-Turnhout,Steenweg op Ravels,127,51.3410864467,4.97171391015
2360,Oud-Turnhout,Schuurhovenberg,47,51.327198892,4.99736653971
2360,Oud-Turnhout,Zwanendreef,17,51.3077733807,5.01752749693
2360,Oud-Turnhout,Steenweg op Oosthoven,54,51.3242400874,4.97563630105
2360,Oud-Turnhout,Schuurhoven,27,51.3359092077,4.97897855634
2360,Oud-Turnhout,Hendrik van Zellestraat,9,51.309345047,4.99245955028
2360,Oud-Turnhout,Kerkstraat,82,51.3229220121,4.98437952869
2360,Oud-Turnhout,Gemeentestraat,24,51.3211086998,4.9871914355
2360,Oud-Turnhout,Beukenlaan,1,51.3125468074,5.02215932799
2360,Oud-Turnhout,Heieinde,91,51.3414692755,4.98518674181
2360,Oud-Turnhout,Verbindingsweg,23,51.348107177,4.97347143006
2360,Oud-Turnhout,Sprinkhaanweg,16,51.3182767449,5.0181708358
2360,Oud-Turnhout,Steenweg op Ravels,198,51.3426367838,4.97271020519
2360,Oud-Turnhout,Korenbloemstraat,52,51.3183510894,4.99268669831
2360,Oud-Turnhout,Brooseinde,52,51.3194449938,4.99642238824
2360,Oud-Turnhout,Landbouwstraat,7,51.3512622188,4.96749149002
2360,Oud-Turnhout,Mellestraat,1,51.2954146332,4.9872896937
2360,Oud-Turnhout,Rode Kruisstraat,9,51.3218182484,4.98020003288
2360,Oud-Turnhout,Staprijk,27,51.3075235243,5.00138755718
2360,Oud-Turnhout,Corn. Mertenslaan,11,51.3170670829,4.96946306927
2360,Oud-Turnhout,Eug. Surinxstraat,18,51.3197247792,4.98918120465
2360,Oud-Turnhout,Veestraat,2,51.3493972158,4.96876067868
2360,Oud-Turnhout,Van der Bekenlaan,13,51.3187159528,4.98300719031
2360,Oud-Turnhout,Draaiboom,56,51.3228876435,4.99187527766
2360,Oud-Turnhout,Dorp,28,51.3180793731,4.98212825984
2360,Oud-Turnhout,Lage Darisdonk,37,51.3015011247,4.9882889096
2360,Oud-Turnhout,Meibloemstraat,8,51.3154839525,4.9896677598
2360,Oud-Turnhout,Steenweg op Mol,66,51.3162935194,4.98614830252
2360,Oud-Turnhout,Koning Boudewijnlaan,9,51.3175394649,4.98030037101
2360,Oud-Turnhout,Corn. Mertenslaan,10,51.3174685248,4.96873200859
2360,Oud-Turnhout,Ganzendreef,7,51.3144078882,5.02806911179
2360,Oud-Turnhout,Korenbloemstraat,13,51.3164568192,4.99059843313
2360,Oud-Turnhout,Bosrand,12,51.3129952071,5.00806084353
2360,Oud-Turnhout,Lage Mierdse Weg,9,51.3436496653,4.99523665679
2360,Oud-Turnhout,Neerstraat,74,51.314004094,4.98416416858
2360,Oud-Turnhout,Eug. Surinxstraat,27,51.3190570025,4.98798604329
2360,Oud-Turnhout,Rist,45,51.3410117801,4.96699514309
2360,Oud-Turnhout,Aastraat,13,51.3533897262,4.98868413075
2360,Oud-Turnhout,Het Bergske,25,51.3145836754,4.97759304292
2360,Oud-Turnhout,Vlinderweg,29,51.319219894,5.01620209384
2360,Oud-Turnhout,Rist,63,51.3419118384,4.96569964716
2360,Oud-Turnhout,Steenweg op Ravels,266,51.3457720849,4.9764822577
2360,Oud-Turnhout,Brooseinde,22,51.317180834,4.99307346408
2360,Oud-Turnhout,Neerstraat,56,51.3147408577,4.98349193143
2360,Oud-Turnhout,Oude Arendonkse Baan,8,51.3146208394,4.99167868111
2360,Oud-Turnhout,Kuiltjesstraat,100,51.3498485124,4.969895264
2360,Oud-Turnhout,De Hoogt,3,51.322911101,4.97822043682
2360,Oud-Turnhout,Bosduivenlaan,1A,51.3138725053,5.02721947318
2360,Oud-Turnhout,Van der Bekenlaan,8,51.31871622,4.98253987087
2360,Oud-Turnhout,Pastoor Geptsstraat,3,51.3142037105,4.99594629141
2360,Oud-Turnhout,Steenweg op Mol,123,51.3121767612,4.9946696217
2360,Oud-Turnhout,Lijsterdreef,4,51.3170871929,5.03001077833
2360,Oud-Turnhout,Dode Dreef,50,51.3453960642,4.97478938973
2360,Oud-Turnhout,Heerestraat,99,51.3357737932,4.9729596218
2360,Oud-Turnhout,Dorp,17,51.3185113761,4.98101270692
2360,Oud-Turnhout,Schuurhovendijk,2,51.33164446,4.99109812894
2360,Oud-Turnhout,Eigen,37,51.3174649053,4.97325861317
2360,Oud-Turnhout,Nieuwstraat,15,51.3377935251,4.97359718971
2360,Oud-Turnhout,Dennenlaan,22,51.3151868264,5.02291731073
2360,Oud-Turnhout,Nadorst,40,51.3211822571,4.97454964209
2360,Oud-Turnhout,Kuiltjesstraat,82,51.3485297272,4.97133488404
2360,Oud-Turnhout,Kuiltjesstraat,46,51.3455281089,4.97165345311
2360,Oud-Turnhout,Schuurhoven,18,51.3365361483,4.97798190657
2360,Oud-Turnhout,Jan de Beerstraat,11,51.3104171694,4.99244467935
2360,Oud-Turnhout,Zandstraat,64,51.3097818353,4.98740012792
2360,Oud-Turnhout,Tweesprongdreef,7,51.3091592296,5.01566931796
2360,Oud-Turnhout,Polderstraat,43,51.3367697583,4.97197715674
2360,Oud-Turnhout,Steenweg op Turnhout,137,51.3206144963,4.97068531071
2360,Oud-Turnhout,Schuurhoven,64,51.3348232674,4.98316275872
2360,Oud-Turnhout,Leemstraat,3,51.3497119661,4.9677518257
2360,Oud-Turnhout,Veldstraat,24,51.3428041105,4.97019157988
2360,Oud-Turnhout,Wezelakkers,72,51.33361193,4.9780643746
2360,Oud-Turnhout,Goudbloemstraat,2,51.3157894207,4.99007043175
2360,Oud-Turnhout,Donk,24,51.3001696341,5.02448712553
2360,Oud-Turnhout,Vlinderweg,5,51.3165698571,5.01803883888
2360,Oud-Turnhout,Donk,52,51.2956530254,5.03161593552
2360,Oud-Turnhout,Horzelweg,12,51.3189898319,5.0191949207
2360,Oud-Turnhout,Paradijs,13,51.3168643207,5.01002559856
2360,Oud-Turnhout,Kleiputstraat,22,51.3493743451,4.96658255787
2360,Oud-Turnhout,Veldbloemstraat,8,51.3150265802,4.98991608987
2360,Oud-Turnhout,Schoutenhoefstraat,20,51.3055709424,5.00135983911
2360,Oud-Turnhout,Kuiltjesstraat,18,51.3434337787,4.97154432195
2360,Oud-Turnhout,Steenweg op Mol,176,51.3089866372,5.00609780217
2360,Oud-Turnhout,Schuurhoven,46,51.3356634907,4.98120244991
2360,Oud-Turnhout,Het Bergske,1,51.3144927038,4.97892126234
2360,Oud-Turnhout,Korenbloemstraat,31,51.3178486346,4.99166399523
2360,Oud-Turnhout,Steenweg op Turnhout,13,51.3185901403,4.97968565048
2360,Oud-Turnhout,Steenweg op Sevendonk,36,51.3165001728,4.98039900294
2360,Oud-Turnhout,Steenweg op Sevendonk,89,51.3130403643,4.98050593108
2360,Oud-Turnhout,Dijkzijde,58,51.3185206091,4.97106770556
2360,Oud-Turnhout,Steenweg op Turnhout,66,51.3202436944,4.97563790355
2360,Oud-Turnhout,Staatsbaan,49,51.3110833466,5.0214370243
2360,Oud-Turnhout,Van der Bekenlaan,61,51.3214834637,4.98473601658
2360,Oud-Turnhout,Burg. Van Loonstraat,10,51.3411717723,4.97517599333
2360,Oud-Turnhout,Rabauwakkers,12,51.3395439836,4.97273500068
2360,Oud-Turnhout,Koning Boudewijnlaan,35,51.317584414,4.97698488755
2360,Oud-Turnhout,Neerstraat,28,51.3160925006,4.98197209048
2360,Oud-Turnhout,Pausenstraat,49,51.3203649436,4.98668694401
2360,Oud-Turnhout,Sint-Annaplein,29,51.3189539991,4.98650624088
2360,Oud-Turnhout,Steenweg op Ravels,59,51.3384150396,4.96991304801
2360,Oud-Turnhout,Hendrickxstraat,12,51.3196099013,4.96977751289
2360,Oud-Turnhout,Begijnenhoefstraat,25,51.3184521677,5.00511983123
2360,Oud-Turnhout,Draaiboom,80,51.3243165718,4.99617014609
2360,Oud-Turnhout,Koning Boudewijnlaan,17,51.3177714165,4.97812936922
2360,Oud-Turnhout,Jef Claesenstraat,19,51.318479326,4.98638546802
2360,Oud-Turnhout,Kleine Heerestraat,9,51.3304850103,4.97729293763
2360,Oud-Turnhout,Landbouwstraat,11,51.3513293999,4.96705685892
2360,Oud-Turnhout,Schoutenhoefstraat,37,51.3048508103,4.99154604914
2360,Oud-Turnhout,Rode Kruisstraat,26,51.3223363614,4.98002093918
2360,Oud-Turnhout,Wezelakkers,116,51.3332283389,4.97630985237
2360,Oud-Turnhout,Zweepstraat,5,51.3137868454,4.99233743548
2360,Oud-Turnhout,Rabauwakkers,30,51.3394490053,4.97485803188
2360,Oud-Turnhout,Onze Lieve Vrouwstraat,42,51.3183902465,4.99093412787
2360,Oud-Turnhout,Steenweg op Mol,70,51.316165551,4.98638455432
2360,Oud-Turnhout,Fazantendreef,6,51.3165022498,5.0220271796
2360,Oud-Turnhout,Kleiputstraat,5,51.3490095946,4.96949744342
2360,Oud-Turnhout,Steenweg op Turnhout,120,51.320998684,4.97122763366
2360,Oud-Turnhout,Hendrik van Zellestraat,35,51.3080646646,4.99156974638
2360,Oud-Turnhout,Werkendam,84,51.3505636248,4.97224373758
2360,Oud-Turnhout,Meibloemstraat,27,51.3159595029,4.98919233073
2360,Oud-Turnhout,Winterdreef,17,51.300365928,5.00437919712
2360,Oud-Turnhout,Hendrickxstraat,30,51.3192641729,4.97031567554
2360,Oud-Turnhout,Sint-Antoniusstraat,21,51.3392753073,4.97586687988
2360,Oud-Turnhout,Driedostraat,16,51.3110476035,4.9906020794
2360,Oud-Turnhout,Steenweg op Ravels,303,51.3538202977,4.98659567159
2360,Oud-Turnhout,Steenweg op Ravels,95,51.3397251837,4.97072343239
2360,Oud-Turnhout,Hendrik van Zellestraat,17,51.308521833,4.99284560007
2360,Oud-Turnhout,Eigen,20,51.3135437816,4.97817548553
2360,Oud-Turnhout,Steenweg op Mol,105,51.3123977473,4.99246365334
2360,Oud-Turnhout,Pausenstraat,85,51.3213474485,4.98773813257
2360,Oud-Turnhout,Steenweg op Ravels,141,51.341624025,4.9722624916
2360,Oud-Turnhout,Bosdreef,22,51.3039583256,5.00951275922
2360,Oud-Turnhout,Neerstraat,127,51.3115401481,4.98824057392
2360,Oud-Turnhout,Schuurhovenberg,36,51.326773221,5.00075671075
2360,Oud-Turnhout,Lintbekelaan,3,51.3130677057,5.01702340096
2360,Oud-Turnhout,Polderstraat,61,51.3367914834,4.97136457522
2360,Oud-Turnhout,Beukenlaan,10,51.3132096993,5.02072553123
2360,Oud-Turnhout,Draaiboom,115,51.3223868023,4.99780811413
2360,Oud-Turnhout,Schuurhoven,82,51.3343143925,4.98455617241
2360,Oud-Turnhout,Staatsbaan,32,51.3118776413,5.01630118738
2360,Oud-Turnhout,Steenweg op Ravels,77,51.3388751923,4.97024058774
2360,Oud-Turnhout,Burg. Luytenstraat,14,51.3096794884,4.97990440602
2360,Oud-Turnhout,Kruispad,35,51.3201562248,4.99520397621
2360,Oud-Turnhout,Kerkstraat,36,51.3206596913,4.9807492439
2360,Oud-Turnhout,Nieuwstraat,33,51.3378114094,4.97273486004
2360,Oud-Turnhout,Heieinde,27,51.3382799405,4.9784747344
2360,Oud-Turnhout,Begijnenhoefstraat,1,51.314292048,5.00796150186
2360,Oud-Turnhout,Staatsbaan,67,51.3105641555,5.02624715955
2360,Oud-Turnhout,Sint-Annaplein,5,51.3192398839,4.9862716432
2360,Oud-Turnhout,Driedostraat,34,51.3118910347,4.99212971837
2360,Oud-Turnhout,Onze Lieve Vrouwstraat,7,51.320858413,4.98972493494
2360,Oud-Turnhout,Sportveldstraat,18,51.3200800985,4.98911064065
2360,Oud-Turnhout,Kraaienbosstraat,51,51.3144224828,5.00697638287
2360,Oud-Turnhout,Witte Bremlaan,9,51.3115080876,5.00677674548
2360,Oud-Turnhout,Koningin Fabiolalaan,6,51.3173353277,4.97803716049
2360,Oud-Turnhout,Pausenstraat,67,51.3209461475,4.98781871143
2360,Oud-Turnhout,Kerkstraat,90,51.3226624132,4.98479726118
2360,Oud-Turnhout,Spreeuwendreef,6,51.3130506235,5.03180464667
2360,Oud-Turnhout,Bosdreef,6,51.3021048149,5.00886663225
2360,Oud-Turnhout,Steenweg op Mol,16,51.3177489249,4.98320970632
2360,Oud-Turnhout,Steenweg op Turnhout,38,51.3193281352,4.97878665679
2360,Oud-Turnhout,Dode Dreef,85,51.3480582645,4.97619698288
2360,Oud-Turnhout,Steenweg op Sevendonk,169,51.3064583102,4.97033078691
2360,Oud-Turnhout,Dijkzijde,41,51.3183295935,4.97306288045
2360,Oud-Turnhout,Eug. Surinxstraat,10,51.3198856518,4.98971609706
2360,Oud-Turnhout,Herfstdreef,7,51.2999420024,5.00685633268
2360,Oud-Turnhout,Oude Arendonkse Baan,25,51.3148839403,4.99169353796
2360,Oud-Turnhout,Bosrand,19,51.3126780882,5.00694669498
2360,Oud-Turnhout,Steenweg op Ravels,131,51.3411987696,4.97180807419
2360,Oud-Turnhout,Heieinde,2,51.3373048332,4.97510858202
2360,Oud-Turnhout,Kerkstraat,72,51.322513031,4.98439921451
2360,Oud-Turnhout,Jagersstraat,21,51.3079969374,5.02393628459
2360,Oud-Turnhout,Sint-Ritaplein,13,51.316816814,4.98816230936
2360,Oud-Turnhout,Corn. Mertenslaan,27,51.3159740616,4.96968344988
2360,Oud-Turnhout,Dode Dreef,67,51.3471358911,4.97544346328
2360,Oud-Turnhout,De Hoogt,20,51.3251184462,4.97774972295
2360,Oud-Turnhout,Dode Dreef,93,51.3486737334,4.97669605195
2360,Oud-Turnhout,Werkendam,31,51.3493999802,4.97494268445
2360,Oud-Turnhout,Zwanendreef,12,51.3078072791,5.01492974859
2360,Oud-Turnhout,Steenweg op Mol,34,51.3174052432,4.98406849525
2360,Oud-Turnhout,Neerstraat,200,51.3061285481,4.99015411888
2360,Oud-Turnhout,Dennenlaan,6,51.3126543089,5.02355789897
2360,Oud-Turnhout,Kerkstraat,54,51.3218117738,4.98256239488
2360,Oud-Turnhout,Corn. Mertenslaan,2,51.3180110204,4.96877530152
2360,Oud-Turnhout,Kerkstraat,3,51.3192203421,4.97973208998
2360,Oud-Turnhout,Sprinkhaanweg,13,51.3179300408,5.01781442798
2360,Oud-Turnhout,Nieuwstraat,8,51.338671731,4.9740440033
2360,Oud-Turnhout,Kuiltjesstraat,107,51.3492179324,4.9709150817
2360,Oud-Turnhout,Staatsbaan,39,51.3114167364,5.01833128358
2360,Oud-Turnhout,Kleiputstraat,29,51.3490276859,4.96718451762
2360,Oud-Turnhout,Gemeentestraat,23,51.3214812226,4.98707933999
2360,Oud-Turnhout,Neerstraat,109,51.3124963361,4.98744916439
2360,Oud-Turnhout,Rhoode,72,51.3017038138,5.03642335925
2360,Oud-Turnhout,Steenweg op Sevendonk,54,51.3157929599,4.9799660051
2360,Oud-Turnhout,Krekelweg,10,51.3186987311,5.02036561354
2360,Oud-Turnhout,Landbouwstraat,4,51.3516104203,4.96891243057
2360,Oud-Turnhout,Dode Dreef,49,51.3460168031,4.97464650334
2360,Oud-Turnhout,Sint-Bavostraat,18,51.3200764926,4.98744694191
2360,Oud-Turnhout,Bosdreef,29,51.3037876041,5.00858838916
2360,Oud-Turnhout,Wezelakkers,89,51.3326460648,4.97603220588
2360,Oud-Turnhout,Bosrand,5,51.3120312191,5.010465907
2360,Oud-Turnhout,Roskamstraat,12,51.3209114675,4.97543905882
2360,Oud-Turnhout,Molenbergen,32,51.3129733218,4.98760897387
2360,Oud-Turnhout,Kerkedries,11,51.3226919025,4.98890967294
2360,Oud-Turnhout,Jozef Embrechtsstraat,16,51.3177780556,4.98783058748
2360,Oud-Turnhout,Jozef Van Miertstraat,23,51.3176887407,4.99142317542
2360,Oud-Turnhout,Steenweg op Ravels,384,51.3526541382,4.98513496253
2360,Oud-Turnhout,Weilandstraat,6,51.3508432642,4.96735216817
2360,Oud-Turnhout,Donk,87,51.2946878284,5.0310407586
2360,Oud-Turnhout,Jan Roesstraat,15,51.3173151082,4.98970986588
2360,Oud-Turnhout,Schuurhoven,11,51.3365322531,4.97690378909
2360,Oud-Turnhout,Brooseinde,29,51.3166648713,4.99191964754
2360,Oud-Turnhout,Vlinderweg,22,51.3190621896,5.01722893714
2360,Oud-Turnhout,Schuurhoven,125,51.3320374881,4.98157533431
2360,Oud-Turnhout,Donk,69,51.2968624774,5.02917950675
2360,Oud-Turnhout,Molenbergen,14,51.314150299,4.98744636795
2360,Oud-Turnhout,Heerestraat,64,51.3331192032,4.97401456408
2360,Oud-Turnhout,Brooseinde,75,51.319399463,4.99475154728
2360,Oud-Turnhout,Werkendam,66,51.3496312351,4.97362648338
2360,Oud-Turnhout,Jan de Beerstraat,4,51.3097625187,4.99217689525
2360,Oud-Turnhout,Korenbloemstraat,38,51.3175593961,4.99198715088
2360,Oud-Turnhout,Draaiboom,26,51.3220502784,4.98865939908
2360,Oud-Turnhout,Steenweg op Sevendonk,72,51.3149983722,4.97951681239
2360,Oud-Turnhout,Kapelstraat,14,51.3197948714,4.98259930103
2360,Oud-Turnhout,Arselt,24,51.2989934245,5.03331169236
2360,Oud-Turnhout,Kuiltjesstraat,11,51.3428608875,4.97198192081
2360,Oud-Turnhout,Steenweg op Ravels,166,51.3413296519,4.97092231886
2360,Oud-Turnhout,Werkendam,13,51.3481229584,4.97686667517
2360,Oud-Turnhout,Kapelstraat,6,51.3199236774,4.98297983356
2360,Oud-Turnhout,Landbouwstraat,18,51.351680273,4.96716874733
2360,Oud-Turnhout,Steenweg op Turnhout,84,51.3206181405,4.97398931054
2360,Oud-Turnhout,Sint-Antoniusstraat,28,51.340080085,4.97469707449
2360,Oud-Turnhout,Oude Arendonkse Baan,43,51.3152039719,4.99255509595
2360,Oud-Turnhout,Steenweg op Ravels,213,51.3455316664,4.9771967181
2360,Oud-Turnhout,Buizerdweg,6,51.3218443325,5.02283701622
2360,Oud-Turnhout,Steenweg op Mol,69,51.3152349924,4.98691721474
2360,Oud-Turnhout,Hendrickxstraat,19,51.3202443438,4.97086469728
2360,Oud-Turnhout,De Blokken,17,51.3236094929,4.98711095793
2360,Oud-Turnhout,Draaiboom,62,51.3230401774,4.99276213545
2360,Oud-Turnhout,Molenbergen,6,51.3148241342,4.98720979103
2360,Oud-Turnhout,Steenweg op Sevendonk,3,51.3169664748,4.98120105035
2360,Oud-Turnhout,Rabauwakkers,19,51.339176741,4.97280212007
2360,Oud-Turnhout,Meibloemstraat,10,51.3155685554,4.98973199879
2360,Oud-Turnhout,Steenweg op Sevendonk,90,51.3140345984,4.97954258553
2360,Oud-Turnhout,Steenweg op Mol,87,51.3134517806,4.98999199803
2360,Oud-Turnhout,Nieuwe Staatsbaan,49,51.3123771327,5.03279668464
2360,Oud-Turnhout,Jef Claesenstraat,30,51.3179218539,4.98640559935
2360,Oud-Turnhout,Draaiboom,97,51.323352914,4.99612285023
2360,Oud-Turnhout,Neerstraat,155,51.3092023681,4.98966287324
2360,Oud-Turnhout,Eksterstraat,11,51.3175649636,5.00534693403
2360,Oud-Turnhout,Neerstraat,191,51.30640642,4.99071093002
2360,Oud-Turnhout,Heieinde,81,51.3408276728,4.98448250647
2360,Oud-Turnhout,Nieuwe Staatsbaan,67,51.3127143142,5.03696013586
2360,Oud-Turnhout,Steenweg op Oosthoven,91,51.3245737846,4.97623959031
2360,Oud-Turnhout,Pausenstraat,39,51.3201235652,4.986074819
2360,Oud-Turnhout,Paradijs,31,51.3145642797,5.0129891806
2360,Oud-Turnhout,Polderstraat,78,51.3358360351,4.96885098644
2360,Oud-Turnhout,Koningin Fabiolalaan,14,51.3171732872,4.97719480119
2360,Oud-Turnhout,Nieuwe Staatsbaan,14,51.3071522081,5.02281472243
2360,Oud-Turnhout,Brouwerstraat,15,51.3204027483,4.97858344565
2360,Oud-Turnhout,Steenweg op Oosthoven,73,51.3230986036,4.97654106438
2360,Oud-Turnhout,Neerstraat,173,51.3077111936,4.99005710903
2360,Oud-Turnhout,Dijkzijde,94,51.3186692749,4.96864337422
2360,Oud-Turnhout,Hendrickxstraat,5,51.3199389206,4.96955584665
2360,Oud-Turnhout,Schuurhovenberg,54,51.3248931763,4.99794762763
2360,Oud-Turnhout,Onze Lieve Vrouwstraat,59,51.3184439962,4.99154947883
2360,Oud-Turnhout,Polderstraat,25,51.3367802749,4.97352760415
2360,Oud-Turnhout,Pausenstraat,50,51.3198581823,4.98646289102
2360,Oud-Turnhout,Lage Darisdonk,27,51.3022170595,4.98811563038
2360,Oud-Turnhout,Grote Vondelweg,16,51.3218611901,4.97921180908
2360,Oud-Turnhout,Steenweg op Ravels,284,51.3474616431,4.97858981558
2360,Oud-Turnhout,Veestraat,26,51.3507022786,4.96860572595
2360,Oud-Turnhout,Staatsbaan,50,51.3118409834,5.01762772324
2360,Oud-Turnhout,Oude Retiese Baan,15,51.3070678654,5.01508280738
2360,Oud-Turnhout,Rabauwakkers,5,51.339163567,4.97171879943
2360,Oud-Turnhout,Heieinde,48,51.3390760865,4.97942310886
2360,Oud-Turnhout,Onze Lieve Vrouwstraat,24,51.3190356184,4.99101793013
2360,Oud-Turnhout,Witte Bremlaan,26,51.3115521906,5.00365702959
2360,Oud-Turnhout,Sint-Annaplein,22,51.3189241788,4.98755180398
2360,Oud-Turnhout,De Blokken,35,51.3254266225,4.98871649135
2360,Oud-Turnhout,De Blokken,1,51.3226815925,4.98592948626
2360,Oud-Turnhout,Heieinde,63,51.3396724862,4.98199147678
2360,Oud-Turnhout,Kuiltjesstraat,145,51.3511261149,4.96994452843
2360,Oud-Turnhout,Staprijk,3,51.3089682883,5.00300522418
2360,Oud-Turnhout,Koning Boudewijnlaan,47,51.3174728982,4.97629666291
2360,Oud-Turnhout,Sint-Ritaplein,4,51.3163669946,4.98894274926
2360,Oud-Turnhout,Neerstraat,46,51.3152077623,4.98291105689
2360,Oud-Turnhout,Dorp,27,51.3181330404,4.98207489246
2360,Oud-Turnhout,Neringstraat,8,51.3237515642,4.96994885679
2360,Oud-Turnhout,Sint-Bavoplein,5,51.3184906216,4.98962086207
2360,Oud-Turnhout,Steenweg op Ravels,16,51.3363120278,4.96789759984
2360,Oud-Turnhout,Neerstraat,64,51.3143983003,4.98366711264
2360,Oud-Turnhout,Brooseinde,32,51.3177123998,4.99356842935
2360,Oud-Turnhout,Kuiltjesstraat,110,51.3505868749,4.9695268893
2360,Oud-Turnhout,Roskamstraat,5,51.320647881,4.97658733325
2360,Oud-Turnhout,Heidestraat,19,51.3484985845,4.97411049986
2360,Oud-Turnhout,Jozef Embrechtsstraat,9,51.317532357,4.98818317704
2360,Oud-Turnhout,Draaiboom,123,51.3216106949,4.99788597263
2360,Oud-Turnhout,Werkendam,4,51.3471108338,4.97759387449
2360,Oud-Turnhout,Neringstraat,10,51.3237671608,4.97036421439
2360,Oud-Turnhout,Kraaienbosstraat,6,51.3184907626,4.99525711929
2360,Oud-Turnhout,Bruno'sstraat,31,51.33281811,4.99055857375
2360,Oud-Turnhout,Kraaienbosstraat,43,51.3151303161,5.00478936002
2360,Oud-Turnhout,Mellestraat,3,51.2954412827,4.98650726463
2360,Oud-Turnhout,Schuurhoven,28,51.3363622005,4.97873741171
2360,Oud-Turnhout,Eug. Surinxstraat,17,51.3194504451,4.98949167806
2360,Oud-Turnhout,Weilandstraat,14,51.350855531,4.96663191155
2360,Oud-Turnhout,Nieuwstraat,25,51.3383839125,4.97277961334
2360,Oud-Turnhout,Oude Retiese Baan,6,51.3072120654,5.01154675735
2360,Oud-Turnhout,Nadorst,50,51.3213452683,4.97541675001
2360,Oud-Turnhout,Heieinde,88,51.3406926321,4.98312257191
2360,Oud-Turnhout,Steenweg op Turnhout,58,51.3201027534,4.97695200704
2360,Oud-Turnhout,Werkendam,41,51.3498998324,4.97411326285
2360,Oud-Turnhout,Korenbloemstraat,23,51.3170898414,4.99086020667
2360,Oud-Turnhout,Steenweg op Ravels,34,51.3366628867,4.96831438242
2360,Oud-Turnhout,Steenweg op Oosthoven,30,51.3223032775,4.97625122257
2360,Oud-Turnhout,Steenweg op Sevendonk,154,51.3095902511,4.97653294486
2360,Oud-Turnhout,Lijnwaadstraat,6,51.3081785861,5.00280056427
2360,Oud-Turnhout,Donk,42,51.2964530227,5.03019850586
2360,Oud-Turnhout,Nieuwstraat,1,51.3383263246,4.97418228415
2360,Oud-Turnhout,Arselt,69,51.2965988767,5.04339992094
2360,Oud-Turnhout,Zwanendreef,5,51.308466767,5.01423650532
2360,Oud-Turnhout,Donk,34,51.2989059203,5.02738862919
2360,Oud-Turnhout,Blekerijstraat,1,51.3188178091,4.96881139354
2360,Oud-Turnhout,Veldstraat,34,51.3424762044,4.96911415371
2360,Oud-Turnhout,Begijnenhoefstraat,33,51.3194311989,5.00374386546
2360,Oud-Turnhout,Sperwersweg,5,51.3222744626,5.02482813452
2360,Oud-Turnhout,Kuiltjesstraat,28,51.3442761795,4.97157491635
2360,Oud-Turnhout,Oude Arendonkse Baan,68,51.3119427822,5.01168976429
2360,Oud-Turnhout,Rabauwakkers,37,51.3391572938,4.97344245787
2360,Oud-Turnhout,Steenweg op Turnhout,127,51.3201009597,4.97164560631
2360,Oud-Turnhout,Het Bergske,15,51.3146688918,4.97837740888
2360,Oud-Turnhout,Rist,53,51.3416033672,4.9665538663
2360,Oud-Turnhout,Brouwerstraat,6,51.3204912495,4.9792351256
2360,Oud-Turnhout,Spechtendreef,11,51.3172091029,5.03299165285
2360,Oud-Turnhout,Rhoode,79,51.3054133868,5.03965821502
2360,Oud-Turnhout,Veldstraat,16,51.3428836354,4.97090314223
2360,Oud-Turnhout,Sint-Bavostraat,21,51.3201412516,4.98798872788
2360,Oud-Turnhout,Steenweg op Sevendonk,26,51.3168424464,4.98055597643
2360,Oud-Turnhout,Draaiboom,72,51.3234279986,4.9945886263
2360,Oud-Turnhout,Sprinkhaanweg,4,51.3167639222,5.01934722204
2360,Oud-Turnhout,Korte Schoutstraat,39,51.2989257573,5.00246061182
2360,Oud-Turnhout,Primus J. Boschlaan,9,51.314843163,4.96868865161
2360,Oud-Turnhout,Burg. Van Loonstraat,3,51.3412597353,4.97462033061
2360,Oud-Turnhout,Bosduivenlaan,4,51.3140823716,5.03018775967
2360,Oud-Turnhout,Kleiputstraat,14,51.3493741775,4.96762977199
2360,Oud-Turnhout,Steenweg op Sevendonk,79,51.3132938207,4.98035236347
2360,Oud-Turnhout,Dijkzijde,7,51.3192739797,4.97573611962
2360,Oud-Turnhout,Gaaienlaan,1,51.3148832199,5.03506249928
2360,Oud-Turnhout,Steenweg op Turnhout,76,51.3204642247,4.9744707118
2360,Oud-Turnhout,Schuurhoven,56,51.3351723166,4.98237617462
2360,Oud-Turnhout,Bruno'sstraat,13,51.3343795529,4.98881085084
2360,Oud-Turnhout,Sint-Antoniusstraat,11,51.3385722093,4.97557600102
2360,Oud-Turnhout,Kruispad,27,51.3203286072,4.99430590331
2360,Oud-Turnhout,Kerkstraat,26,51.3198058252,4.9799268355
2360,Oud-Turnhout,Draaiboom,90,51.3234105214,4.99808850792
2360,Oud-Turnhout,Korenbloemstraat,76,51.3194407419,4.99290917311
2360,Oud-Turnhout,Winterdreef,27,51.2986886592,5.00279302645
2360,Oud-Turnhout,Jozef Van Miertstraat,7,51.3182030727,4.99001706689
2360,Oud-Turnhout,Steenweg op Ravels,87,51.3394807654,4.97062282686
2360,Oud-Turnhout,Hoge Darisdonk,34,51.2900741808,4.99921867849
2360,Oud-Turnhout,Veldbloemstraat,15,51.3153424625,4.9912444418
2360,Oud-Turnhout,Grote Vondelweg,9,51.321173084,4.97770347133
2360,Oud-Turnhout,Steenweg op Ravels,69,51.3386595552,4.97018929266
2360,Oud-Turnhout,Zwanevenstraat,7,51.307351512,5.00655664859
2360,Oud-Turnhout,Schuurhoven,74,51.3344030366,4.98356656963
2360,Oud-Turnhout,Meibloemstraat,2,51.3152501368,4.98972458916
2360,Oud-Turnhout,Kapelstraat,32,51.3194233248,4.98165672117
2360,Oud-Turnhout,Van der Bekenlaan,51,51.3209584593,4.98459708788
2360,Oud-Turnhout,Wezelakkers,80,51.3332456377,4.97708947995
2360,Oud-Turnhout,Kleine Vondelweg,7,51.322172162,4.97741876268
2360,Oud-Turnhout,Petrus Dielsstraat,35,51.3176117441,4.98590820426
2360,Oud-Turnhout,Hendrickxstraat,20,51.3196211242,4.97011617924
2360,Oud-Turnhout,Werkendam,94,51.3509880141,4.97152668218
2360,Oud-Turnhout,Steenweg op Mol,60,51.3165986476,4.98560171986
2360,Oud-Turnhout,Domin Bauwensstraat,6,51.3200090975,4.98468620825
2360,Oud-Turnhout,Steenweg op Mol,203,51.305381574,5.01323247325
2360,Oud-Turnhout,Brooseinde,67,51.3187710333,4.9938605028
2360,Oud-Turnhout,Onze Lieve Vrouwstraat,52,51.3181234126,4.99063765756
2360,Oud-Turnhout,Steenweg op Sevendonk,97,51.3118978566,4.9802619999
2360,Oud-Turnhout,Meibloemstraat,17,51.3155746592,4.9890994149
2360,Oud-Turnhout,Rabauwakkers,20,51.3394963929,4.97362381066
2360,Oud-Turnhout,Pastoor Kerselaersstraat,13,51.3197479626,4.99193703325
2360,Oud-Turnhout,Het Bergske,33,51.3145187327,4.97695538265
2360,Oud-Turnhout,Steenweg op Ravels,228,51.3439429268,4.97428190045
2360,Oud-Turnhout,Jan Roesstraat,6,51.3178042892,4.98903465086
2360,Oud-Turnhout,Pausenstraat,57,51.3206566865,4.98732714369
2360,Oud-Turnhout,Paradijs,4,51.3154887261,5.0085001842
2360,Oud-Turnhout,Verbindingsweg,6,51.3480452508,4.97561465917
2360,Oud-Turnhout,Nadorst,20,51.3210291091,4.97351010369
2360,Oud-Turnhout,Staatsbaan,22,51.3108238246,5.01271332788
2360,Oud-Turnhout,Dijkzijde,38,51.3187206516,4.97320839171
2360,Oud-Turnhout,Gemeentestraat,7,51.3206987176,4.98550796272
2360,Oud-Turnhout,Corsendonk,11,51.2891468508,5.01535138167
2360,Oud-Turnhout,Brooseinde,49,51.3178206794,4.99306312559
2360,Oud-Turnhout,Koning Boudewijnlaan,27,51.3176820849,4.97744573258
2360,Oud-Turnhout,Staatsbaan,57,51.3110217049,5.02319142161
2360,Oud-Turnhout,Eigen,30,51.3137235337,4.97706028932
2360,Oud-Turnhout,Lintbekelaan,19,51.3182067861,5.02183540737
2360,Oud-Turnhout,Hazenweg,13,51.3206342141,5.01603761326
2360,Oud-Turnhout,Burg. Luytenstraat,22,51.3092505553,4.98020179065
2360,Oud-Turnhout,Steenweg op Mol,115,51.3123510734,4.99410331193
2360,Oud-Turnhout,Warande,12,51.3109466194,5.01004593009
2360,Oud-Turnhout,Begijnenhoefstraat,15,51.3167063667,5.00617052679
2360,Oud-Turnhout,Wezelakkers,126,51.3339956149,4.97693285691
2360,Oud-Turnhout,Korenbloemstraat,58,51.3186273501,4.99274563091
2360,Oud-Turnhout,Neerstraat,137,51.310922932,4.98866675125
2360,Oud-Turnhout,Ambachtstraat,2,51.3264616135,4.97005751678
2360,Oud-Turnhout,Polderstraat,51,51.3367943841,4.97173052301
2360,Oud-Turnhout,Jef Claesenstraat,5,51.3190012159,4.98557020833
2360,Oud-Turnhout,Leeuwerkstraat,17,51.3489759418,4.98753839176
2360,Oud-Turnhout,Wezelakkers,108,51.333374177,4.97573969001
2360,Oud-Turnhout,Gorzendreef,3,51.3162039839,5.02783698569
2360,Oud-Turnhout,Tijkstraat,13,51.3075913338,5.00319380091
2360,Oud-Turnhout,Spreeuwendreef,14,51.3154678102,5.03017764115
2360,Oud-Turnhout,Driedostraat,24,51.3115650419,4.99139263055
2360,Oud-Turnhout,Dode Dreef,75,51.3474869217,4.97589154783
2360,Oud-Turnhout,Bosdreef,14,51.3033259407,5.00995328963
2360,Oud-Turnhout,Hendrik van Zellestraat,27,51.3089092268,4.99115714632
2360,Oud-Turnhout,Nachtegalendreef,4,51.3172437871,5.03053855147
2360,Oud-Turnhout,Sportveldstraat,28,51.3201901898,4.98974785071
2360,Oud-Turnhout,Gemeentestraat,13,51.3209825526,4.98604563426
2360,Oud-Turnhout,Kerkstraat,62,51.3223277554,4.98352229027
2360,Oud-Turnhout,Pastoor Geptsstraat,12,51.3134697315,4.99536728644
2360,Oud-Turnhout,Lijsterdreef,11,51.3178233128,5.02884048076
2360,Oud-Turnhout,Steenweg op Mol,143,51.3110944836,4.99825964944
2360,Oud-Turnhout,Heidestraat,12,51.3492032471,4.9740427513
2360,Oud-Turnhout,Zomerdreef,4,51.3002032891,5.00815623485
2360,Oud-Turnhout,Neerstraat,119,51.3119040284,4.98792545864
2360,Oud-Turnhout,Goordijk,21,51.3141390732,5.02601173648
2360,Oud-Turnhout,De Hoogt,12,51.324278425,4.97928014538
2360,Oud-Turnhout,Dode Dreef,57,51.3465081079,4.97504875226
2360,Oud-Turnhout,Steenweg op Oosthoven,19,51.3200393176,4.97789158652
2360,Oud-Turnhout,Zwanendreef,20,51.3074265598,5.01686371379
2360,Oud-Turnhout,Polderstraat,33,51.3367716199,4.97307505446
2360,Oud-Turnhout,Kerkstraat,80,51.322816234,4.98415204818
2360,Oud-Turnhout,Ganzendreef,16,51.3148925464,5.02871352189
2360,Oud-Turnhout,Dorp,10,51.3182197311,4.98060781484
2360,Oud-Turnhout,Verbindingsweg,25,51.3481034701,4.97337005024
2360,Oud-Turnhout,Steenweg op Ravels,121,51.3408860878,4.97148657773
2360,Oud-Turnhout,Het Bergske,8,51.3149400224,4.97833435138
2360,Oud-Turnhout,Heerestraat,100,51.3352722889,4.97351500431
2360,Oud-Turnhout,Staatsbaan,6,51.3082421336,5.00995685205
2360,Oud-Turnhout,Jagersstraat,11,51.3074641328,5.02624848888
2360,Oud-Turnhout,Kuiltjesstraat,48,51.3456766014,4.97168738594
2360,Oud-Turnhout,Rabauwakkers,55,51.3391063703,4.9749990717
2360,Oud-Turnhout,Corn. Mertenslaan,17,51.3166571877,4.96948617083
2360,Oud-Turnhout,Heerestraat,92,51.3348035551,4.97360216981
2360,Oud-Turnhout,Sportveldstraat,2,51.320465676,4.98823963106
2360,Oud-Turnhout,Kuiltjesstraat,117,51.3499014081,4.97041740991
2360,Oud-Turnhout,Pausenstraat,75,51.3211537816,4.98804138036
2360,Oud-Turnhout,Heieinde,71,51.3401913542,4.98314048151
2360,Oud-Turnhout,Steenweg op Mol,24,51.3176138413,4.98344989559
2360,Oud-Turnhout,Veldbloemstraat,1,51.315304766,4.99008804895
2360,Oud-Turnhout,Steenweg op Ravels,356,51.3507386331,4.98282155362
2360,Oud-Turnhout,Donk,59,51.2976166102,5.02768019893
2360,Oud-Turnhout,Rhoode,44,51.303142977,5.02837438596
2360,Oud-Turnhout,Koning Boudewijnlaan,45,51.3174756796,4.9764026975
2360,Oud-Turnhout,Steenweg op Ravels,9,51.3369150674,4.96902980037
2360,Oud-Turnhout,Werkendam,76,51.3501000938,4.97275688124
2360,Oud-Turnhout,Arselt,16,51.2994126683,5.03003514406
2360,Oud-Turnhout,Wezelakkers,79,51.3329327032,4.97725713082
2360,Oud-Turnhout,Arselt,52,51.2987051372,5.05139369555
2360,Oud-Turnhout,Kleiputstraat,39,51.3490648377,4.96580723297
2360,Oud-Turnhout,Kapelstraat,22,51.3196236319,4.98232421369
2360,Oud-Turnhout,Jef Claesenstraat,37,51.3177689055,4.9871566044
2360,Oud-Turnhout,Oude Arendonkse Baan,51,51.3149659014,4.99352046474
2360,Oud-Turnhout,Steenweg op Sevendonk,44,51.3160673756,4.98008751367
2360,Oud-Turnhout,Rabauwakkers,49,51.3391122407,4.97432612684
2360,Oud-Turnhout,Oude Heerestraat,9,51.3242560064,4.97477477137
2360,Oud-Turnhout,Sint-Bavostraat,28,51.3197601026,4.98779086341
2360,Oud-Turnhout,Heerestraat,56,51.3323312494,4.97421607612
2360,Oud-Turnhout,Molenbergen,22,51.3136881651,4.987162119
2360,Oud-Turnhout,Steenweg op Oosthoven,5,51.31981875,4.97809998543
2360,Oud-Turnhout,Kuiltjesstraat,135,51.3508838623,4.97009024093
2360,Oud-Turnhout,Boomgaardstraat,6,51.3095266123,4.97864698296
2360,Oud-Turnhout,Van der Bekenlaan,1,51.3183375431,4.98269551969
2360,Oud-Turnhout,Oude Arendonkse Baan,15,51.3148337172,4.99045867749
2360,Oud-Turnhout,Jozef Van Miertstraat,13,51.3181127678,4.99028566449
2360,Oud-Turnhout,Draaiboom,36,51.3222221243,4.98972465233
2360,Oud-Turnhout,Kleine Vondelweg,13,51.3222684035,4.97792998612
2360,Oud-Turnhout,Oude Arendonkse Baan,1,51.3147148482,4.98945654504
2360,Oud-Turnhout,Draaiboom,89,51.3231261787,4.99504590455
2360,Oud-Turnhout,Schuurhoven,21,51.336180622,4.97800723413
2360,Oud-Turnhout,Steenweg op Ravels,328,51.3493297876,4.98112660385
2360,Oud-Turnhout,Neerstraat,99,51.3129336227,4.98672612023
2360,Oud-Turnhout,Rhoode,62,51.3017803355,5.0328403497
2360,Oud-Turnhout,Jozef Embrechtsstraat,24,51.317179999,4.98665564273
2360,Oud-Turnhout,Steenweg op Mol,42,51.3170601754,4.98486428589
2360,Oud-Turnhout,Zwanevenstraat,13,51.3067312717,5.00594685441
2360,Oud-Turnhout,Kuiltjesstraat,21,51.3435529003,4.97205075377
2360,Oud-Turnhout,Steenweg op Ravels,103,51.3400289185,4.97100189192
2360,Oud-Turnhout,Steenweg op Sevendonk,62,51.3153642779,4.9796058131
2360,Oud-Turnhout,Eksterstraat,2,51.3159739182,5.00434622941
2360,Oud-Turnhout,Steenweg op Oosthoven,65,51.3221683196,4.97676730973
2360,Oud-Turnhout,Neerstraat,165,51.3084195421,4.9899079683
2360,Oud-Turnhout,Polderstraat,86,51.3360593817,4.96871138411
2360,Oud-Turnhout,Warande,5,51.309907894,5.0098517619
2360,Oud-Turnhout,Alois Peetersstraat,3,51.3191432206,4.98957794186
2360,Oud-Turnhout,Winterdreef,10,51.3009545443,5.00578968526
2360,Oud-Turnhout,Corsendonk,4,51.2861342683,5.00662790557
2360,Oud-Turnhout,Steenweg op Turnhout,7,51.3184443346,4.98005408999
2360,Oud-Turnhout,Kruispad,10,51.3203745277,4.9911193419
2360,Oud-Turnhout,De Laks,15,51.3542232713,4.99567285391
2360,Oud-Turnhout,Werkendam,102,51.3515006193,4.97081822145
2360,Oud-Turnhout,Rist,17,51.3390168099,4.96781897659
2360,Oud-Turnhout,Werkendam,120,51.3519610086,4.9681573427
2360,Oud-Turnhout,Brooseinde,50,51.3193693288,4.9960801206
2360,Oud-Turnhout,Kuiltjesstraat,2,51.3420728266,4.97160587838
2360,Oud-Turnhout,Burg. Luytenstraat,29,51.3092368267,4.98075359266
2360,Oud-Turnhout,Steenweg op Oosthoven,83,51.3240118296,4.97638086309
2360,Oud-Turnhout,Polderstraat,1,51.336862932,4.97469471597
2360,Oud-Turnhout,Kuiltjesstraat,153,51.3517812135,4.96975980365
2360,Oud-Turnhout,Sint-Antoniusstraat,4,51.3376703075,4.97496583755
2360,Oud-Turnhout,Steenweg op Ravels,292,51.3480080916,4.97927703062
2360,Oud-Turnhout,Jef Claesenstraat,20,51.3183020391,4.9859100555
2360,Oud-Turnhout,Draaiboom,54,51.3227989555,4.99159694049
2360,Oud-Turnhout,Lage Darisdonk,35,51.3015952344,4.98801400235
2360,Oud-Turnhout,Aastraat,7,51.3536000236,4.98764077251
2360,Oud-Turnhout,Neerstraat,11,51.316745583,4.98237299527
2360,Oud-Turnhout,Pausenstraat,29,51.3197986652,4.98558667346
2360,Oud-Turnhout,Steenweg op Ravels,70,51.3381034377,4.96916497747
2360,Oud-Turnhout,Koning Boudewijnlaan,10,51.3177797907,4.9796781538
2360,Oud-Turnhout,Sint-Annaplein,14,51.319708757,4.98721053141
2360,Oud-Turnhout,Oude Arendonkse Baan,33,51.3149674473,4.99199987024
2360,Oud-Turnhout,Onze Lieve Vrouwstraat,16,51.3194624339,4.99075211102
2360,Oud-Turnhout,Schuurhoven,2,51.3370290201,4.97590826682
2360,Oud-Turnhout,Onze Lieve Vrouwstraat,69,51.3181498618,4.99128290418
2360,Oud-Turnhout,Steenweg op Ravels,274,51.3465730553,4.97757893113
2360,Oud-Turnhout,Sint-Bavostraat,48,51.3188867301,4.98864488594
2360,Oud-Turnhout,Steenweg op Mol,77,51.3138000698,4.98894851376
2360,Oud-Turnhout,Blijkerstraat,16,51.2997866941,5.00924951896
2360,Oud-Turnhout,Kraaienbosstraat,25,51.3167270248,5.0011971339
2360,Oud-Turnhout,Lintbekelaan,12,51.3167764067,5.02019867303
2360,Oud-Turnhout,Steenweg op Turnhout,109,51.3200548683,4.97261166779
2360,Oud-Turnhout,Augustijnenstraat,6,51.3107465429,4.99192535007
2360,Oud-Turnhout,Dijkzijde,31,51.3184699964,4.97369525824
2360,Oud-Turnhout,Van der Bekenlaan,33,51.3198655557,4.98373514899
2360,Oud-Turnhout,Polderstraat,68,51.3359380247,4.96917544675
2360,Oud-Turnhout,Burg. Luytenstraat,6,51.310042452,4.97955366026
2360,Oud-Turnhout,Hoge Beemdstraat,1,51.3309837428,4.98642743961
2360,Oud-Turnhout,Korenbloemstraat,41,51.3182417977,4.99202011234
2360,Oud-Turnhout,Wouter van Gierlestraat,6,51.3104141267,4.9913155467
2360,Oud-Turnhout,Steenweg op Mol,161,51.3092105536,5.00268126885
2360,Oud-Turnhout,Nieuwe Staatsbaan,57,51.3128450677,5.03455683869
2360,Oud-Turnhout,Onze Lieve Vrouwstraat,34,51.3186957255,4.99106042716
2360,Oud-Turnhout,Steenweg op Ravels,221,51.3463332744,4.97822064009
2360,Oud-Turnhout,Steenweg op Mol,95,51.3125810666,4.99110606286
2360,Oud-Turnhout,Steenweg op Sevendonk,126,51.3115257705,4.97936806656
2360,Oud-Turnhout,Beukenlaan,17,51.3128084974,5.01813517083
2360,Oud-Turnhout,Augustijnenstraat,29,51.3103944637,4.99380091942
2360,Oud-Turnhout,Staatsbaan,40,51.3120287677,5.01696861129
2360,Oud-Turnhout,Lentedreef,3,51.3040330941,5.01447578984
2360,Oud-Turnhout,Warande,19,51.3115480983,5.008921521
2360,Oud-Turnhout,Steenweg op Mol,103,51.3125055833,4.9922806627
2360,Oud-Turnhout,Nieuwe Staatsbaan,65,51.312763453,5.03645542606
2360,Oud-Turnhout,Neerstraat,178,51.307649049,4.98949857794
2360,Oud-Turnhout,Tijkstraat,25,51.3063747385,5.00281095199
2360,Oud-Turnhout,Steenweg op Ravels,305,51.3539977793,4.98668861135
2360,Oud-Turnhout,Tramwissel,5,51.3205866683,4.97506315457
2360,Oud-Turnhout,Bruno'sstraat,21,51.3334408,4.98996283936
