PKANCODE,COMMUNE_NL,STREET_NL,HUISNR,LAT,LON
2390,Malle,Lange Dreef,34,51.3106635873,4.76679356051
2390,Malle,Antwerpsesteenweg,209,51.2968138067,4.69650406747
2390,Malle,Sint Lenaartsebaan,46,51.3049796705,4.72902513065
2390,Malle,Brechtsesteenweg,78,51.3016582911,4.67945466234
2390,Malle,Zoerselbaan,72,51.2925020508,4.69870882876
2390,Malle,Zeepakker,48,51.3014029797,4.70165603987
2390,Malle,Ticheltij,45,51.2990392288,4.6803072802
2390,Malle,Hoogstraatsebaan,96,51.3070253618,4.73731342153
2390,Malle,Blijkerijstraat,2,51.3020707111,4.73453490384
2390,Malle,Oude Baan,20,51.2970587031,4.68328523023
2390,Malle,Frans Van Gielstraat,1,51.3087530897,4.74566167366
2390,Malle,Vlimmersendijk,38,51.2997134937,4.74958354257
2390,Malle,Steenovenstraat,2,51.3044575722,4.70868144832
2390,Malle,Lang Ossegoor,3,51.2902896225,4.675999639
2390,Malle,Pater Hensstraat,7,51.2914296431,4.7442816066
2390,Malle,Leegstede,38,51.3113127547,4.74262832639
2390,Malle,Veldstraat,6,51.302406117,4.72435275555
2390,Malle,Rerum Novarumlaan,45,51.2998360579,4.68483286592
2390,Malle,Het Wild Rijt,16,51.2930592002,4.67418085335
2390,Malle,Antwerpsesteenweg,227,51.2966749932,4.69534812207
2390,Malle,Industrieweg,20,51.2956783074,4.70978992867
2390,Malle,Slachterijstraat,9,51.3051321547,4.73503665403
2390,Malle,Sint Jozeflei,10,51.2979447021,4.69327931584
2390,Malle,Silvesterdennenlaan,5,51.2924755503,4.73382689071
2390,Malle,Hoogstraatsebaan,132,51.3085835174,4.73761302328
2390,Malle,Heikant-Oost,23,51.322134275,4.73418342498
2390,Malle,Sint Jobbaan,27,51.3015080727,4.67415440552
2390,Malle,Heidedreef,1,51.2906865434,4.74042725009
2390,Malle,Ambachtsstraat,8,51.2932419236,4.71061211473
2390,Malle,Zandstraat,69,51.292955366,4.6993700513
2390,Malle,Onze Lieve Vrouwstraat,26,51.2992808453,4.74010444304
2390,Malle,Eertbolweg,10,51.3127033906,4.74670424485
2390,Malle,Eekhoorndreef,3,51.2761505226,4.65001388694
2390,Malle,Antwerpsesteenweg,102,51.2997009485,4.71838349219
2390,Malle,Lierselei,68,51.2947000767,4.73066074197
2390,Malle,Oude Holstraat,10,51.3032988446,4.68637419004
2390,Malle,Guldenweg,11,51.3022269698,4.74734081692
2390,Malle,Oude Hofstede,3,51.2992293934,4.74540146872
2390,Malle,Rozenlaan,11,51.3071554305,4.73447355963
2390,Malle,Heidsiebaan,15,51.3092995737,4.66909194315
2390,Malle,Eikendreef,17,51.2779889939,4.65125031238
2390,Malle,Oude Molenstraat,3,51.3025415229,4.6907510054
2390,Malle,Antwerpsesteenweg,310,51.2976011493,4.68867287518
2390,Malle,Begonialaan,26,51.3076854582,4.73026660649
2390,Malle,Irislaan,8,51.3083462165,4.73582648236
2390,Malle,Antwerpsesteenweg,345,51.2970667235,4.68596756186
2390,Malle,Blijkerijstraat,26,51.3020644112,4.73613186671
2390,Malle,Stijn Streuvelslaan,11,51.3031965882,4.74841509292
2390,Malle,Turnhoutsebaan,76,51.3011707858,4.74202007044
2390,Malle,Epicealaan,30,51.279651399,4.67049910172
2390,Malle,Smekenstraat,34,51.3038650474,4.74123543758
2390,Malle,Grootakker,24,51.3018069792,4.68821161962
2390,Malle,Brechtsesteenweg,96,51.3021533199,4.67881948563
2390,Malle,Tichelmanstraat,40,51.2995665001,4.67910230136
2390,Malle,Akkerstraat,11,51.305164122,4.72629663367
2390,Malle,Bloemenstraat,9,51.3060177723,4.73500391639
2390,Malle,Acacialaan,4,51.2868573233,4.67100458625
2390,Malle,Heidemolenbaan,8,51.3001909878,4.67528387751
2390,Malle,Stekensbergstraat,28,51.2903824336,4.68112134789
2390,Malle,Hallebaan,26,51.2954168625,4.68525911941
2390,Malle,Schapenstraat,39,51.30118013,4.69913695749
2390,Malle,Merksplassebaan,105,51.312920892,4.74841971279
2390,Malle,Blijkerijstraat,90,51.3020192093,4.74277950996
2390,Malle,Sint Lenaartsebaan,64,51.3062058532,4.72766089924
2390,Malle,Berckhovenstraat,9,51.2978445574,4.69618545851
2390,Malle,Lierselei,122,51.28371524,4.72253839478
2390,Malle,Meirakkerweg,9,51.298860235,4.73716205156
2390,Malle,Herentalsebaan,49,51.2970823951,4.73784415369
2390,Malle,Bremlaan,15,51.2870871913,4.67336899992
2390,Malle,Geurtsestraat,44,51.3111118612,4.74077841462
2390,Malle,Gemeentebos,2,51.3114691553,4.71487514476
2390,Malle,Leopold III-laan,15,51.2988527929,4.69953174388
2390,Malle,Molenweg,10,51.3005039317,4.74971863288
2390,Malle,Hoogstraatsebaan,8,51.3027659208,4.73515335411
2390,Malle,Antwerpsesteenweg,363,51.2962208837,4.68410591658
2390,Malle,Hoogstraatsebaan,78,51.3059455702,4.73721121684
2390,Malle,Pinksterbloemlaan,13,51.3104403062,4.72750130758
2390,Malle,Hickendorfdreef,22,51.2769485998,4.66060388246
2390,Malle,Kapelstraat,9,51.2970500594,4.70328963876
2390,Malle,Brechtsesteenweg,25,51.2987129904,4.68226615222
2390,Malle,Hoogstraatsebaan,149,51.3109535828,4.73666926637
2390,Malle,Hoge Weg,17,51.2995250632,4.69677482321
2390,Malle,Leopold III-laan,33,51.3003092575,4.69910739247
2390,Malle,Turnhoutsebaan,112,51.3011646766,4.7462654026
2390,Malle,Antwerpsesteenweg,255,51.29664325,4.69313431141
2390,Malle,Sint Jobbaan,91,51.299250373,4.65138109693
2390,Malle,Turnhoutsebaan,130,51.301201769,4.74913476972
2390,Malle,Ganzenkuil,3,51.2970075957,4.70027329505
2390,Malle,Hoge Warande,10,51.3021798878,4.72771224093
2390,Malle,Schapenstraat,50,51.3017563504,4.7017995179
2390,Malle,Schaggeleweg,49,51.2930214631,4.69010413865
2390,Malle,Begonialaan,54,51.3089623755,4.73060049748
2390,Malle,Antwerpsesteenweg,273,51.2968212412,4.69164825892
2390,Malle,Rubenslaan,13,51.2941794943,4.70106008379
2390,Malle,Antwerpsesteenweg,381,51.2946795956,4.68170247219
2390,Malle,Zeepakker,36,51.3004822925,4.70204846499
2390,Malle,Antwerpsesteenweg,137,51.2975288239,4.70381036512
2390,Malle,Antwerpsesteenweg,291,51.296926772,4.69059036384
2390,Malle,Kardinaal Cardijnplaats,17,51.3006541273,4.67798303827
2390,Malle,De Speelhoven,16,51.3032887316,4.73292392437
2390,Malle,Merksplassebaan,52,51.3075734768,4.74359874099
2390,Malle,Talondreef,46,51.307303682,4.75285965616
2390,Malle,Aardekensweg,21,51.3097505601,4.74811888772
2390,Malle,Rerum Novarumlaan,10,51.301225295,4.68916325391
2390,Malle,Sint Laurentiuslaan,11,51.2916541919,4.7338602895
2390,Malle,Hallebaan,54,51.2936462708,4.6830387724
2390,Malle,Kapelakkers,2,51.300882903,4.72425793527
2390,Malle,Smekenstraat,44,51.3038687808,4.74221740054
2390,Malle,Goudveillaan,18,51.3100509858,4.72686314357
2390,Malle,De Schaaf,17,51.2874018174,4.71643600369
2390,Malle,Azalealaan,21,51.3106111129,4.73246319315
2390,Malle,Geurtsestraat,9,51.3086338914,4.7418972
2390,Malle,Schaggeleweg,32,51.2946443887,4.68854126352
2390,Malle,d' Aesten,2,51.2907256176,4.76288252494
2390,Malle,Leemstraat,4,51.3016069523,4.69360141922
2390,Malle,Vogelsanck,11,51.2989912873,4.74883035364
2390,Malle,Kardinaal Cardijnplaats,35,51.3009033597,4.67622986939
2390,Malle,Kasteellaan,3,51.2978784364,4.68754143871
2390,Malle,Lochtiens,11,51.3101878257,4.73492063614
2390,Malle,Hallebaan,143,51.2861592261,4.68274947133
2390,Malle,Pastoor Van Loenhoutlaan,23,51.2992888949,4.68585900591
2390,Malle,Talondreef,64,51.3057617474,4.75272430417
2390,Malle,Korenbloemlaan,12,51.307794648,4.73115281866
2390,Malle,Antwerpsesteenweg,428,51.2919845279,4.67682853304
2390,Malle,Lammekensstraat,23,51.301579652,4.69775228872
2390,Malle,Sint Jobbaan,55,51.3006835883,4.66970479798
2390,Malle,Kasteellaan,27,51.2990904597,4.68835265491
2390,Malle,Beukenlaan,18,51.3022807421,4.75439780206
2390,Malle,Korte Ganzenkuil,6,51.2965778768,4.7014542957
2390,Malle,Leemstraat,28,51.3024431845,4.6960875406
2390,Malle,Lacroixlaan,28,51.2795428581,4.66680275324
2390,Malle,Hoogstraatsebaan,114,51.3079882482,4.73734787763
2390,Malle,Merksplassebaan,70,51.3089483586,4.74519589972
2390,Malle,Talondreef,48,51.3071916308,4.75307124865
2390,Malle,Kempendreef,10,51.2876061962,4.67478529647
2390,Malle,Lang Ossegoor,20,51.2885149395,4.67750130492
2390,Malle,Meiklokjeslaan,4,51.3105942818,4.73439422574
2390,Malle,Hendrik Consciencestraat,7,51.3095903776,4.75016271325
2390,Malle,Oude Baan,37,51.296162027,4.68108781687
2390,Malle,Smekenstraat,9,51.304442124,4.73884886786
2390,Malle,Brechtsesteenweg,61,51.3002064331,4.68054609194
2390,Malle,Oude Meirstraat,37,51.299456251,4.74259958652
2390,Malle,Schapenstraat,14,51.3002547916,4.69765616085
2390,Malle,Heidsiebaan,8,51.3084670773,4.67571021367
2390,Malle,Tichelmanstraat,22,51.2980793571,4.67908648596
2390,Malle,Kasteellaan,81,51.3019319199,4.69108989539
2390,Malle,Brechtsesteenweg,43,51.2993692606,4.68146968743
2390,Malle,Rode-Kruislaan,15,51.2782812069,4.66661294222
2390,Malle,Antwerpsesteenweg,202,51.297250109,4.69708148195
2390,Malle,Zoerselbaan,48,51.2944773551,4.69623326164
2390,Malle,Talondreef,11,51.3076719338,4.74491753862
2390,Malle,Beukenlaan,2,51.3025863132,4.75180734756
2390,Malle,Leegstede,31,51.3111300043,4.74308950297
2390,Malle,Druivenlaan,3,51.2941032002,4.66699496483
2390,Malle,Oude Meirstraat,3,51.298399803,4.73585084017
2390,Malle,Guldenweg,4,51.3018898177,4.74731412449
2390,Malle,Stijn Streuvelslaan,4,51.3021467156,4.74823473889
2390,Malle,Schapenstraat,32,51.3004650002,4.69869714615
2390,Malle,Zwaluwenlaan,9,51.2844377165,4.72097371776
2390,Malle,Zylhovenstraat,1,51.3048852726,4.73476785336
2390,Malle,Sint Lenaartsebaan,99,51.3090176625,4.72356832355
2390,Malle,Jan van Renesselaan,31,51.2885960116,4.72107389866
2390,Malle,Vlimmersendijk,31,51.2998773463,4.7503648594
2390,Malle,Haard,11,51.2948981044,4.73398656323
2390,Malle,Antwerpsesteenweg,183,51.296995926,4.69866189661
2390,Malle,Kasteellaan,45,51.3006076746,4.68984133499
2390,Malle,Turnhoutsebaan,175,51.302125612,4.76721767617
2390,Malle,Oude Liersebaan,12,51.2773502466,4.64249049548
2390,Malle,Antwerpsesteenweg,335,51.2966297299,4.68719954048
2390,Malle,Kievitdreef,29,51.2872781811,4.72259949201
2390,Malle,Kasteellaan,24B,51.3003997047,4.69052926158
2390,Malle,Hagelkruis,36,51.3087394468,4.73230714056
2390,Malle,Oude Hofstede,10,51.2986855124,4.74489453453
2390,Malle,Hallebaan,133,51.2878826913,4.68390755335
2390,Malle,Slachterijstraat,26,51.305473623,4.73401751637
2390,Malle,Vinkenlaan,6,51.2886697389,4.71934316405
2390,Malle,Lierselei,51,51.2981596859,4.73275425628
2390,Malle,Industrieweg,3,51.2953158923,4.71694538999
2390,Malle,Antwerpsesteenweg,119,51.2977619732,4.70850341998
2390,Malle,Molendreef,8,51.3004808387,4.75041326009
2390,Malle,Bergstraatje,9,51.2976426607,4.69755307705
2390,Malle,Zandstraat,16,51.2957477522,4.69671790041
2390,Malle,Antwerpsesteenweg,165,51.2972649672,4.70083556139
2390,Malle,Epicealaan,19,51.2789579536,4.67081633454
2390,Malle,Lorkenlaan,9,51.2954077314,4.76373123832
2390,Malle,Kwaad Einde,13,51.3056724453,4.74081931354
2390,Malle,Berckhovenstraat,80,51.3008538818,4.69417167972
2390,Malle,Antwerpsesteenweg,147,51.2974178713,4.70233042144
2390,Malle,Energieweg,11,51.2943834168,4.71756789673
2390,Malle,Zylhovenstraat,17,51.3037422993,4.73384889955
2390,Malle,Ambachtsstraat,25,51.2882499596,4.71048493847
2390,Malle,Antwerpsesteenweg,317,51.2969069712,4.68858063966
2390,Malle,Petrus Delenstraat,15,51.3016099636,4.69593126037
2390,Malle,Sint Jozeflei,7A,51.2979243815,4.692888918
2390,Malle,Kantweg,36,51.312878371,4.72823249408
2390,Malle,Hoogstraatsebaan,25,51.3036403578,4.73524829177
2390,Malle,Hoogstraatsebaan,61,51.3053037305,4.73640053778
2390,Malle,Berckhovenstraat,62,51.3000657617,4.69483702191
2390,Malle,Ganzenkuil,45,51.2948358318,4.69912997128
2390,Malle,Leopold III-laan,8,51.2983787631,4.70026687986
2390,Malle,Lierselei,139,51.293627881,4.73118553953
2390,Malle,De Speelhoven,34,51.3046321842,4.73240232849
2390,Malle,Epicealaan,5,51.2806584279,4.67236375566
2390,Malle,Berckhovenstraat,26,51.2986826987,4.69660973016
2390,Malle,Lierselei,185,51.2830260688,4.72297215402
2390,Malle,Bremlaan,8,51.2868442635,4.67266176031
2390,Malle,Heidemolenbaan,25,51.2999385389,4.67651769143
2390,Malle,Nooitrust,8,51.2808324318,4.65188501864
2390,Malle,Den Mostheuvel,87,51.2771935866,4.67547925253
2390,Malle,Moerbeeklaan,17,51.2809863111,4.66764426495
2390,Malle,Antwerpsesteenweg,528,51.2745468578,4.64902272557
2390,Malle,De Schaggelen,17,51.294934072,4.69020008967
2390,Malle,Zoerselbaan,36,51.2949302431,4.69569139274
2390,Malle,Berckhovenstraat,44,51.2995704544,4.69563903157
2390,Malle,Boudewijnlaan,17,51.2935880649,4.6947041042
2390,Malle,Rerum Novarumlaan,27,51.3003213137,4.68668187747
2390,Malle,Moerbeeklaan,1,51.2804396496,4.66589729728
2390,Malle,Merksplassebaan,87,51.3107633868,4.74647821921
2390,Malle,Elzenlaan,17,51.2784580418,4.66301281774
2390,Malle,Prins Albertlei,12,51.2967545315,4.73482939201
2390,Malle,Kort Ossegoor,1A,51.2896164901,4.67489357837
2390,Malle,Hoogstraatsebaan,142,51.309095254,4.7373985365
2390,Malle,Nachtegalenlaan,1,51.2879546066,4.72723225023
2390,Malle,Herentalsebaan,14,51.298626488,4.73425473316
2390,Malle,Hickendorfdreef,29,51.2774167182,4.6602357997
2390,Malle,Sint Lenaartsebaan,11,51.3017849634,4.73097760976
2390,Malle,Antwerpsesteenweg,13,51.3009092913,4.7326593748
2390,Malle,Azalealaan,28,51.3110607369,4.73280201083
2390,Malle,Zoerselbaan,18,51.2958459272,4.69453199634
2390,Malle,Aardekensweg,28,51.3112236479,4.74772161934
2390,Malle,Den Mostheuvel,69,51.2770213364,4.67103016872
2390,Malle,Dorpsweg,17,51.3021220061,4.73294259497
2390,Malle,Het Wild Rijt,9,51.2904677607,4.67224696624
2390,Malle,Lange Dreef,52,51.3127785545,4.77424113961
2390,Malle,Vogelsanck,4,51.3005043979,4.74694180683
2390,Malle,Sint Jozeflei,45,51.3005925889,4.69224225882
2390,Malle,Pastoor Minnenstraat,13,51.3094025433,4.74752836422
2390,Malle,Schapenstraat,67,51.3021675746,4.70182612489
2390,Malle,Scherpenberg,15,51.2906284312,4.67911268373
2390,Malle,Antwerpsesteenweg,388,51.2938257574,4.67937058827
2390,Malle,Ticheltij,27,51.297652031,4.68059933891
2390,Malle,Antwerpsesteenweg,492,51.2867612521,4.6683530971
2390,Malle,Turnhoutsebaan,129,51.301735786,4.75268572707
2390,Malle,Prins Albertlei,30,51.2959422816,4.73249502731
2390,Malle,Dokter Meeusstraat,18,51.3047605661,4.74537017144
2390,Malle,Heidedreef,17,51.2932104931,4.74006768578
2390,Malle,Antwerpsesteenweg,421,51.2905606329,4.67554386415
2390,Malle,Heikantstraat,16,51.3068599797,4.65679237935
2390,Malle,Salphensebaan,24,51.2907318341,4.74174298538
2390,Malle,Tulpenlaan,15,51.3065736887,4.73226710315
2390,Malle,Slachterijstraat,44,51.3056034006,4.73165710777
2390,Malle,Merksplassebaan,16,51.3061290815,4.73894648169
2390,Malle,Antwerpsesteenweg,403,51.2930384339,4.6792516422
2390,Malle,Lierselei,33,51.2991071053,4.73314262652
2390,Malle,Antwerpsesteenweg,474,51.2895452837,4.67277790967
2390,Malle,Merksplassebaan,69,51.3094036199,4.74505159328
2390,Malle,Lochtiens,4,51.310738944,4.73571517465
2390,Malle,Antwerpsesteenweg,84,51.3000929541,4.72085641384
2390,Malle,Sint Lenaartsebaan,145,51.3192257227,4.71173432126
2390,Malle,Wijngaardstraat,44,51.2927873352,4.66581487526
2390,Malle,Zoerselbaan,2,51.2964232881,4.693698069
2390,Malle,Klaprooslaan,5,51.3082113821,4.72925727059
2390,Malle,Dokter Meeusstraat,2,51.3067174538,4.7451511495
2390,Malle,Rubenslaan,6,51.2945012176,4.70011921626
2390,Malle,Thierry de Renesselaan,3,51.303053503,4.72522936135
2390,Malle,Klaprooslaan,19,51.30815961,4.72851963472
2390,Malle,Lacroixlaan,21,51.2800452587,4.66571333709
2390,Malle,Kapelstraat,26,51.296324715,4.70223884589
2390,Malle,De Schaggelen,35,51.2945863991,4.69188432247
2390,Malle,Hallebaan,115,51.2896252848,4.68399104782
2390,Malle,Moerbeeklaan,35,51.2806006845,4.66779857334
2390,Malle,Leemstraat,21,51.3026681229,4.69561322896
2390,Malle,Jagersweg,31,51.2763413761,4.64780256872
2390,Malle,Dorpsweg,1,51.3017775201,4.73173404154
2390,Malle,Antwerpsesteenweg,66,51.3002888891,4.72281501594
2390,Malle,Schapenstraat,49,51.3015357672,4.69994887954
2390,Malle,Onze Lieve Vrouwstraat,18,51.2999800459,4.73978714497
2390,Malle,Turnhoutsebaan,140,51.3012463332,4.75136859221
2390,Malle,Hoogstraatsebaan,160,51.3106477234,4.73744585003
2390,Malle,Korenbloemlaan,19,51.3069230966,4.73161120559
2390,Malle,Pastoor Van Loenhoutlaan,15,51.299454852,4.68671566152
2390,Malle,Lammekensstraat,15,51.3019228524,4.69732084168
2390,Malle,Vlimmersendijk,28,51.3000796536,4.74827606752
2390,Malle,Kievitdreef,12,51.2888119318,4.72358991885
2390,Malle,Dennenlaan,14,51.2842411878,4.67059140487
2390,Malle,Den Mostheuvel,7,51.2768469928,4.65802617521
2390,Malle,Leegstede,28,51.3119334859,4.74370448657
2390,Malle,Kasteellaan,47,51.3008065355,4.69002422864
2390,Malle,Lierselei,76,51.294114522,4.73059281614
2390,Malle,Lierselei,8,51.3004631653,4.73328545825
2390,Malle,Haard,4,51.2952748618,4.73347198362
2390,Malle,Druivenlaan,10,51.293786284,4.66788088956
2390,Malle,Lammekensstraat,33,51.3010619589,4.6980333759
2390,Malle,Bruintjensweg,8,51.3031371078,4.72635545022
2390,Malle,Oude Baan,10,51.2973567177,4.68393886123
2390,Malle,Turnhoutsebaan,68,51.3011964903,4.74133677725
2390,Malle,Dorpsplaats,25,51.3015790736,4.73418060578
2390,Malle,Merksplassebaan,7,51.3063515655,4.73807582509
2390,Malle,Kloosterstraat,5,51.3003302065,4.73235904844
2390,Malle,Beukenlaan,11,51.3026771686,4.75394240011
2390,Malle,Oude Meirstraat,10,51.2977166274,4.73786539289
2390,Malle,Smekenstraat,2,51.3044238952,4.73705876746
2390,Malle,Hagelkruis,9,51.3075810964,4.73494282124
2390,Malle,Lochtiens,18,51.3100990713,4.73213694392
2390,Malle,Kapelakkers,16,51.3025056064,4.72378786179
2390,Malle,Herentalsebaan,95,51.2941279586,4.74290665905
2390,Malle,Zoerselbaan,64,51.2937771627,4.69707944368
2390,Malle,Hemelstraat,14,51.3034110309,4.67534097927
2390,Malle,Hallebaan,153,51.2851036079,4.68151083328
2390,Malle,Brechtsesteenweg,88,51.3019731349,4.67921975601
2390,Malle,Heikantstraat,7,51.3099266471,4.66457722083
2390,Malle,Marialei,4,51.3000741538,4.6938135079
2390,Malle,Vogelsanck,18,51.298856374,4.7485227156
2390,Malle,Antwerpsesteenweg,217,51.2967811944,4.69604463124
2390,Malle,Antwerpsesteenweg,146A,51.2988283135,4.70315233291
2390,Malle,Sint Jobbaan,37,51.3019173677,4.67165004305
2390,Malle,Zwaluwenlaan,2,51.2856793662,4.71818425503
2390,Malle,Beukenlaan,9,51.3027403877,4.75365658161
2390,Malle,Lierselei,58,51.2955654642,4.7308657552
2390,Malle,Industrieweg,10,51.2962470264,4.71558494333
2390,Malle,Lierselei,114,51.28542492,4.72402859832
2390,Malle,Sint Lenaartsebaan,72,51.3065047707,4.72713722597
2390,Malle,Zoerselbaan,14A,51.2958816128,4.69433540685
2390,Malle,Zoerselbaan,46,51.2944674909,4.69622502056
2390,Malle,Blijkerijstraat,16,51.302033854,4.73566792107
2390,Malle,Antwerpsesteenweg,130,51.2994433703,4.70913696494
2390,Malle,Hoogstraatsebaan,88,51.3066693342,4.73719989326
2390,Malle,Lorkenlaan,2,51.2968901285,4.76274456032
2390,Malle,Steenovenstraat,16,51.3142466641,4.70525677808
2390,Malle,Grootakker,14,51.3020408896,4.68922680751
2390,Malle,Grootakker,32,51.301727776,4.68715219381
2390,Malle,Turnhoutsebaan,86,51.3011810267,4.74304533031
2390,Malle,Energieweg,4,51.2930507707,4.71550861495
2390,Malle,Kantweg,64,51.3156947907,4.72272608124
2390,Malle,Oude Baan,98,51.2922388541,4.66820880757
2390,Malle,Antwerpsesteenweg,235,51.2965986494,4.69510013398
2390,Malle,Blommerschot,2,51.2615275608,4.76400290973
2390,Malle,Begonialaan,16,51.3073286667,4.73019499751
2390,Malle,Kwaad Einde,6,51.3047138171,4.7417155812
2390,Malle,Antwerpsesteenweg,353,51.2967151146,4.68485721879
2390,Malle,Sint Laurentiuslaan,36,51.2902902927,4.74058563393
2390,Malle,Epicealaan,22,51.2804227793,4.67126870747
2390,Malle,Herentalsebaan,59,51.2966470051,4.73890792255
2390,Malle,Begonialaan,34,51.3079873196,4.73028343948
2390,Malle,Smekenstraat,26,51.303843766,4.74028617075
2390,Malle,Blijkerijstraat,34,51.3020814872,4.73671041359
2390,Malle,Petrus Delenstraat,8,51.3010430462,4.69665664427
2390,Malle,Schepersdijk,12,51.2866099118,4.6927639718
2390,Malle,Schapenstraat,5,51.3003320533,4.69640730812
2390,Malle,Frans Van Gielstraat,17,51.3087260244,4.74763384322
2390,Malle,Hemelstraat,32,51.3013736728,4.67336377655
2390,Malle,Zeepakker,11,51.2988586897,4.70127406601
2390,Malle,Antwerpsesteenweg,300,51.2974527982,4.68928690862
2390,Malle,Turnhoutsebaan,137,51.3017294408,4.75411119118
2390,Malle,Leo Bauwensstraat,11,51.3061424822,4.74359407726
2390,Malle,Lierselei,2A,51.2813614892,4.72130325812
2390,Malle,Scherpenberg,8,51.291946207,4.67859352113
2390,Malle,Fresialaan,5,51.3097006939,4.72976731473
2390,Malle,Hoge Weg,1,51.2988621031,4.69712771606
2390,Malle,Antwerpsesteenweg,283,51.2968560405,4.69091818578
2390,Malle,Aardekensweg,31,51.3105801793,4.74755488943
2390,Malle,Hallebaan,82,51.2894829669,4.68329571925
2390,Malle,De Speelhoven,7,51.3028212831,4.73338153418
2390,Malle,Onze Lieve Vrouwstraat,48,51.2962084183,4.73941194464
2390,Malle,Prins Albertlei,29,51.295505757,4.73236731341
2390,Malle,Turnhoutsebaan,15,51.3015748704,4.73646379764
2390,Malle,Hallebaan,48,51.2941290362,4.68387911337
2390,Malle,Wijngaardstraat,34,51.2912846146,4.66637966918
2390,Malle,Sint Lenaartsebaan,90,51.3076301068,4.72594377637
2390,Malle,Hallebaan,64,51.2921914337,4.68280443814
2390,Malle,Slachterijstraat,16,51.3054368479,4.73466135536
2390,Malle,Antwerpsesteenweg,503,51.2784180596,4.65695568181
2390,Malle,Rerum Novarumlaan,20,51.300958294,4.68788690441
2390,Malle,Leopold III-laan,23,51.2995601349,4.6993813613
2390,Malle,Zandstraat,7,51.2960451145,4.69709461323
2390,Malle,De Zwaantjes,14,51.3054369495,4.73927536222
2390,Malle,Sint Jobbaan,63,51.30201436,4.67048668908
2390,Malle,Hallebaan,207,51.2781681558,4.67896611382
2390,Malle,Azalealaan,31,51.3113034118,4.73207322585
2390,Malle,Antwerpsesteenweg,247,51.2965947556,4.69370801386
2390,Malle,Blijkerijstraat,48,51.3020585353,4.73844933799
2390,Malle,Pastoor Minnenstraat,6,51.3097553406,4.74673833846
2390,Malle,Pastoor De Molderlaan,1,51.3015022049,4.73029892711
2390,Malle,Begonialaan,82,51.3113535069,4.73012722036
2390,Malle,Hickendorfdreef,30,51.2767857803,4.66221691144
2390,Malle,Hallebaan,100,51.2875634443,4.68299088474
2390,Malle,Merksplassebaan,62,51.3083149247,4.74441610092
2390,Malle,Talondreef,54,51.3066283497,4.75312380475
2390,Malle,Antwerpsesteenweg,438,51.2918238688,4.67636085648
2390,Malle,Guido Gezellelaan,6,51.3028468876,4.74792945227
2390,Malle,Antwerpsesteenweg,28,51.3012242876,4.73059342055
2390,Malle,Dorpsplaats,1,51.30214761,4.73396641671
2390,Malle,Hoogstraatsebaan,157,51.3114481207,4.73683968621
2390,Malle,Rozenlaan,18,51.3068130708,4.73470589475
2390,Malle,Korenbloemlaan,22,51.3070763952,4.73103794456
2390,Malle,Brechtsesteenweg,17,51.298459735,4.68296496107
2390,Malle,Eikendreef,1,51.2770484494,4.65368811065
2390,Malle,Rode-Kruislaan,8,51.2789818023,4.66562872109
2390,Malle,Oude Kastanjedreef,1,51.2794987003,4.66470392229
2390,Malle,Lierselei,149,51.2922305742,4.73086169924
2390,Malle,Kasteellaan,37,51.2999977131,4.6891544987
2390,Malle,Hoge Weg,25,51.2998889931,4.69658111005
2390,Malle,Thierry de Renesselaan,10,51.3036427167,4.72560411308
2390,Malle,Lang Ossegoor,10,51.2894663329,4.67664383235
2390,Malle,Begonialaan,46,51.3083395893,4.73033465167
2390,Malle,Azalealaan,13,51.3098273447,4.7328428235
2390,Malle,Ticheltij,47,51.2993266916,4.67992410272
2390,Malle,Herentalsebaan,5,51.2992332146,4.73372385584
2390,Malle,Milburg,1,51.2647887314,4.76338061437
2390,Malle,Antwerpsesteenweg,6,51.3015197017,4.73241868555
2390,Malle,Blijkerijstraat,46,51.3021326083,4.73812975014
2390,Malle,Talondreef,72,51.3050661362,4.75239649307
2390,Malle,Hickendorfdreef,12,51.2771913234,4.65865313722
2390,Malle,Kardinaal Cardijnplaats,1,51.3009488748,4.67828237135
2390,Malle,Merksplassebaan,80,51.3100308686,4.74635997357
2390,Malle,De Schaggelen,43,51.2944563462,4.6925387178
2390,Malle,Schapenstraat,42,51.3010552219,4.70050693192
2390,Malle,Hallebaan,171,51.2832922893,4.68008501735
2390,Malle,Schaggeleweg,24,51.2953167926,4.68850933508
2390,Malle,Brechtsesteenweg,104,51.3027105848,4.67858016766
2390,Malle,Bruul,1,51.2674983486,4.77071637886
2390,Malle,Mostheuvellaan,25,51.2833493935,4.67296697145
2390,Malle,Dokter Meeusstraat,9,51.3061529885,4.74580218626
2390,Malle,Zoerselbaan,9,51.2961239118,4.69502812668
2390,Malle,Lacroixlaan,38,51.2790774067,4.66873577953
2390,Malle,Rerum Novarumlaan,47,51.2997922214,4.68475600444
2390,Malle,Aardekensweg,13,51.3090513106,4.74864119726
2390,Malle,Geurtsestraat,34,51.3103890527,4.74231155651
2390,Malle,Kwaad Einde,21,51.3064011141,4.74076334538
2390,Malle,Leegstede,21,51.3117180455,4.74418418813
2390,Malle,Herentalsebaan,60,51.2954955138,4.73948467771
2390,Malle,Onze Lieve Vrouwstraat,11,51.2994730944,4.74056478348
2390,Malle,Sparrelaan,26,51.2865246984,4.67507616697
2390,Malle,Vlimmersendijk,21,51.3002283662,4.7490445012
2390,Malle,Wijngaardstraat,52,51.2940636533,4.66553101658
2390,Malle,Blijkerijstraat,9,51.3023827195,4.73658274916
2390,Malle,Antwerpsesteenweg,307,51.2970608059,4.68912750204
2390,Malle,Turnhoutsebaan,51,51.3015678649,4.73934071462
2390,Malle,Schepersdijk,5,51.2891812035,4.69769832024
2390,Malle,Begonialaan,9,51.306583185,4.72975441408
2390,Malle,Schapenstraat,24,51.3003343625,4.69819568394
2390,Malle,Zeepakker,46,51.3012592878,4.70170949494
2390,Malle,Sint Lenaartsebaan,109,51.3098026738,4.7226737191
2390,Malle,Tichelmanstraat,12,51.2971908418,4.67923596086
2390,Malle,Tichelmanstraat,30,51.2986739261,4.67901776854
2390,Malle,Grootakker,39,51.3012335703,4.68626342726
2390,Malle,Goudveillaan,4,51.3087722126,4.72799779745
2390,Malle,Lierselei,41,51.2988269857,4.73298286133
2390,Malle,Oude Baan,27,51.2963461164,4.68206824486
2390,Malle,Eertbolweg,1,51.3125664388,4.74725757908
2390,Malle,Druivenlaan,27,51.2949498162,4.66620331075
2390,Malle,Oude Molenstraat,20,51.3111821212,4.68289602482
2390,Malle,Dennenlaan,7,51.2854093123,4.67030430347
2390,Malle,Geurtsestraat,16,51.3086354831,4.74270214194
2390,Malle,Zylhovenstraat,25,51.3037256788,4.73282626031
2390,Malle,Antwerpsesteenweg,325,51.2969539593,4.68795645232
2390,Malle,Stekensbergstraat,13,51.2920667774,4.68212352934
2390,Malle,Brechtsesteenweg,71,51.3006851912,4.67977749476
2390,Malle,Leo Bauwensstraat,4,51.3066852113,4.74483254367
2390,Malle,Sint Lenaartsebaan,89,51.3079288468,4.72490985005
2390,Malle,Hoogstraatsebaan,139,51.3103312,4.73665386764
2390,Malle,Sint Lenaartsebaan,36,51.3043167462,4.72977666366
2390,Malle,Zoerselbaan,125,51.2852332231,4.70538521494
2390,Malle,Bosdreef,7,51.2918764122,4.7387353128
2390,Malle,Turnhoutsebaan,202,51.301292514,4.77127182961
2390,Malle,Antwerpsesteenweg,193,51.2968858389,4.6977201916
2390,Malle,Berckhovenstraat,34,51.2990079027,4.69621659905
2390,Malle,Berckhovenstraat,70,51.3004789383,4.69441695489
2390,Malle,Oude Baan,81,51.292707524,4.67116321669
2390,Malle,De Hoeve,1,51.3077190455,4.69049407993
2390,Malle,Sint Jozeflei,37,51.298929161,4.69243354826
2390,Malle,Dokter Meeusstraat,11,51.3059546999,4.74580502216
2390,Malle,Geurtsestraat,2,51.307287933,4.74263006224
2390,Malle,Berckhovenstraat,48,51.2994538583,4.69545096231
2390,Malle,Hoogstraatsebaan,71,51.3057262217,4.736501247
2390,Malle,Prins Albertlei,3,51.2972267285,4.73580013796
2390,Malle,Zoerselbaan,11,51.2960125336,4.69516354125
2390,Malle,Meirakkerweg,16,51.2991279687,4.73794800629
2390,Malle,Sint Lenaartsebaan,18,51.303061597,4.73043609708
2390,Malle,Berckhovenstraat,16,51.2980855332,4.69673569662
2390,Malle,Tulpenlaan,23,51.3071731795,4.73236156292
2390,Malle,Herentalsebaan,42,51.2973322029,4.73648054294
2390,Malle,Brechtsesteenweg,42A,51.2999740871,4.68153311801
2390,Malle,Bloemenstraat,16,51.3063829389,4.73437254868
2390,Malle,Heidemolenbaan,35,51.2998384141,4.67565232271
2390,Malle,Antwerpsesteenweg,129,51.2977228373,4.70471170097
2390,Malle,Brechtsesteenweg,222,51.3193570696,4.68458967925
2390,Malle,Slachterijstraat,34,51.3055382398,4.73314632736
2390,Malle,Epicealaan,29,51.277775209,4.66968180837
2390,Malle,Grootakker,7,51.3017759013,4.68979607289
2390,Malle,Ganzenkuil,20,51.2956546785,4.7008221864
2390,Malle,Berckhovenstraat,52,51.2997199284,4.69521611904
2390,Malle,Hallebaan,9,51.2962302451,4.68584744349
2390,Malle,Antwerpsesteenweg,175,51.2971213945,4.69975726344
2390,Malle,Zeepakker,4,51.2987425086,4.70186766124
2390,Malle,Oude Meirstraat,45,51.2997968815,4.74411022567
2390,Malle,Ernest Claesstraat,8,51.3086747698,4.75040773119
2390,Malle,Berckhovenstraat,100,51.3015072297,4.69345375516
2390,Malle,Schaggeleweg,42,51.2936638386,4.68904902456
2390,Malle,Antwerpsesteenweg,378,51.2945316505,4.68071644574
2390,Malle,Herentalsebaan,24,51.2982918294,4.73484451562
2390,Malle,Hallebaan,99,51.2908109309,4.68344762994
2390,Malle,Pastoor Van Loenhoutlaan,51,51.2999840387,4.6828981365
2390,Malle,Hagelkruis,46,51.3092168294,4.73142233259
2390,Malle,Lierselei,23,51.2999105361,4.73361705555
2390,Malle,Kapelstraat,2,51.2971933246,4.70275174704
2390,Malle,Zylhovenstraat,5A,51.3044062177,4.73464664137
2390,Malle,Turnhoutsebaan,8,51.3009840345,4.73456491743
2390,Malle,Oude Baan,63,51.2944284137,4.67329428662
2390,Malle,Boudewijnlaan,25,51.2934283295,4.69369776299
2390,Malle,Wilgenlaan,16,51.2870109829,4.67399130049
2390,Malle,Rerum Novarumlaan,37,51.3000814893,4.68561823804
2390,Malle,Leemstraat,13,51.3023677247,4.69477188426
2390,Malle,Jan van Renesselaan,6,51.2871003062,4.72540928131
2390,Malle,Vlimmersendijk,6,51.3011148995,4.7455273013
2390,Malle,Kapelakkers,9,51.3019772641,4.72334406586
2390,Malle,Brechtsesteenweg,139,51.3152717296,4.68296012529
2390,Malle,Antwerpsesteenweg,413,51.2914066014,4.67699500084
2390,Malle,Meiklokjeslaan,13,51.311401575,4.73338320987
2390,Malle,Turnhoutsebaan,119,51.3016760087,4.74996525584
2390,Malle,Den Mostheuvel,79,51.2770939085,4.67315072019
2390,Malle,Hoogstraatsebaan,53,51.3046225837,4.73620515267
2390,Malle,Salphen,7,51.2746093831,4.74114431795
2390,Malle,Petrus Delenstraat,23,51.3012689267,4.69454121366
2390,Malle,De Zwaantjes,7,51.3050539045,4.74009610206
2390,Malle,Antwerpsesteenweg,140,51.2982789358,4.7051545851
2390,Malle,Kempendreef,1,51.2890841287,4.67416016418
2390,Malle,Lacroixlaan,13,51.2804384522,4.66415297915
2390,Malle,Dorpsweg,25,51.3022106864,4.73330332881
2390,Malle,Wijngaardstraat,48,51.2933365788,4.66571760846
2390,Malle,Lacroixlaan,31,51.27963045,4.66859560596
2390,Malle,Acacialaan,13,51.2858653924,4.67299677748
2390,Malle,Brechtsesteenweg,150,51.305495614,4.67746292369
2390,Malle,Merksplassebaan,26,51.3063359994,4.74017575521
2390,Malle,Molenweg,1,51.3008794205,4.7476890048
2390,Malle,Merksplassebaan,79,51.310152638,4.74588756982
2390,Malle,Hallebaan,125,51.2878420794,4.6847096945
2390,Malle,Aardekensweg,6,51.3100291044,4.75013060675
2390,Malle,Antwerpsesteenweg,484,51.2883274096,4.67073391947
2390,Malle,Ganzenkuil,47,51.2947838115,4.69892932547
2390,Malle,Lammekensstraat,8,51.302124667,4.6964682744
2390,Malle,Rode-Kruislaan,23,51.2782584991,4.66773849863
2390,Malle,Azalealaan,6,51.3087560557,4.73359733947
2390,Malle,Talondreef,36,51.3079430776,4.75186973019
2390,Malle,Delften,25,51.2864613194,4.71044698705
2390,Malle,Antwerpsesteenweg,21,51.301025789,4.73218842078
2390,Malle,Zonnedauwlaan,9,51.3078616183,4.72782111032
2390,Malle,Pastoor Van Loenhoutlaan,8,51.3001003603,4.68792459629
2390,Malle,Moerbeeklaan,25,51.2805040893,4.66991001673
2390,Malle,Haard,18,51.2941496087,4.73336093556
2390,Malle,Salphensebaan,14,51.2922932951,4.74153618705
2390,Malle,Talondreef,18,51.3072974059,4.74598656688
2390,Malle,Hallebaan,107,51.2903698211,4.68357064434
2390,Malle,De Schaggelen,25,51.2947208985,4.69104831584
2390,Malle,Wijngaardstraat,9,51.2898658908,4.6665324162
2390,Malle,Kapelstraat,34,51.2956820492,4.70192341885
2390,Malle,Antwerpsesteenweg,466,51.2899435514,4.67358024513
2390,Malle,Merksplassebaan,97,51.3118498188,4.74748005529
2390,Malle,Schaggeleweg,60,51.2925898368,4.68712023864
2390,Malle,Pater Hensstraat,14,51.2917531278,4.74283664764
2390,Malle,Brechtsesteenweg,53,51.2998802057,4.68083610403
2390,Malle,Ticheltij,1,51.2985715983,4.67968362548
2390,Malle,Hoge Warande,1,51.3019991221,4.72575752595
2390,Malle,Sint Lenaartsebaan,120,51.3099646566,4.72335829425
2390,Malle,Antwerpsesteenweg,431,51.2901406755,4.67479224643
2390,Malle,Philip Geertsstraat,8,51.305857486,4.74415460657
2390,Malle,Kapelstraat,16,51.2969652859,4.70199039975
2390,Malle,Hendrik Consciencestraat,14,51.3090814583,4.75077790479
2390,Malle,Hagelkruis,11,51.3075662567,4.73471354933
2390,Malle,Kapelstraat,69,51.2934161533,4.70114608546
2390,Malle,Rerum Novarumlaan,1,51.3009333236,4.68957388803
2390,Malle,Oude Baan,45,51.2959755199,4.68027138993
2390,Malle,Heikant-Oost,8,51.3218374677,4.73726042467
2390,Malle,Schapenstraat,59,51.3019630051,4.70115505695
2390,Malle,Antwerpsesteenweg,396,51.2934635145,4.67889852789
2390,Malle,Geurtsestraat,7,51.3083485798,4.74216192555
2390,Malle,Stekensbergstraat,6,51.2932689849,4.68068359504
2390,Malle,Hemelstraat,22,51.3028598643,4.67479089624
2390,Malle,Sint Jozeflei,8,51.2977771707,4.69347255583
2390,Malle,Slachterijstraat,11,51.3050784581,4.73472936873
2390,Malle,Turnhoutsebaan,21,51.3016184896,4.73680195269
2390,Malle,Hoogstraatsebaan,10,51.302830493,4.73522842437
2390,Malle,Antwerpsesteenweg,347,51.2972018509,4.68595457794
2390,Malle,Salphen,2,51.2764610157,4.74118795593
2390,Malle,Antwerpsesteenweg,476,51.2892732574,4.67234021958
2390,Malle,Antwerpsesteenweg,458,51.2904954026,4.67428584155
2390,Malle,Beersendijk,10,51.3042464029,4.75458159924
2390,Malle,Lochtiens,2,51.3108018761,4.73608667626
2390,Malle,Klaprooslaan,3,51.3082199087,4.72934968833
2390,Malle,Talondreef,62,51.3059364924,4.75280289562
2390,Malle,Antwerpsesteenweg,61A,51.2996846781,4.72107827737
2390,Malle,Epicealaan,32,51.2795479789,4.67048553177
2390,Malle,Leemstraat,58,51.303699472,4.70062877237
2390,Malle,Antwerpsesteenweg,86,51.300011939,4.72041405318
2390,Malle,Smekenstraat,36,51.3038646051,4.74154687654
2390,Malle,Lierselei,84,51.293292009,4.73032851154
2390,Malle,Thierry de Renesselaan,5,51.3032379818,4.72518589668
2390,Malle,Korenbloemlaan,3,51.3080721204,4.73176573519
2390,Malle,Tichelmanstraat,42,51.2997514154,4.67919415097
2390,Malle,Zonnedauwlaan,11,51.3077486432,4.7278486305
2390,Malle,Grootakker,22,51.3018528119,4.68841367484
2390,Malle,Kort Ossegoor,15,51.2882300794,4.67633863613
2390,Malle,Paalstraat,8,51.2979154314,4.69810942354
2390,Malle,Acacialaan,6,51.2866310545,4.67133436365
2390,Malle,Hoogstraatsebaan,116,51.3081449808,4.73741236199
2390,Malle,Eertbolweg,8,51.3129530172,4.7467807099
2390,Malle,Lierselei,124,51.2835313485,4.72175414311
2390,Malle,Epicealaan,14,51.2793541176,4.6699865445
2390,Malle,Merksplassebaan,72,51.3091619235,4.74541990988
2390,Malle,Oude Holstraat,8,51.3032268573,4.68660526817
2390,Malle,Brechtsesteenweg,98,51.3021914118,4.67872352927
2390,Malle,Kapelstraat,7,51.2972060567,4.70327126401
2390,Malle,Scherpenberg,38,51.2908952743,4.6800757666
2390,Malle,Antwerpsesteenweg,365,51.2960211748,4.68383302728
2390,Malle,Hendrik Consciencestraat,9,51.3096655746,4.75047968805
2390,Malle,Zwanenstraat,2,51.2976482088,4.68958230922
2390,Malle,Sint Jobbaan,71,51.3020597155,4.66923037035
2390,Malle,Antwerpsesteenweg,68,51.3002595564,4.72258524348
2390,Malle,Hallebaan,213,51.2773490593,4.67869079736
2390,Malle,Zylhovenstraat,20,51.3040083293,4.73356435351
2390,Malle,Antwerpsesteenweg,271,51.2967387604,4.69203147993
2390,Malle,Begonialaan,52,51.3088058664,4.73052054898
2390,Malle,Hoogstraatsebaan,98,51.3069707209,4.73731112381
2390,Malle,Veldstraat,4,51.3024021666,4.72464996257
2390,Malle,Blijkerijstraat,52,51.3021925777,4.73878506423
2390,Malle,De Schaggelen,55,51.2943983419,4.69376131888
2390,Malle,Lorkenlaan,18,51.2942142752,4.76311109685
2390,Malle,Salphensebaan,9,51.2932092877,4.74193461324
2390,Malle,Antwerpsesteenweg,383,51.2942519717,4.68179119792
2390,Malle,Begonialaan,70,51.3103723686,4.73062367183
2390,Malle,Kievitdreef,24,51.2872040423,4.72190359363
2390,Malle,Blijkerijstraat,70,51.3022099273,4.74050338035
2390,Malle,Merksplassebaan,54,51.307725926,4.743794137
2390,Malle,Bosdreef,22,51.2936260611,4.73933830289
2390,Malle,Hallebaan,52,51.2939939849,4.68366129528
2390,Malle,Lierselei,195,51.2825595605,4.72252787717
2390,Malle,Schapenstraat,65,51.3021005622,4.70158877409
2390,Malle,Heikant-Oost,21,51.3220902242,4.73438992722
2390,Malle,Het Wild Rijt,18,51.2938723897,4.67354381182
2390,Malle,Sint Jobbaan,25,51.3012647604,4.67516235204
2390,Malle,Ticheltij,19,51.2975065823,4.68227134242
2390,Malle,Schapenstraat,19,51.3004701476,4.69755961464
2390,Malle,Schaggeleweg,30,51.2948101357,4.68847316104
2390,Malle,Industrieweg,5,51.2956207129,4.71632432735
2390,Malle,Beukenlaan,34,51.302570507,4.75643628686
2390,Malle,Rozenlaan,26,51.3069635892,4.73590546789
2390,Malle,Lierselei,47,51.2983975369,4.73283440132
2390,Malle,Leemstraat,6,51.3016856015,4.69409061718
2390,Malle,Smekenstraat,82,51.304010107,4.74791198878
2390,Malle,Kapelakkers,11,51.3021490603,4.723303509
2390,Malle,Pastoor Van Loenhoutlaan,21,51.2993083189,4.68608982923
2390,Malle,Lochtiens,13,51.3101379784,4.73464733585
2390,Malle,Slachterijstraat,7,51.305081327,4.73516702806
2390,Malle,Dennenlaan,2,51.2855102357,4.66893355242
2390,Malle,Lammekensstraat,21,51.3015969021,4.69759339988
2390,Malle,Rerum Novarumlaan,8,51.3012765978,4.68933623891
2390,Malle,Ernest Claesstraat,1,51.3086663315,4.74942849515
2390,Malle,Kasteellaan,25,51.2991935471,4.68805600477
2390,Malle,Korte Ganzenkuil,4,51.2965327023,4.70124981785
2390,Malle,Kempendreef,8,51.2879789361,4.67475120027
2390,Malle,Sint Jobbaan,53,51.3006732946,4.67018175413
2390,Malle,Lierselei,177,51.2849420841,4.72533724849
2390,Malle,Dorpsweg,20,51.3019415295,4.73329046292
2390,Malle,Delften,20,51.2884109488,4.70597601495
2390,Malle,Pater Hensstraat,9,51.2912352815,4.74406644315
2390,Malle,Sint Lenaartsebaan,62,51.306076357,4.72786036687
2390,Malle,Smekenstraat,48,51.3038500724,4.74293219121
2390,Malle,Lierselei,38,51.2975760034,4.73166867148
2390,Malle,Irislaan,6,51.3081929059,4.73584649449
2390,Malle,Elzenlaan,20,51.2779361065,4.66127102791
2390,Malle,Moerbeeklaan,20,51.2807855112,4.6684965753
2390,Malle,Antwerpsesteenweg,319,51.2971451983,4.6883665103
2390,Malle,Boudewijnlaan,20,51.293859212,4.69370221057
2390,Malle,Leopold III-laan,13,51.2986706038,4.69962751027
2390,Malle,Turnhoutsebaan,1,51.3014346091,4.73459527778
2390,Malle,Vinkenlaan,15,51.2882018326,4.71869904151
2390,Malle,Bremlaan,13,51.2872205146,4.67318382159
2390,Malle,Beukenlaan,16,51.3023422837,4.75404787952
2390,Malle,Epicealaan,3,51.2815801703,4.67344668952
2390,Malle,Turnhoutsebaan,198,51.3012626659,4.76984563691
2390,Malle,Antwerpsesteenweg,513,51.2765769942,4.65440389356
2390,Malle,Pinksterbloemlaan,11,51.3102699938,4.72752652284
2390,Malle,Sint Pauluslaan,16,51.294060368,4.65102695337
2390,Malle,Zoerselbaan,70,51.2928515289,4.69821974516
2390,Malle,Merksplassebaan,90,51.3109503275,4.7472413985
2390,Malle,Antwerpsesteenweg,253,51.296664189,4.69323381104
2390,Malle,Brechtsesteenweg,27,51.2987596857,4.68221470959
2390,Malle,Lierselei,106,51.2865407076,4.72576318369
2390,Malle,Lammekensstraat,1,51.3025819289,4.69658592229
2390,Malle,Petrus Delenstraat,38,51.300044607,4.69579219801
2390,Malle,Berckhovenstraat,7,51.2977182872,4.69627775919
2390,Malle,Leopold III-laan,31,51.3001446146,4.69916428955
2390,Malle,Grootakker,2,51.3023689741,4.69047809517
2390,Malle,Hooiberghoeve,7,51.289267872,4.72628512593
2390,Malle,Hallebaan,11,51.2961804341,4.68585355489
2390,Malle,Zeepakker,16,51.2992772839,4.70343457325
2390,Malle,Rerum Novarumlaan,43,51.2998764809,4.68490898742
2390,Malle,Antwerpsesteenweg,200,51.2973012366,4.69715166409
2390,Malle,Hoogstraatsebaan,169,51.3127330844,4.73709439552
2390,Malle,Druivenlaan,5,51.2942321658,4.66739232513
2390,Malle,Blijkerijstraat,11,51.3023954155,4.73666214168
2390,Malle,Heikant-Oost,1,51.321062337,4.7393012011
2390,Malle,Oude Meirstraat,5,51.2983744349,4.73608921202
2390,Malle,Molendreef,10,51.3002878232,4.75053655752
2390,Malle,Antwerpsesteenweg,188,51.2973831126,4.69799396451
2390,Malle,Steenovenstraat,11,51.313205284,4.70519860528
2390,Malle,Talondreef,44,51.3074338917,4.75261953255
2390,Malle,Philip Geertsstraat,1,51.3055199784,4.74531380783
2390,Malle,Aardekensweg,23,51.3099171878,4.74803893595
2390,Malle,De Schaggelen,91,51.2954270039,4.69380779752
2390,Malle,Hoge Warande,8,51.3020403634,4.7273066766
2390,Malle,De Speelhoven,18,51.3032937012,4.73282789344
2390,Malle,Stijn Streuvelslaan,26,51.3038942368,4.74895148021
2390,Malle,Azalealaan,23,51.3107481475,4.73244533597
2390,Malle,Lochtiens,31,51.3097568647,4.73191169779
2390,Malle,Cantecroy,8,51.284908471,4.67603141625
2390,Malle,Hoogstraatsebaan,134,51.3086205136,4.73722067595
2390,Malle,Begonialaan,11,51.3066429084,4.72974068181
2390,Malle,Antwerpsesteenweg,230,51.2970914429,4.69471994216
2390,Malle,Bruintjensweg,1,51.3028098063,4.72894492582
2390,Malle,Vinkenlaan,4,51.288840188,4.71945353431
2390,Malle,Tulpenlaan,13,51.3064301403,4.73226942134
2390,Malle,Antwerpsesteenweg,163,51.2972917911,4.70104550217
2390,Malle,Zwaluwenlaan,11,51.2849811585,4.71915566483
2390,Malle,Het Wild Rijt,7,51.2900520354,4.67232495417
2390,Malle,Pinksterbloemlaan,8,51.3094472021,4.72824164703
2390,Malle,Tulpenlaan,31,51.3077443496,4.73248778193
2390,Malle,Turnhoutsebaan,28,51.30115836,4.73675170854
2390,Malle,Antwerpsesteenweg,441,51.2895959713,4.67389590388
2390,Malle,Zandstraat,18,51.2956545487,4.69681358302
2390,Malle,Kasteellaan,5,51.2979699767,4.68762636919
2390,Malle,Zwaluwkens,2,51.2974888,4.73897871534
2390,Malle,Antwerpsesteenweg,145,51.2974531692,4.702435048
2390,Malle,Sint Jozeflei,25,51.2988111472,4.6927283625
2390,Malle,Het Wild Rijt,15A,51.290210772,4.67067448996
2390,Malle,Frans Van Gielstraat,10,51.3082931056,4.7455673105
2390,Malle,Turnhoutsebaan,155,51.3019317905,4.7588181566
2390,Malle,Kantweg,34,51.3125900958,4.72874297683
2390,Malle,Hoogstraatsebaan,27,51.3035917969,4.73540119133
2390,Malle,Talondreef,79,51.3020593296,4.75161459581
2390,Malle,Merksplassebaan,89,51.3109178936,4.74661887162
2390,Malle,Sint Lenaartsebaan,26,51.3036025043,4.7303192883
2390,Malle,De Speelhoven,36,51.3047055374,4.73245767855
2390,Malle,Hallebaan,87,51.2916392449,4.68403567873
2390,Malle,Druivenlaan,17,51.2955926233,4.66813624167
2390,Malle,Heihuizen,1,51.2878158667,4.75260699962
2390,Malle,Grootakker,29,51.3012909261,4.68736140336
2390,Malle,Oude Meirstraat,17,51.2980472341,4.7379741145
2390,Malle,Heidemolenbaan,27,51.2998798641,4.67626911721
2390,Malle,Den Mostheuvel,89,51.2770707408,4.67598889992
2390,Malle,Antwerpsesteenweg,15,51.3009271684,4.73251642099
2390,Malle,Sparrelaan,18,51.2861062445,4.67792547713
2390,Malle,Oude Meirstraat,35,51.2993708559,4.7421752236
2390,Malle,Schapenstraat,12,51.3002100943,4.69743934345
2390,Malle,Ticheltij,12,51.2971808195,4.68075474084
2390,Malle,Blijkerijstraat,69,51.3021087443,4.74325827418
2390,Malle,Antwerpsesteenweg,288,51.2972985279,4.69012641675
2390,Malle,Tichelmanstraat,24,51.298223712,4.67905046058
2390,Malle,Hoogstraatsebaan,81,51.3062543851,4.73658228906
2390,Malle,Hoogstraatsebaan,144,51.3092830864,4.73728974769
2390,Malle,Kapelstraat,11,51.2969039637,4.70320758376
2390,Malle,Turnhoutsebaan,120,51.3011962886,4.74779066586
2390,Malle,Antwerpsesteenweg,51,51.2999347494,4.72287654999
2390,Malle,Oude Baan,71,51.2936842933,4.67255627601
2390,Malle,Rode-Kruislaan,17,51.2782979714,4.66687960698
2390,Malle,Leegstede,33,51.3110121223,4.74287716401
2390,Malle,Schapenstraat,30,51.3004138013,4.69862064836
2390,Malle,Ticheltij,30,51.2980167016,4.68096623693
2390,Malle,Stijn Streuvelslaan,6,51.302134047,4.74859711137
2390,Malle,Kersenlaan,12,51.293439987,4.68117631484
2390,Malle,Jan van Renesselaan,33,51.28870037,4.72061971974
2390,Malle,Jagersweg,51,51.2741423849,4.64754245901
2390,Malle,Scherpenberg,13,51.2905030511,4.67866546028
2390,Malle,Antwerpsesteenweg,337,51.2972167241,4.68684155869
2390,Malle,Sint Jozeflei,43,51.3004730134,4.69231985424
2390,Malle,Fresialaan,16,51.3109606435,4.72894589493
2390,Malle,Rozenlaan,6,51.3068851104,4.7333240962
2390,Malle,Dorpsplaats,20,51.3018090049,4.7345542074
2390,Malle,Hallebaan,131,51.285018981,4.68487209645
2390,Malle,Hagelkruis,34,51.308662853,4.73248723065
2390,Malle,Schaggeleweg,19,51.2951342543,4.68903593879
2390,Malle,Lierselei,13,51.300481723,4.73382528333
2390,Malle,Vlimmersendijk,15,51.3005013944,4.74849572873
2390,Malle,Brechtsesteenweg,180,51.3088865118,4.67879131048
2390,Malle,Lammekensstraat,28,51.3011551591,4.69726078293
2390,Malle,Eekhoorndreef,5,51.2764273288,4.64938502309
2390,Malle,Antwerpsesteenweg,423,51.2905313552,4.6753961656
2390,Malle,Pastoor Van Loenhoutlaan,28,51.2996411749,4.68584664333
2390,Malle,De Schaaf,20,51.2880866877,4.71742373017
2390,Malle,Hallebaan,148,51.2823951166,4.67887623827
2390,Malle,Oude Molenstraat,5,51.3031226323,4.68885601703
2390,Malle,Hoge Weg,8,51.2985737894,4.6976673412
2390,Malle,Merksplassebaan,18,51.3057735051,4.73911988128
2390,Malle,Salphensebaan,22,51.2910313363,4.74171012519
2390,Malle,Geurtsestraat,11,51.3088609939,4.74190633797
2390,Malle,Kardinaal Cardijnplaats,20,51.3005165175,4.6775020896
2390,Malle,Mostheuvellaan,20,51.2824934025,4.67154862845
2390,Malle,Hemelstraat,40,51.3006982479,4.6726864669
2390,Malle,Zwaluwenlaan,7,51.284322771,4.72121005666
2390,Malle,Antwerpsesteenweg,405,51.2927829715,4.67901884622
2390,Malle,Zoerselbaan,113,51.287712986,4.70326569999
2390,Malle,Lierselei,31,51.2991721233,4.73327762241
2390,Malle,Leegstede,15,51.3121574282,4.74499143899
2390,Malle,Scherpenberg,1,51.2919676424,4.67987681271
2390,Malle,Berckhovenstraat,82,51.3008652749,4.6940490262
2390,Malle,Turnhoutsebaan,74,51.3011481304,4.74167993118
2390,Malle,Pastoor De Molderlaan,8,51.3018918345,4.72991955549
2390,Malle,Haard,26,51.2940525269,4.73225487254
2390,Malle,Wijngaardstraat,46,51.2930956985,4.66568051605
2390,Malle,Turnhoutsebaan,109,51.3016803009,4.74821185933
2390,Malle,Lacroixlaan,23,51.2799153171,4.66695075105
2390,Malle,Onze Lieve Vrouwstraat,16,51.3001371849,4.73972187239
2390,Malle,Moerbeeklaan,37,51.2807072647,4.66723802693
2390,Malle,Hoogstraatsebaan,63,51.3053910669,4.73646762059
2390,Malle,Petrus Delenstraat,13,51.3009570305,4.69604007496
2390,Malle,Ambachtsstraat,23,51.2884461975,4.71084918026
2390,Malle,De Schaggelen,37,51.2945537141,4.69203691752
2390,Malle,Antwerpsesteenweg,33,51.3009205264,4.73134308572
2390,Malle,Merksplassebaan,2,51.3059949537,4.7375160388
2390,Malle,Leemstraat,23,51.3027264561,4.69580821403
2390,Malle,Turnhoutsebaan,56,51.3009658953,4.73995173341
2390,Malle,Ganzenkuil,43,51.2948540634,4.69923160095
2390,Malle,Antwerpsesteenweg,302,51.2974210877,4.68918088316
2390,Malle,Berckhovenstraat,64,51.3002771907,4.69463175477
2390,Malle,Sint Lenaartsebaan,79,51.30719024,4.72567108896
2390,Malle,Zoerselbaan,87,51.2909233913,4.70155041532
2390,Malle,Merksplassebaan,36,51.3065593981,4.74156176264
2390,Malle,Hoge Weg,20,51.2992496628,4.69755197875
2390,Malle,Smekenstraat,7,51.3045147311,4.73845225126
2390,Malle,Jagersweg,33,51.2760530489,4.64745332628
2390,Malle,Berkenlaan,2,51.2893514611,4.67149714872
2390,Malle,Oude Meirstraat,53,51.3002293954,4.74650857231
2390,Malle,Kleistraat,14,51.3139017826,4.68446967386
2390,Malle,Brechtsesteenweg,63,51.3002629367,4.68045599969
2390,Malle,Moerdreef,10,51.2804946454,4.67442645273
2390,Malle,Zoerselbaan,34,51.2950245724,4.69557837048
2390,Malle,Berckhovenstraat,11,51.2981936689,4.69595465341
2390,Malle,Merksplassebaan,100,51.3135770411,4.75045403525
2390,Malle,Nijverheidsstraat,10,51.2940171884,4.71147037608
2390,Malle,Azalealaan,41,51.3119350681,4.73255129142
2390,Malle,Berckhovenstraat,46,51.2994885438,4.69542167085
2390,Malle,Oude Kastanjedreef,8,51.2791011833,4.66390041473
2390,Malle,Rerum Novarumlaan,25,51.3003635488,4.68691917118
2390,Malle,Bloemenstraat,11,51.3060156141,4.73488817856
2390,Malle,Dorpsplaats,8,51.3020178985,4.73350441753
2390,Malle,Prins Albertlei,14,51.2966215262,4.73473572875
2390,Malle,Lang Ossegoor,5,51.2901128191,4.67651967857
2390,Malle,Zeepakker,52,51.3016780364,4.70155377207
2390,Malle,Meirakkerweg,11,51.2990307857,4.73726319281
2390,Malle,Brechtsesteenweg,45,51.2994801921,4.68129322199
2390,Malle,Herentalsebaan,30,51.297825485,4.73563884445
2390,Malle,Lorkenlaan,7,51.295860479,4.7637013957
2390,Malle,Herentalsebaan,65,51.2959304239,4.7398094294
2390,Malle,Antwerpsesteenweg,219,51.2967376771,4.6958550797
2390,Malle,Hoogstraatsebaan,180,51.3126652605,4.73791850435
2390,Malle,Kardinaal Cardijnplaats,8,51.3008828627,4.67692154208
2390,Malle,Sint Lenaartsebaan,97,51.3087779968,4.72388140945
2390,Malle,Bergstraatje,7,51.2976243995,4.69746162103
2390,Malle,Leeuwerikenlaan,6,51.2862905603,4.72358600304
2390,Malle,Leopold III-laan,38,51.3009290973,4.69958423905
2390,Malle,Mostheuvellaan,8,51.2835445727,4.66905027506
2390,Malle,Antwerpsesteenweg,181,51.2970544304,4.69901901262
2390,Malle,Vogelsanck,6,51.3002554557,4.74721291685
2390,Malle,Brechtsesteenweg,10,51.2980887438,4.68456806794
2390,Malle,Kasteellaan,43,51.3005169687,4.68974765498
2390,Malle,Pastoor Minnenstraat,11,51.3095339952,4.74743019827
2390,Malle,Lierselei,66,51.2948427282,4.73068737151
2390,Malle,Thierry de Renesselaan,17,51.3042919288,4.7248604565
2390,Malle,Antwerpsesteenweg,494,51.2835984065,4.66391737814
2390,Malle,Hoogstraatsebaan,45,51.3042914259,4.7355789258
2390,Malle,Zoerselbaan,16,51.2959450351,4.6944783561
2390,Malle,Dokter Meeusstraat,16,51.3049442157,4.7453918787
2390,Malle,Zoerselbaan,44,51.2945483229,4.69615003932
2390,Malle,Talondreef,52,51.3067859686,4.75324484691
2390,Malle,Merksplassebaan,64,51.3085046292,4.74462542755
2390,Malle,Begonialaan,18,51.3074566339,4.73023241704
2390,Malle,Oude Molenstraat,17,51.3049903587,4.6864629041
2390,Malle,Oude Baan,96,51.2924045965,4.66859865165
2390,Malle,Goudveillaan,13,51.309550037,4.72663829087
2390,Malle,Antwerpsesteenweg,76,51.3001729716,4.72157233403
2390,Malle,Grootakker,12,51.3020927857,4.68944611268
2390,Malle,Zandstraat,9,51.2960850656,4.69707898205
2390,Malle,Antwerpsesteenweg,486,51.287975619,4.67027323064
2390,Malle,Kapelstraat,54,51.2932595703,4.70012483886
2390,Malle,Hoogstraatsebaan,20,51.3031066577,4.73553200314
2390,Malle,De Speelhoven,11,51.302837683,4.73313489474
2390,Malle,Steenovenstraat,18,51.3148542117,4.70662972561
2390,Malle,De Schaggelen,63,51.2950119486,4.693048085
2390,Malle,Antwerpsesteenweg,94,51.2998537379,4.71890309395
2390,Malle,Grootakker,30,51.3016866342,4.68737673559
2390,Malle,Energieweg,6,51.2933161583,4.71591844633
2390,Malle,Heidsiebaan,1,51.3079932252,4.67667662133
2390,Malle,Rerum Novarumlaan,53,51.2996706751,4.68453036342
2390,Malle,Kwaad Einde,4,51.3045851374,4.74173419281
2390,Malle,Hoogstraatsebaan,106,51.3075128206,4.73741924721
2390,Malle,Blijkerijstraat,18,51.3020403929,4.73576203266
2390,Malle,Antwerpsesteenweg,237,51.2966344479,4.69483042534
2390,Malle,Meiklokjeslaan,9,51.3110740539,4.73361382641
2390,Malle,Antwerpsesteenweg,58,51.3003897601,4.72421487568
2390,Malle,Sint Laurentiuslaan,34,51.2902670431,4.74029029468
2390,Malle,Epicealaan,24,51.2801420242,4.6711837561
2390,Malle,Antwerpsesteenweg,355,51.2966375058,4.68473798278
2390,Malle,Begonialaan,36,51.308047335,4.73029179374
2390,Malle,Philip Geertsstraat,13,51.3054023072,4.74359326713
2390,Malle,De Schaggelen,45,51.2944101618,4.69269723896
2390,Malle,Talondreef,70,51.3052439969,4.75245675341
2390,Malle,Rode-Kruislaan,6,51.2791674358,4.66568981212
2390,Malle,De Speelhoven,9,51.302858919,4.73330210665
2390,Malle,Blijkerijstraat,36,51.3019870085,4.73700317215
2390,Malle,Brechtsesteenweg,106,51.3027960797,4.67843634845
2390,Malle,Zylhovenstraat,8,51.3046729828,4.73409582237
2390,Malle,Scherpenberg,28,51.2898979723,4.67897076454
2390,Malle,Turnhoutsebaan,135,51.30171951,4.75382118787
2390,Malle,Brechtsesteenweg,47,51.2996306533,4.68112361687
2390,Malle,Sint Lenaartsebaan,112,51.309352491,4.7240408244
2390,Malle,Turnhoutsebaan,31,51.3015733202,4.73765386125
2390,Malle,Pinksterbloemlaan,18,51.3102334934,4.72809170349
2390,Malle,Herentalsebaan,57,51.296573694,4.738782609
2390,Malle,Aardekensweg,15,51.3092184238,4.74849413838
2390,Malle,Heikant-Oost,31,51.3224097266,4.73262030101
2390,Malle,Pastoor Minnenstraat,8,51.3095765177,4.74683769875
2390,Malle,Ticheltij,29,51.2979717915,4.68047790001
2390,Malle,Zoerselbaan,7,51.2961951571,4.6949742915
2390,Malle,Zylhovenstraat,10,51.3045197627,4.73411569593
2390,Malle,Dokter Meeusstraat,7,51.3063538687,4.74577585419
2390,Malle,Sint Jobbaan,43,51.3018901693,4.67121498489
2390,Malle,Ganzenkuil,17,51.2957773055,4.70135566193
2390,Malle,Dennenlaan,12,51.2843828501,4.67030681367
2390,Malle,Molendreef,1,51.3008505529,4.75123872792
2390,Malle,Turnhoutsebaan,13,51.3015370912,4.73583677364
2390,Malle,Talondreef,6,51.3069123252,4.74353590298
2390,Malle,Tichelmanstraat,50,51.3004462884,4.67912681968
2390,Malle,Hoogstraatsebaan,47,51.304269953,4.73574982162
2390,Malle,Dorpsplaats,27,51.3014903844,4.73414363243
2390,Malle,Antwerpsesteenweg,391,51.2940977891,4.6808869964
2390,Malle,Antwerpsesteenweg,468,51.2898925723,4.67327271989
2390,Malle,Hemelstraat,12,51.303529859,4.67544313918
2390,Malle,Turnhoutsebaan,117,51.3016458504,4.7506763314
2390,Malle,Vogelsanck,16,51.2990420894,4.74829296977
2390,Malle,Hallebaan,62,51.2924608741,4.68271279289
2390,Malle,Sint Jobbaan,61,51.3019467208,4.67061113637
2390,Malle,Hallebaan,205,51.2784514211,4.67901730393
2390,Malle,Sint Jobbaan,35,51.3019159681,4.6717402219
2390,Malle,Antwerpsesteenweg,373,51.2949874907,4.68246350433
2390,Malle,Bosdreef,12,51.2921304345,4.73953380781
2390,Malle,Canadalaan,8,51.2959387171,4.76174727157
2390,Malle,Het Wild Rijt,11,51.2903941713,4.67192251976
2390,Malle,Sint Lenaartsebaan,70,51.3064496326,4.72720993331
2390,Malle,Merksplassebaan,115,51.3136521695,4.74903508169
2390,Malle,Guido Gezellelaan,4,51.3026462136,4.74789125103
2390,Malle,Beukenlaan,7,51.302746913,4.75336384062
2390,Malle,Hendrik Consciencestraat,19,51.3089459518,4.75132302191
2390,Malle,Turnhoutsebaan,200,51.3008141995,4.77057329371
2390,Malle,Boudewijnlaan,8,51.2940402632,4.69499671903
2390,Malle,Dorpsweg,10,51.3017915769,4.73295004145
2390,Malle,Antwerpsesteenweg,127,51.2977240669,4.70503787772
2390,Malle,Kasteellaan,17,51.2985627459,4.68759373523
2390,Malle,Rozenlaan,16,51.3068301778,4.73446397234
2390,Malle,De Schaggelen,8,51.2952311818,4.6905120958
2390,Malle,Berckhovenstraat,90,51.301118967,4.69377106693
2390,Malle,Klokkeven,2,51.3177795414,4.71438631759
2390,Malle,Moerbeeklaan,8,51.2814875144,4.66513981631
2390,Malle,Kasteellaan,35,51.299863598,4.68905923151
2390,Malle,Hoogstraatsebaan,177,51.3137341796,4.73724059181
2390,Malle,Korenbloemlaan,24,51.3069333043,4.7309496419
2390,Malle,Blommerschot,11,51.2519858031,4.74923743562
2390,Malle,Prins Albertlei,5,51.2970770023,4.73570762923
2390,Malle,Hagelkruis,7,51.3075816413,4.73517312775
2390,Malle,Begonialaan,44,51.308280563,4.7303261616
2390,Malle,Schaggeleweg,2,51.2965579678,4.68900905373
2390,Malle,Antwerpsesteenweg,263,51.2967276892,4.69266092873
2390,Malle,De Schaggelen,10,51.2951520905,4.6908732514
2390,Malle,Holstraat,8,51.2993761478,4.69075386538
2390,Malle,Merksplassebaan,9,51.3063587876,4.7382958541
2390,Malle,Blijkerijstraat,44,51.3020962371,4.73777444154
2390,Malle,Lammekensstraat,31,51.301109835,4.69797994748
2390,Malle,Salphensebaan,19,51.2919492478,4.74218396312
2390,Malle,Pastoor Van Loenhoutlaan,31,51.2990569748,4.6847273453
2390,Malle,Antwerpsesteenweg,4,51.301430343,4.73254072117
2390,Malle,Antwerpsesteenweg,309,51.2971024202,4.68896205515
2390,Malle,Schapenstraat,40,51.3012903535,4.70037856436
2390,Malle,Boudewijnlaan,10,51.2939858275,4.69472424157
2390,Malle,Ticheltij,40,51.2982605663,4.68034750587
2390,Malle,Bergstraatje,11,51.2976374641,4.6976763386
2390,Malle,Schaggeleweg,22,51.2953837731,4.68840284725
2390,Malle,Den Mostheuvel,9,51.2767896307,4.65839984582
2390,Malle,Turnhoutsebaan,188,51.301246459,4.76652806905
2390,Malle,Moerbeeklaan,10,51.2813646377,4.66567963464
2390,Malle,Mostheuvellaan,27,51.2833913431,4.67409163935
2390,Malle,Lorkenlaan,11,51.2950184298,4.76384505676
2390,Malle,Kardinaal Cardijnplaats,27,51.3002415946,4.67600941743
2390,Malle,Lierselei,187,51.2829942536,4.72479543936
2390,Malle,Sint Lenaartsebaan,52,51.3052220918,4.72881536156
2390,Malle,Lammekensstraat,13,51.3020461836,4.69728371745
2390,Malle,Lierselei,28,51.3003226993,4.7309983255
2390,Malle,Pastoor Van Loenhoutlaan,13,51.2994965667,4.6869125153
2390,Malle,Holstraat,10,51.2994261623,4.69093701601
2390,Malle,De Zwaantjes,12,51.3053920275,4.73949869922
2390,Malle,Zeepakker,26,51.2996913333,4.7020479512
2390,Malle,Lochtiens,21,51.309964321,4.73357298577
2390,Malle,Onze Lieve Vrouwstraat,44,51.2966285581,4.73957429076
2390,Malle,Canadalaan,10,51.295505879,4.76165544207
2390,Malle,Schepersdijk,3,51.2895537883,4.69801287752
2390,Malle,Smekenstraat,11,51.3043853118,4.73913806572
2390,Malle,Ganzenkuil,35,51.2950163237,4.70108241315
2390,Malle,Petrus Delenstraat,28,51.3009433427,4.69484619397
2390,Malle,Elzenlaan,8,51.278118465,4.6586883011
2390,Malle,Wijngaardstraat,36,51.291618094,4.66626583481
2390,Malle,Dorpsweg,8,51.3017672294,4.73280073206
2390,Malle,Antwerpsesteenweg,210,51.2973604447,4.69605874844
2390,Malle,Zoerselbaan,62,51.2938379303,4.69704446363
2390,Malle,Hallebaan,151,51.2852980254,4.6817476366
2390,Malle,Goudveillaan,2,51.3084664536,4.72831694394
2390,Malle,Slachterijstraat,18,51.3054855131,4.73444535614
2390,Malle,Antwerpsesteenweg,198,51.297235178,4.69734402827
2390,Malle,Leopold III-laan,21,51.299353733,4.6991360105
2390,Malle,Azalealaan,33,51.3114405802,4.73198251451
2390,Malle,Heidedreef,10,51.2919352885,4.74085310508
2390,Malle,Antwerpsesteenweg,245,51.2966540099,4.69402670333
2390,Malle,Lierselei,116,51.2850778914,4.72384649397
2390,Malle,Brechtsesteenweg,37,51.2991417498,4.68168092358
2390,Malle,Stekensbergstraat,33,51.2893720563,4.67972884211
2390,Malle,Lochtiens,9,51.3102142943,4.73519676418
2390,Malle,Hoogstraatsebaan,37,51.3039606338,4.73567439249
2390,Malle,Talondreef,69,51.3032730108,4.75202966862
2390,Malle,Leo Bauwensstraat,6,51.3066748397,4.7445326136
2390,Malle,Antwerpsesteenweg,220,51.2972533457,4.6954594284
2390,Malle,De Zwaantjes,9,51.3050413187,4.73983918397
2390,Malle,Acacialaan,15,51.2857002975,4.6733382626
2390,Malle,De Schaggelen,47,51.2943970084,4.69287233332
2390,Malle,Frans Van Gielstraat,8,51.3084254159,4.74539672938
2390,Malle,Sint Lenaartsebaan,34,51.3041608754,4.72987009003
2390,Malle,Sint Jozeflei,17,51.2983896569,4.69287194931
2390,Malle,Berckhovenstraat,36,51.2991887881,4.69610374783
2390,Malle,Sint Pauluslaan,6,51.2884335318,4.66344884429
2390,Malle,Antwerpsesteenweg,191,51.2969038628,4.69786454734
2390,Malle,Kapelakkers,7,51.3018004433,4.7233817164
2390,Malle,Sint Jozeflei,35,51.3000366238,4.69235753343
2390,Malle,Jagersweg,41,51.2751528571,4.64738487368
2390,Malle,Kasteellaan,71,51.3014230156,4.69075787594
2390,Malle,Rode-Kruislaan,25,51.2782697998,4.66803207082
2390,Malle,Kantweg,26,51.313377922,4.73150301388
2390,Malle,Turnhoutsebaan,38,51.301218869,4.73787027714
2390,Malle,Tulpenlaan,21,51.3070200647,4.73234731503
2390,Malle,Hickendorfdreef,10,51.2772522312,4.65833666532
2390,Malle,Scherpenberg,21,51.291325533,4.67983954143
2390,Malle,Grootakker,19,51.3015202159,4.68859219046
2390,Malle,Bloemenstraat,18,51.3064021949,4.73413308304
2390,Malle,Slachterijstraat,36,51.3055492071,4.732912393
2390,Malle,Merksplassebaan,99,51.3121126525,4.74767035906
2390,Malle,Berckhovenstraat,18,51.2981371539,4.6967254516
2390,Malle,Meirakkerweg,18,51.2992967854,4.73808612813
2390,Malle,Oude Baan,43,51.2960149026,4.68053859972
2390,Malle,Zeepakker,6,51.2988455763,4.70222783877
2390,Malle,Sint Lenaartsebaan,16,51.3028489101,4.73053280431
2390,Malle,Antwerpsesteenweg,327,51.2969821778,4.68799134131
2390,Malle,Geurtsestraat,36,51.3105957121,4.74221942805
2390,Malle,Ganzenkuil,53,51.2947510416,4.69778808019
2390,Malle,Frans Van Gielstraat,20,51.3082206838,4.74705209344
2390,Malle,Hagelkruis,26,51.3081683883,4.73351657669
2390,Malle,Oude Meirstraat,43,51.2997467226,4.74388514856
2390,Malle,Jan van Renesselaan,23,51.2880857026,4.72256364224
2390,Malle,Vlimmersendijk,23,51.300153391,4.74927214591
2390,Malle,Turnhoutsebaan,145,51.3017435141,4.75525192232
2390,Malle,Leegstede,23,51.3115971342,4.74396407489
2390,Malle,Heidedreef,8,51.2916147727,4.74085154201
2390,Malle,Antwerpsesteenweg,155,51.2973408802,4.70164757417
2390,Malle,Hoogstraatsebaan,1,51.3025803595,4.73450020251
2390,Malle,Hendrik Consciencestraat,2,51.3089795458,4.7491845477
2390,Malle,Tichelmanstraat,14,51.2975019721,4.67911459951
2390,Malle,Antwerpsesteenweg,298,51.2973709482,4.68950684572
2390,Malle,Bosdreef,19,51.293793764,4.73868391771
2390,Malle,Schapenstraat,22,51.3003375575,4.69811355074
2390,Malle,Zwanenstraat,9,51.2980923189,4.68871898289
2390,Malle,Leemstraat,15,51.3024446372,4.69500943944
2390,Malle,Tichelmanstraat,32,51.2988202109,4.67903408675
2390,Malle,Wijngaardstraat,7,51.2893550143,4.66681224626
2390,Malle,Geurtsestraat,18,51.3088196398,4.74267723792
2390,Malle,Grootakker,100,51.3012256895,4.68112574212
2390,Malle,Zonnedauwlaan,7,51.3079199932,4.72780736477
2390,Malle,Antwerpsesteenweg,415,51.2910223201,4.67662934628
2390,Malle,Druivenlaan,25,51.295089452,4.66661192673
2390,Malle,Oude Kastanjedreef,10,51.2787411098,4.66386616876
2390,Malle,Dennenlaan,19,51.2851190739,4.67171280038
2390,Malle,Ambachtsstraat,15,51.2892774496,4.70994061907
2390,Malle,Lacroixlaan,15,51.2805620986,4.66420163334
2390,Malle,Salphensebaan,2,51.2945401237,4.74112455969
2390,Malle,Herentalsebaan,101,51.2937936929,4.74372713341
2390,Malle,Hallebaan,79,51.2924708668,4.68334892267
2390,Malle,Sint Lenaartsebaan,140,51.3168419122,4.71542594362
2390,Malle,Brechtsesteenweg,152,51.3060383503,4.67769166331
2390,Malle,Lacroixlaan,33,51.2794970669,4.66901924142
2390,Malle,Dorpsweg,27,51.3023079293,4.73330638605
2390,Malle,Kardinaal Cardijnplaats,10,51.3008798259,4.67670731225
2390,Malle,Den Mostheuvel,11,51.2767493795,4.6587961213
2390,Malle,Merksplassebaan,11,51.3064863497,4.73889297348
2390,Malle,Talondreef,16,51.3071917349,4.74566707391
2390,Malle,Haard,16,51.2941768802,4.73355282164
2390,Malle,Aardekensweg,4,51.3092520456,4.74899576203
2390,Malle,Zoerselbaan,123,51.2855569374,4.70461040851
2390,Malle,Dennenlaan,9,51.2854627124,4.67110917514
2390,Malle,Berckhovenstraat,72,51.3005642129,4.69432751069
2390,Malle,Talondreef,34,51.3080873381,4.75167546184
2390,Malle,Pastoor Van Loenhoutlaan,38,51.299432685,4.68496102272
2390,Malle,Salphensebaan,12,51.2926179148,4.74143342527
2390,Malle,Delften,27,51.2874968827,4.71350113058
2390,Malle,Turnhoutsebaan,84,51.3010726379,4.74287211295
2390,Malle,Hallebaan,158,51.2809789634,4.67848613139
2390,Malle,Rerum Novarumlaan,17,51.3005339813,4.68777989575
2390,Malle,Moerbeeklaan,27,51.2800755426,4.67001071293
2390,Malle,Mostheuvellaan,10,51.2833612388,4.66928744107
2390,Malle,De Schaggelen,27,51.2946986969,4.69121331373
2390,Malle,Hoogstraatsebaan,73,51.3058165247,4.73653924477
2390,Malle,De Schaaf,10,51.2916814636,4.71957317595
2390,Malle,Zoerselbaan,105,51.2888790105,4.70285940304
2390,Malle,Kapelstraat,36,51.2948163489,4.70165270824
2390,Malle,Hoge Weg,10,51.2986570776,4.69748513001
2390,Malle,Schapenstraat,57,51.3019191034,4.70094525966
2390,Malle,Brechtsesteenweg,8,51.2980404646,4.6848417222
2390,Malle,Azalealaan,51,51.312214492,4.73369477971
2390,Malle,Begonialaan,7,51.3063196418,4.72981646446
2390,Malle,Nijverheidsstraat,8,51.294664409,4.71188028907
2390,Malle,Turnhoutsebaan,66,51.3011521959,4.74113153004
2390,Malle,Schaggeleweg,29,51.294504314,4.68925222712
2390,Malle,Pater Hensstraat,12,51.2916339573,4.74320137947
2390,Malle,Kapelstraat,18,51.2971288111,4.70207544346
2390,Malle,Hoogstraatsebaan,152,51.3098777911,4.73744762615
2390,Malle,Antwerpsesteenweg,120,51.2993910986,4.7138043205
2390,Malle,Moerdreef,8,51.2805112237,4.67409822202
2390,Malle,Sint Lenaartsebaan,69,51.3063011305,4.72620629818
2390,Malle,Ticheltij,3,51.2982464896,4.67978840445
2390,Malle,Hendrik Consciencestraat,12,51.3093847288,4.75052456106
2390,Malle,Antwerpsesteenweg,433,51.2900057788,4.67475122068
2390,Malle,Pater Hensstraat,2,51.2922301456,4.74436347983
2390,Malle,Steenovenstraat,7,51.3081220091,4.70587033248
2390,Malle,Heidsiebaan,28,51.30982892,4.66851169887
2390,Malle,Berckhovenstraat,54,51.2998683371,4.69514604713
2390,Malle,Brechtsesteenweg,91,51.3028821624,4.67741472265
2390,Malle,Schaggeleweg,40,51.2940606838,4.68894366812
2390,Malle,Grootakker,9,51.3017307161,4.68958814241
2390,Malle,De Zwaantjes,19,51.3050927632,4.73862419161
2390,Malle,Herentalsebaan,22,51.2981341334,4.73448082857
2390,Malle,Kersenlaan,3,51.293137026,4.68214881235
2390,Malle,Hagelkruis,44,51.3091081887,4.73158955592
2390,Malle,Wijngaardstraat,54,51.2942849637,4.66534362619
2390,Malle,Lierselei,21,51.3000253149,4.73358813438
2390,Malle,Kloosterstraat,3,51.3002215758,4.73246401151
2390,Malle,Rerum Novarumlaan,35,51.3001571259,4.6858356847
2390,Malle,Boudewijnlaan,27,51.2933992505,4.69345327914
2390,Malle,Lierselei,56,51.2957666304,4.73100925408
2390,Malle,Emiel van Hemeldonckstraat,8,51.3058896447,4.74248659744
2390,Malle,Leopold III-laan,28,51.300150089,4.69987390577
2390,Malle,Vlimmersendijk,4,51.3011610299,4.74549254694
2390,Malle,Zandstraat,11,51.2959931875,4.69727976062
2390,Malle,Hoogstraatsebaan,55,51.3047455884,4.73630592674
2390,Malle,Zoerselbaan,26,51.295568321,4.69500644722
2390,Malle,Meiklokjeslaan,11,51.3111985251,4.73347296945
2390,Malle,Hoogstraatsebaan,170,51.3116265682,4.73763690251
2390,Malle,Pastoor De Molderlaan,10,51.30193234,4.72969432788
2390,Malle,Bosdreef,9,51.2922008328,4.73883896029
2390,Malle,Molendreef,28,51.2980581742,4.74973815052
2390,Malle,Petrus Delenstraat,21,51.3013238312,4.69487194971
2390,Malle,Wilgenlaan,18,51.2867704858,4.67398054674
2390,Malle,Sint Lenaartsebaan,87,51.3077801337,4.72501554398
2390,Malle,Brechtsesteenweg,73,51.3006866213,4.67930205826
2390,Malle,Berckhovenstraat,57,51.3005307589,4.69387692263
2390,Malle,Brechtsesteenweg,21,51.2986225635,4.68250540497
2390,Malle,Schapenstraat,54,51.3018841501,4.70218642203
2390,Malle,Hoge Weg,13,51.2993491898,4.69689516357
2390,Malle,Wijngaardstraat,31,51.2934174288,4.66494729537
2390,Malle,Merksplassebaan,92,51.3114013595,4.74766068455
2390,Malle,Antwerpsesteenweg,515,51.2761006063,4.65425952393
2390,Malle,Begonialaan,41,51.3077952945,4.72976627225
2390,Malle,Sint Pauluslaan,14,51.2937384853,4.65031795631
2390,Malle,Nijverheidsstraat,12,51.2936140505,4.71163097361
2390,Malle,Antwerpsesteenweg,251,51.2966744402,4.69336305646
2390,Malle,Moerbeeklaan,5,51.2810564517,4.6655998428
2390,Malle,Turnhoutsebaan,116,51.3011671977,4.74719181082
2390,Malle,Boudewijnlaan,5,51.2937918269,4.69590787991
2390,Malle,Turnhoutsebaan,134,51.3012149678,4.74972532342
2390,Malle,Den Mostheuvel,65,51.2769718852,4.66973407133
2390,Malle,Blijkerijstraat,50,51.3021961197,4.73865848386
2390,Malle,Pastoor Van Loenhoutlaan,48,51.2995526836,4.68425241551
2390,Malle,De Speelhoven,21,51.3030264099,4.73264699498
2390,Malle,Herentalsebaan,10,51.2987252159,4.73415543491
2390,Malle,Nijverheidsstraat,30,51.2907345353,4.71266821292
2390,Malle,Korte Dennenlaan,3,51.2842701693,4.67264449134
2390,Malle,Antwerpsesteenweg,496,51.284330089,4.65613697581
2390,Malle,Pastoor Minnenstraat,9,51.3096661473,4.74733791718
2390,Malle,Antwerpsesteenweg,133,51.2976309229,4.70428809416
2390,Malle,Kardinaal Cardijnplaats,13,51.3008299311,4.67860260605
2390,Malle,Irislaan,12,51.3086529826,4.73582661211
2390,Malle,Azalealaan,1,51.3085682709,4.73270030559
2390,Malle,Merksplassebaan,56,51.3078861002,4.74396263708
2390,Malle,Kasteellaan,14,51.2983517197,4.68828649519
2390,Malle,Korte Ganzenkuil,10,51.2966499082,4.70201580724
2390,Malle,Beekstraat,5,51.2976094614,4.73370522241
2390,Malle,Energieweg,7,51.293844,4.71522638435
2390,Malle,Bruintjensweg,20,51.3014737812,4.72533423914
2390,Malle,Vlimmersendijk,62,51.2967955343,4.76731462318
2390,Malle,Stijn Streuvelslaan,24,51.3037121397,4.74892231586
2390,Malle,Turnhoutsebaan,98,51.3011391865,4.74391029974
2390,Malle,Sint Lenaartsebaan,131,51.3177122959,4.71355993471
2390,Malle,Zeepakker,32,51.3001738169,4.70208066229
2390,Malle,Holstraat,5,51.2990054085,4.68938981283
2390,Malle,Lierselei,20,51.3000724246,4.73303062062
2390,Malle,Antwerpsesteenweg,394,51.2935608157,4.67901687403
2390,Malle,Azalealaan,25,51.3109053035,4.73231448469
2390,Malle,Smekenstraat,40,51.3034067902,4.74170394113
2390,Malle,Geurtsestraat,5,51.3081685645,4.7421847136
2390,Malle,Sint Lenaartsebaan,148,51.3174819513,4.71456841197
2390,Malle,Rozenlaan,24,51.3068528544,4.73590559645
2390,Malle,Antwerpsesteenweg,478,51.2890689358,4.67192777491
2390,Malle,Kardinaal Cardijnplaats,31,51.3008992288,4.6769186397
2390,Malle,Vogelsanck,15,51.2982617859,4.74950612277
2390,Malle,Hallebaan,156,51.2813998715,4.67831910312
2390,Malle,Slachterijstraat,13,51.305138412,4.73400183179
2390,Malle,Pastoor Van Loenhoutlaan,36,51.2994552591,4.68505666459
2390,Malle,Ticheltij,39,51.2983686558,4.68080487169
2390,Malle,Schaggeleweg,27,51.2947093683,4.68920676284
2390,Malle,Mostheuvellaan,22,51.2824912598,4.67213853323
2390,Malle,Kasteellaan,20A,51.2995858709,4.68968587702
2390,Malle,Lochtiens,15,51.3100748367,4.73440031872
2390,Malle,Bosdreef,11,51.2925273248,4.73876902308
2390,Malle,Klaprooslaan,16,51.3083800628,4.72737468767
2390,Malle,Lammekensstraat,27,51.3012625111,4.69786274007
2390,Malle,Antwerpsesteenweg,303A,51.2969782116,4.68955560285
2390,Malle,Zoerselbaan,6,51.2962038394,4.69417236467
2390,Malle,Thierry de Renesselaan,7,51.3034077165,4.72514360905
2390,Malle,Moerbeeklaan,29,51.2802155127,4.66940195303
2390,Malle,Delften,29,51.2876728181,4.71339650794
2390,Malle,Voetbalstraat,8,51.2928262788,4.69757188665
2390,Malle,Herentalsebaan,98,51.292470074,4.74460783194
2390,Malle,Jagersweg,47,51.2749296612,4.64636195039
2390,Malle,Talondreef,7,51.3075277287,4.74430634281
2390,Malle,Lindedreef,3,51.2749824337,4.64962592374
2390,Malle,Kasteellaan,32,51.3013793015,4.69156022322
2390,Malle,Merksplassebaan,4,51.3060102419,4.7377438735
2390,Malle,Antwerpsesteenweg,9,51.3008810268,4.73278962962
2390,Malle,Merksplassebaan,74,51.3094854611,4.74579811656
2390,Malle,Heikantstraat,19,51.3045639765,4.65303605688
2390,Malle,Kapelstraat,29,51.2957251973,4.70259065906
2390,Malle,Kapelstraat,75,51.2931079056,4.70068126943
2390,Malle,Merksplassebaan,28,51.306384533,4.74034822025
2390,Malle,Kapelstraat,5,51.297263848,4.70339927863
2390,Malle,Pastoor Van Loenhoutlaan,18,51.2998710028,4.68691680075
2390,Malle,Rerum Novarumlaan,39,51.3000409114,4.68539888045
2390,Malle,Hickendorfdreef,6A,51.277364815,4.65688265341
2390,Malle,Lierselei,91,51.2959253715,4.73162165754
2390,Malle,Elzenlaan,5,51.2785435951,4.65993618409
2390,Malle,Meiklokjeslaan,8,51.3109026244,4.7342622766
2390,Malle,Wijngaardstraat,13,51.2914319747,4.66557641552
2390,Malle,Moerbeeklaan,40,51.2804179414,4.66648690741
2390,Malle,Heikant-Oost,18,51.3223780084,4.73430770311
2390,Malle,Lange Dreef,30,51.3101986106,4.76519328536
2390,Malle,Sint Jozeflei,39,51.3002784644,4.69213913276
2390,Malle,Pastoor Van Loenhoutlaan,3,51.2996024957,4.68806111016
2390,Malle,Hooiberghoeve,5,51.2889595283,4.72707229055
2390,Malle,Antwerpsesteenweg,186,51.2974206789,4.69812455364
2390,Malle,Den Mostheuvel,19,51.2765413878,4.66036702095
2390,Malle,Lierselei,117,51.2946964325,4.73135128544
2390,Malle,Heikant-Oost,3,51.3211742449,4.73881137534
2390,Malle,Zoerselbaan,41,51.2950211195,4.69643579482
2390,Malle,Lochtiens,33,51.3097802296,4.73162033227
2390,Malle,Brechtsesteenweg,210,51.3135568384,4.68351832425
2390,Malle,Geurtsestraat,29,51.3105928758,4.74120936529
2390,Malle,De Hoeve,6,51.3104991002,4.69022236367
2390,Malle,Rerum Novarumlaan,50,51.3001526843,4.68457407312
2390,Malle,Bergstraatje,21,51.2976269226,4.69871727446
2390,Malle,Kievitdreef,35,51.2862204811,4.72210639175
2390,Malle,Frans Van Gielstraat,30,51.3085680864,4.74836735864
2390,Malle,Dorpsplaats,22,51.301853856,4.73452516695
2390,Malle,Begonialaan,13,51.3067009224,4.72972750981
2390,Malle,Begonialaan,31,51.3074415878,4.72974402074
2390,Malle,Industrieweg,7,51.2951314862,4.71574248598
2390,Malle,Zoerselbaan,119,51.2863755359,4.70478632144
2390,Malle,Kasteellaan,49,51.3009378046,4.69014113127
2390,Malle,Kapelakkers,13,51.3023399118,4.72323284305
2390,Malle,Scherpenberg,20,51.2904915591,4.67752763063
2390,Malle,Acacialaan,8,51.2864280914,4.67158344863
2390,Malle,Kievitdreef,17,51.2883618315,4.72402840467
2390,Malle,Paalstraat,6,51.2978649758,4.69818533909
2390,Malle,Antwerpsesteenweg,168,51.2977010499,4.70049229606
2390,Malle,Antwerpsesteenweg,115,51.2977058578,4.70685224217
2390,Malle,Antwerpsesteenweg,341,51.2971379014,4.68627198923
2390,Malle,Oude Baan,104,51.2915664474,4.66689352563
2390,Malle,Ganzenkuil,23,51.295410143,4.70173667343
2390,Malle,De Schaggelen,109,51.2957668595,4.692329652
2390,Malle,Smekenstraat,30,51.3038257072,4.74085542646
2390,Malle,Blijkerijstraat,22,51.3020513254,4.73594636759
2390,Malle,Hoogstraatsebaan,198,51.31619636,4.73892087661
2390,Malle,Ernest Claesstraat,3,51.3087632663,4.74972240914
2390,Malle,Zandstraat,28,51.2948643012,4.69720353694
2390,Malle,Schildeken,18,51.3050618842,4.73077043475
2390,Malle,Berckhovenstraat,29,51.2992493853,4.69522026738
2390,Malle,Steenovenstraat,22,51.3174200613,4.70857166495
2390,Malle,Slachterijstraat,38,51.3055663942,4.73267248468
2390,Malle,Akkerstraat,15,51.3050641108,4.72572243412
2390,Malle,Hoogstraatsebaan,28,51.3034172586,4.73577377049
2390,Malle,Ambachtsstraat,28,51.2920827816,4.70712139445
2390,Malle,Epicealaan,16,51.2810101017,4.67202796485
2390,Malle,Hallebaan,85,51.2918030077,4.68380068934
2390,Malle,Vinkenlaan,17,51.2882798848,4.71801904377
2390,Malle,Grootakker,37,51.3012394509,4.68648327077
2390,Malle,Geurtsestraat,40,51.3111226656,4.74145755744
2390,Malle,Leopold III-laan,11,51.2984816913,4.6996848041
2390,Malle,Hoogstraatsebaan,4,51.3024641199,4.73494292166
2390,Malle,Bremlaan,11,51.2873529922,4.67297785262
2390,Malle,De Speelhoven,28,51.3042014368,4.7322670371
2390,Malle,Ticheltij,14,51.2972825768,4.68119284298
2390,Malle,Hoge Warande,14,51.3028714189,4.72771901836
2390,Malle,Oude Baan,60,51.2962932268,4.68011065713
2390,Malle,Rerum Novarumlaan,32,51.3006894307,4.68666289041
2390,Malle,De Schaggelen,13,51.2952185012,4.68988694684
2390,Malle,Kasteellaan,39,51.3001509793,4.68931370172
2390,Malle,Hoogstraatsebaan,155,51.3113481752,4.73683875076
2390,Malle,Hallebaan,67,51.2932515194,4.68323751748
2390,Malle,Kardinaal Cardijnplaats,6,51.3009158423,4.67709654124
2390,Malle,De Schaggelen,127,51.296113823,4.69047907098
2390,Malle,Berckhovenstraat,40,51.2992838054,4.69570970551
2390,Malle,Hoogstraatsebaan,173,51.3131374305,4.73713331334
2390,Malle,Zoerselbaan,23,51.2957360152,4.69589361625
2390,Malle,Grootakker,4,51.3023176583,4.69027743154
2390,Malle,Brechtsesteenweg,28,51.2990967671,4.68271334718
2390,Malle,Hallebaan,199,51.2793058327,4.67956889061
2390,Malle,Sint Lenaartsebaan,15,51.3020994224,4.73054976567
2390,Malle,Acacialaan,25,51.284437982,4.6752528927
2390,Malle,Klaprooslaan,9,51.3081938794,4.72907243174
2390,Malle,Oude Baan,42,51.2966861137,4.68167097424
2390,Malle,Sint Jozeflei,50,51.3011809803,4.69252853071
2390,Malle,Schildeken,2,51.3039896944,4.73041435833
2390,Malle,Lierselei,145,51.2929299589,4.73112232323
2390,Malle,Ticheltij,32,51.2981273361,4.68141200585
2390,Malle,Dorpsweg,13,51.3020463118,4.73259673277
2390,Malle,Molendreef,12,51.3000769901,4.75047145195
2390,Malle,Antwerpsesteenweg,286,51.297266497,4.69020461795
2390,Malle,Heidedreef,22,51.2939344495,4.74053981823
2390,Malle,Ijkelvoort,2,51.2967901704,4.74014561147
2390,Malle,Oude Kastanjedreef,6,51.2793461461,4.66392318136
2390,Malle,Petrus Delenstraat,3,51.3006043577,4.69612892252
2390,Malle,Rerum Novarumlaan,14,51.3011446362,4.6887116212
2390,Malle,Eikendreef,6,51.2787637507,4.65122521495
2390,Malle,Blijkerijstraat,67,51.3025737346,4.74302156457
2390,Malle,Wijngaardstraat,38,51.2918872129,4.66672470877
2390,Malle,Schapenstraat,48,51.3014847417,4.70080407628
2390,Malle,Hoogstraatsebaan,191,51.3184227299,4.73845912051
2390,Malle,Nijverheidsstraat,5,51.2964780899,4.71291775328
2390,Malle,Dokter Meeusstraat,14,51.3051656975,4.74533144144
2390,Malle,Heikantstraat,12,51.3073853108,4.65801726195
2390,Malle,Antwerpsesteenweg,425,51.2905097765,4.67539889011
2390,Malle,Het Wild Rijt,5,51.2898418123,4.67221564081
2390,Malle,Zwaluwenlaan,13,51.2850916967,4.71849401915
2390,Malle,Dennenlaan,4,51.285358675,4.66929462999
2390,Malle,Lierselei,37,51.2990017337,4.73306480787
2390,Malle,Aardekensweg,9,51.3087229755,4.74886394449
2390,Malle,Antwerpsesteenweg,407,51.2924051365,4.67845953601
2390,Malle,Industrieweg,15,51.2948843302,4.70887102907
2390,Malle,Salphensebaan,3,51.2938726523,4.74189578625
2390,Malle,Lacroixlaan,16,51.2801133271,4.66344149803
2390,Malle,Antwerpsesteenweg,80,51.3001423071,4.72106497287
2390,Malle,Haard,24,51.2940546106,4.73251250574
2390,Malle,Hallebaan,49,51.293859076,4.68493885096
2390,Malle,Kapelstraat,22,51.2966619147,4.70244327097
2390,Malle,Lammekensstraat,10,51.301861871,4.69659130692
2390,Malle,Lacroixlaan,34,51.2792555119,4.66793724115
2390,Malle,Hallebaan,111,51.2900071027,4.68389057263
2390,Malle,De Schaggelen,31,51.2946497878,4.6915474352
2390,Malle,Elzenlaan,22,51.2778976697,4.66154794569
2390,Malle,Moerbeeklaan,22,51.2806817527,4.66907619931
2390,Malle,Hagelkruis,41,51.308730322,4.7313564398
2390,Malle,Turnhoutsebaan,144,51.3012532771,4.7519443273
2390,Malle,Oude Meirstraat,51,51.2999542965,4.74503341617
2390,Malle,Blijkerijstraat,49,51.3024480923,4.74093902685
2390,Malle,Talondreef,33,51.3079053479,4.74829569101
2390,Malle,Hoge Weg,1A,51.2985895169,4.69685954523
2390,Malle,Hendrik Consciencestraat,3,51.309428379,4.74964268015
2390,Malle,Boudewijnlaan,22,51.2938799111,4.69349649249
2390,Malle,Jagersweg,35,51.2759098436,4.64731045401
2390,Malle,Antwerpsesteenweg,461,51.2872854393,4.6704744409
2390,Malle,Antwerpsesteenweg,268,51.2971784057,4.6915262977
2390,Malle,Lang Ossegoor,24,51.2879590491,4.67769570651
2390,Malle,Oude Meirstraat,15,51.2980455743,4.73758441682
2390,Malle,Herentalsebaan,45,51.2973320237,4.73740384156
2390,Malle,Zwanenstraat,4,51.2977475215,4.68948550329
2390,Malle,Meirakkerweg,13,51.2991893702,4.73739692943
2390,Malle,Antwerpsesteenweg,44,51.3013544051,4.72649873057
2390,Malle,Zoerselbaan,76,51.2921671523,4.69902971193
2390,Malle,Begonialaan,6,51.3070365684,4.73015988617
2390,Malle,Epicealaan,9,51.2802305431,4.67199607611
2390,Malle,Rozenlaan,8,51.3068568762,4.73356091295
2390,Malle,Hoogstraatsebaan,109,51.308214592,4.73656167367
2390,Malle,Azalealaan,43,51.3119683701,4.73274085956
2390,Malle,Hoogstraatsebaan,92,51.3067831933,4.73717785256
2390,Malle,Blommerschot,19,51.2514641113,4.74949012002
2390,Malle,Sint Lenaartsebaan,68,51.3063795998,4.72739265469
2390,Malle,Brechtsesteenweg,56,51.3004676496,4.68091303123
2390,Malle,Sint Lenaartsebaan,97A,51.3088998295,4.72371742512
2390,Malle,Pater Hensstraat,11,51.2910819096,4.74345338499
2390,Malle,Kapelstraat,57,51.2942722796,4.70261319108
2390,Malle,Schapenstraat,36,51.3011619501,4.70004457347
2390,Malle,Hendrik Consciencestraat,11,51.3096118489,4.75083418021
2390,Malle,Stijn Streuvelslaan,8,51.3021033637,4.74888721389
2390,Malle,Het Wild Rijt,19,51.2908502985,4.67165170013
2390,Malle,Pater Hensstraat,3,51.292028817,4.74481327208
2390,Malle,Zeepakker,50,51.3015591672,4.70160181373
2390,Malle,Turnhoutsebaan,162,51.3012283971,4.75525265566
2390,Malle,Schapenstraat,18,51.3002944565,4.69787251288
2390,Malle,Brechtsesteenweg,74,51.3016132908,4.67968233906
2390,Malle,Frans Van Gielstraat,5,51.3086137944,4.74585227514
2390,Malle,Rode-Kruislaan,11,51.2785572752,4.6662051288
2390,Malle,Dorpsplaats,29,51.3013770868,4.73410044365
2390,Malle,Hagelkruis,23,51.3077971493,4.7333797242
2390,Malle,Zoerselbaan,58,51.2940199014,4.69670283485
2390,Malle,De Schaaf,40,51.2842256087,4.71906368373
2390,Malle,Geurtsestraat,22,51.309217535,4.74268087112
2390,Malle,Brechtsesteenweg,109,51.3054490007,4.67603526947
2390,Malle,Herentalsebaan,63,51.2962879684,4.73918118591
2390,Malle,Talondreef,15,51.3076796473,4.74591022647
2390,Malle,Frans Van Gielstraat,19,51.3088058841,4.74790036748
2390,Malle,Sint Jozeflei,14,51.2981000698,4.69326047269
2390,Malle,Salphensebaan,11,51.2928501862,4.74202677422
2390,Malle,Antwerpsesteenweg,331,51.2971631493,4.68764391264
2390,Malle,Vlimmersendijk,26,51.300165869,4.7480182605
2390,Malle,Thierry de Renesselaan,15,51.3041172578,4.72487058869
2390,Malle,Azalealaan,61,51.3125701054,4.73496049953
2390,Malle,Lierselei,55,51.2978970805,4.73245240953
2390,Malle,Oude Holstraat,14,51.3033983283,4.68591129764
2390,Malle,Turnhoutsebaan,63,51.3016569594,4.74019311985
2390,Malle,Oude Hofstede,7,51.2988839042,4.74553688097
2390,Malle,Blijkerijstraat,29,51.3024961698,4.73839216853
2390,Malle,Heidemolenbaan,56,51.2993960245,4.66818656843
2390,Malle,Eertbolweg,14,51.3123918496,4.747830968
2390,Malle,Hemelstraat,20,51.3029865648,4.67494228698
2390,Malle,Eekhoorndreef,7,51.2767347163,4.64912463104
2390,Malle,Heidedreef,5,51.2912951671,4.74038925609
2390,Malle,Smekenstraat,19,51.3041954333,4.74029916396
2390,Malle,Antwerpsesteenweg,348,51.2966368252,4.68391576862
2390,Malle,Antwerpsesteenweg,161,51.2972918282,4.70112822642
2390,Malle,Tulpenlaan,3,51.3056002232,4.73213559204
2390,Malle,Ambachtsstraat,56,51.2885715935,4.70756985739
2390,Malle,Slachterijstraat,31,51.3052124663,4.73196220694
2390,Malle,Salphen,4,51.2753886685,4.73684175498
2390,Malle,Kwaad Einde,17,51.3060126217,4.74082777397
2390,Malle,Geurtsestraat,57,51.3105725501,4.73783074041
2390,Malle,Hoogstraatsebaan,56,51.3045183712,4.73676685401
2390,Malle,Antwerpsesteenweg,143,51.2974749388,4.70261957781
2390,Malle,Stekensbergstraat,16,51.2917292092,4.68187526036
2390,Malle,Sint Lenaartsebaan,86,51.3075413826,4.72609610287
2390,Malle,Turnhoutsebaan,45,51.3015568162,4.73879333508
2390,Malle,Rerum Novarumlaan,49,51.2997533232,4.6846810406
2390,Malle,Brechtsesteenweg,92,51.3020370752,4.67906977412
2390,Malle,Petrus Delenstraat,11,51.3010412494,4.69626735317
2390,Malle,Grootakker,20,51.3018991909,4.68861300994
2390,Malle,Stekensbergstraat,34,51.2899509111,4.6799967611
2390,Malle,Ganzenkuil,41,51.2948831352,4.69947437574
2390,Malle,Berckhovenstraat,75,51.3014252867,4.69298475402
2390,Malle,Silvesterdennenlaan,17,51.2920416208,4.73686257067
2390,Malle,Sint Lenaartsebaan,33,51.3041336029,4.72899878103
2390,Malle,Ambachtsstraat,21,51.288671419,4.71153974331
2390,Malle,Hoogstraatsebaan,21,51.3033103695,4.73493941174
2390,Malle,Antwerpsesteenweg,313,51.2970979801,4.68870983949
2390,Malle,Hallebaan,29,51.295053737,4.68556186302
2390,Malle,Sint Jozeflei,32,51.3000478988,4.69293341617
2390,Malle,Turnhoutsebaan,10,51.3009895535,4.73527871059
2390,Malle,Zwaluwkens,12,51.2968285377,4.73934764486
2390,Malle,Begonialaan,38,51.308105417,4.73031519025
2390,Malle,Gemeentebos,6,51.3092858473,4.71222278149
2390,Malle,Zandstraat,21,51.2954880989,4.6973593394
2390,Malle,Smekenstraat,5,51.3046832818,4.73784102102
2390,Malle,Nooitrust,4,51.2807196751,4.65280185136
2390,Malle,Hoogstraatsebaan,74,51.3057390919,4.73715982088
2390,Malle,Lierselei,181,51.2837329948,4.72384094758
2390,Malle,Oude Baan,49,51.2957965316,4.67966977963
2390,Malle,Antwerpsesteenweg,384,51.2939985498,4.67969745496
2390,Malle,Oude Meirstraat,58,51.2995307747,4.74472172688
2390,Malle,Zeepakker,24,51.2995313626,4.70207304119
2390,Malle,Ganzenkuil,15,51.2959364329,4.70121501332
2390,Malle,Sint Jobbaan,41,51.3018425311,4.67135576338
2390,Malle,Molendreef,18,51.2990747797,4.75006105127
2390,Malle,Ganzenkuil,33,51.2950409923,4.70116373262
2390,Malle,Blijkerijstraat,60,51.3020643771,4.73959746152
2390,Malle,Molendreef,3,51.300659712,4.7511618824
2390,Malle,Emiel van Hemeldonckstraat,13,51.3060170514,4.74167556877
2390,Malle,Onze Lieve Vrouwstraat,42,51.2969850612,4.7397365618
2390,Malle,Herentalsebaan,20,51.2984722581,4.73457180803
2390,Malle,Dorpsweg,6,51.3016714644,4.73275553292
2390,Malle,Slachterijstraat,21,51.3051993896,4.73352380621
2390,Malle,Antwerpsesteenweg,525,51.2744500575,4.65098375337
2390,Malle,Wilgenlaan,19,51.286936336,4.67463410653
2390,Malle,Antwerpsesteenweg,366,51.2956027815,4.68210638326
2390,Malle,Heidedreef,19,51.2934856769,4.74005053147
2390,Malle,Leopold III-laan,18,51.2992480705,4.70005343331
2390,Malle,Wederik,8,51.3094124653,4.72905291674
2390,Malle,Korenbloemlaan,17,51.3070673917,4.73159985701
2390,Malle,Nijverheidsstraat,22,51.291882323,4.71220765942
2390,Malle,Vlimmersendijk,2,51.3011881456,4.74527583056
2390,Malle,Lierselei,10,51.3003745251,4.7331742176
2390,Malle,Stekensbergstraat,7,51.2928825717,4.68150357331
2390,Malle,Leopold III-laan,3,51.2979480583,4.69975039402
2390,Malle,Leegstede,2,51.3116461623,4.74722254462
2390,Malle,Den Mostheuvel,75,51.2770502631,4.67226293666
2390,Malle,Kapelstraat,83,51.2926862604,4.70004348123
2390,Malle,Leopold III-laan,36,51.300763151,4.69962506738
2390,Malle,De Zwaantjes,18,51.3054373964,4.73890311351
2390,Malle,Hallebaan,60,51.2926637375,4.68291586409
2390,Malle,Pastoor De Molderlaan,12,51.3020256465,4.72936742049
2390,Malle,Antwerpsesteenweg,400,51.2933394856,4.67868983244
2390,Malle,Rooistraat,7,51.3006947314,4.73134677188
2390,Malle,Antwerpsesteenweg,243,51.2965920883,4.69441579761
2390,Malle,Brechtsesteenweg,135,51.3149030207,4.68086250367
2390,Malle,Wijngaardstraat,21,51.2924798578,4.66534629139
2390,Malle,Turnhoutsebaan,106,51.3012757668,4.74482832917
2390,Malle,Turnhoutsebaan,47,51.3016585405,4.73897265705
2390,Malle,Vlimmersendijk,52,51.2973111474,4.76333451239
2390,Malle,De Zwaantjes,3,51.3050405249,4.74057822694
2390,Malle,Brechtsesteenweg,31,51.2989552648,4.68201272511
2390,Malle,Scherpenberg,4,51.2922735333,4.679355908
2390,Malle,Grootakker,98,51.301211604,4.68131992867
2390,Malle,Oude Baan,8,51.2972695863,4.68432278538
2390,Malle,Kasteellaan,24,51.3001563132,4.69138339783
2390,Malle,Aardekensweg,2,51.3080988788,4.74980013417
2390,Malle,Mostheuvellaan,12,51.2832769365,4.66963761372
2390,Malle,De Schaggelen,28,51.2952726699,4.6925332255
2390,Malle,Kapelstraat,65,51.2936519216,4.70152666733
2390,Malle,Elzenlaan,19,51.2785266996,4.66341438021
2390,Malle,Talondreef,41,51.3081947974,4.75013017462
2390,Malle,Kapelstraat,19,51.2962873032,4.70288272093
2390,Malle,De Speelhoven,13,51.3029353399,4.73306195992
2390,Malle,Sint Lenaartsebaan,123,51.3164851357,4.71482504035
2390,Malle,Boudewijnlaan,19,51.2935523507,4.69438932715
2390,Malle,Heidsiebaan,3,51.3080442863,4.67646630233
2390,Malle,Sint Lenaartsebaan,94,51.3080298505,4.7255734305
2390,Malle,Rozenlaan,14,51.306843968,4.73424812224
2390,Malle,Brechtsesteenweg,13,51.2982848601,4.68366085284
2390,Malle,Hoge Weg,21,51.2996906642,4.69669613198
2390,Malle,Moerbeeklaan,19,51.2808316521,4.66820077764
2390,Malle,Herentalsebaan,47,51.2972466301,4.73754968745
2390,Malle,Moerdreef,13,51.2807136173,4.67549432159
2390,Malle,Hallebaan,166,51.2795840745,4.67845275608
2390,Malle,Merksplassebaan,38,51.3066204302,4.7418175013
2390,Malle,Rode-Kruislaan,4,51.2793440214,4.66570312239
2390,Malle,Eikendreef,21,51.278348643,4.65010845251
2390,Malle,Antwerpsesteenweg,261,51.2966909293,4.69279142329
2390,Malle,Pinksterbloemlaan,16,51.3100984292,4.72823033875
2390,Malle,Azalealaan,17,51.310293466,4.73264011105
2390,Malle,Ticheltij,5,51.2979476926,4.67986798155
2390,Malle,De Schaggelen,6,51.2954323955,4.6904578646
2390,Malle,Antwerpsesteenweg,69,51.2994734625,4.7194133704
2390,Malle,Hoge Warande,5,51.302330588,4.72668519245
2390,Malle,'s Herenbos,1,51.2847452548,4.7330829082
2390,Malle,Schapenstraat,46,51.3014126824,4.70060282661
2390,Malle,Schoolstraat,1,51.3005690554,4.7348822465
2390,Malle,Blijkerijstraat,42,51.3021434503,4.73756475842
2390,Malle,Kardinaal Cardijnplaats,21,51.3004769956,4.67735443352
2390,Malle,Begonialaan,51,51.3081464898,4.72981618133
2390,Malle,Heidsiebaan,36,51.3112886736,4.666488259
2390,Malle,Canadalaan,6,51.2963944596,4.76165449657
2390,Malle,Rerum Novarumlaan,5,51.300854063,4.68917072952
2390,Malle,Heikant-Oost,11,51.3215488158,4.73675464493
2390,Malle,Druivenlaan,8,51.2936189678,4.66754378192
2390,Malle,Pastoor Van Loenhoutlaan,11,51.299530314,4.68713067784
2390,Malle,Geurtsestraat,19,51.3097470155,4.74166034078
2390,Malle,Brechtsesteenweg,200,51.3125767686,4.68439627058
2390,Malle,Schapenstraat,9,51.3003557686,4.69667143527
2390,Malle,Lammekensstraat,37,51.3007421427,4.69826510438
2390,Malle,Lierselei,127,51.2943964346,4.73134177627
2390,Malle,Schepersdijk,1,51.2899823128,4.69837972813
2390,Malle,Sint Jozeflei,5,51.2976677939,4.69281415205
2390,Malle,Heihuizen,4,51.2840884419,4.75648608711
2390,Malle,Dorpsplaats,12,51.3026010788,4.73399091597
2390,Malle,Zylhovenstraat,28,51.3040622502,4.73283807508
2390,Malle,Vinkenlaan,1,51.2885897849,4.71990446335
2390,Malle,Haard,8,51.2948751208,4.73325007547
2390,Malle,Lierselei,4,51.3005924154,4.73331471819
2390,Malle,Kantweg,42,51.3140563585,4.72713683992
2390,Malle,Turnhoutsebaan,159,51.3019347052,4.76076332807
2390,Malle,Slachterijstraat,6,51.3054198646,4.73555915774
2390,Malle,Bosdreef,18,51.2930443458,4.7393372475
2390,Malle,Goudveillaan,15,51.3096970959,4.72651537645
2390,Malle,Grootakker,27,51.3013101358,4.68760399305
2390,Malle,Blijkerijstraat,12,51.3020223911,4.73548057102
2390,Malle,Steenovenstraat,12,51.3134332489,4.70547375673
2390,Malle,Bosdreef,3,51.2913246691,4.73912269837
2390,Malle,Zylhovenstraat,6,51.3048379668,4.73416666535
2390,Malle,Antwerpsesteenweg,125,51.2976747432,4.70534605362
2390,Malle,Scherpenberg,10,51.2917470777,4.67830032851
2390,Malle,Hoogstraatsebaan,188,51.313521519,4.73819149666
2390,Malle,Hoogstraatsebaan,135,51.3100318321,4.73667372485
2390,Malle,Berckhovenstraat,19,51.2987442506,4.69567493893
2390,Malle,Prins Albertlei,7,51.2969152268,4.73555882558
2390,Malle,Antwerpsesteenweg,231,51.2965714106,4.69523198348
2390,Malle,Oude Baan,39,51.2961488811,4.68099454094
2390,Malle,Antwerpsesteenweg,178,51.2974987914,4.6991532119
2390,Malle,Turnhoutsebaan,37,51.3015969862,4.73799071179
2390,Malle,Smekenstraat,22,51.3038992028,4.73980611478
2390,Malle,Antwerpsesteenweg,107,51.297669771,4.70937200011
2390,Malle,Turnhoutsebaan,124,51.3012280388,4.74837219422
2390,Malle,Sint Laurentiuslaan,32,51.2902486135,4.73997678906
2390,Malle,Sint Lenaartsebaan,41,51.3045465934,4.72870917791
2390,Malle,Epicealaan,26,51.279920165,4.6708439443
2390,Malle,Hoogstraatsebaan,200,51.3165070374,4.73904942662
2390,Malle,De Speelhoven,38,51.3048328708,4.73249638776
2390,Malle,Blijkerijstraat,30,51.3019303551,4.73643449335
2390,Malle,Meirakkerweg,6,51.2983847544,4.7373939862
2390,Malle,Ticheltij,42,51.2985238821,4.68022554174
2390,Malle,Bergstraatje,13,51.2976313875,4.69785737206
2390,Malle,Hallebaan,12,51.296391103,4.68535607866
2390,Malle,Bloemenstraat,6,51.3062470022,4.73554475312
2390,Malle,Begonialaan,21,51.3069883888,4.72966062532
2390,Malle,Rerum Novarumlaan,42,51.3004656801,4.68563835135
2390,Malle,Lorkenlaan,13,51.294586825,4.76408381139
2390,Malle,Hoogstraatsebaan,38,51.3037579444,4.73625495236
2390,Malle,Ambachtsstraat,38,51.290640021,4.70823947139
2390,Malle,Slachterijstraat,28,51.3055135523,4.73383586241
2390,Malle,Brechtsesteenweg,38,51.299687555,4.68193622651
2390,Malle,Oude Meirstraat,41,51.2996562627,4.74364225477
2390,Malle,Antwerpsesteenweg,296,51.2973539479,4.68961081438
2390,Malle,Herentalsebaan,37,51.2978048638,4.73660557577
2390,Malle,Holstraat,12,51.2994763527,4.69112145864
2390,Malle,Pastoor Van Loenhoutlaan,46,51.299504243,4.6843176092
2390,Malle,Blijkerijstraat,77,51.3017290051,4.74452902931
2390,Malle,Heikant-Oost,64,51.3229806949,4.72796040218
2390,Malle,Irislaan,3,51.3080825216,4.73532808188
2390,Malle,Hallebaan,95,51.2914352106,4.68353070209
2390,Malle,Nooitrust,10,51.2826520456,4.64763882438
2390,Malle,Petrus Delenstraat,36,51.3003159273,4.69560915024
2390,Malle,Petrus Delenstraat,18,51.3014587509,4.69532512356
2390,Malle,Schaggeleweg,55,51.2928149627,4.69101043557
2390,Malle,Emiel van Hemeldonckstraat,6,51.3055887722,4.74247012419
2390,Malle,Ticheltij,24,51.2977107077,4.68142181785
2390,Malle,Lierselei,27,51.2996459567,4.73363533717
2390,Malle,Sint Jobbaan,58,51.3037491938,4.66778791428
2390,Malle,Turnhoutsebaan,4,51.3009910414,4.73465329518
2390,Malle,Lierselei,173,51.2866563103,4.72703575413
2390,Malle,Hallebaan,77,51.2926344048,4.68333297103
2390,Malle,Zoerselbaan,33,51.2953309425,4.69607914262
2390,Malle,Leemstraat,17,51.3026311546,4.69510251636
2390,Malle,Antwerpsesteenweg,417,51.2909626735,4.67602889025
2390,Malle,Zonnedauwlaan,5,51.3079777391,4.72779361433
2390,Malle,Rerum Novarumlaan,24,51.3008834379,4.68748148474
2390,Malle,Akkerstraat,7,51.3052776666,4.72682333325
2390,Malle,Heidedreef,12,51.29227472,4.74092750014
2390,Malle,Zonnedauwlaan,19,51.3075154071,4.72790547833
2390,Malle,Pastoor De Molderlaan,5,51.3015566807,4.73003194267
2390,Malle,Hoge Weg,28,51.2995604719,4.69739130363
2390,Malle,Antwerpsesteenweg,70,51.3002328587,4.72240596055
2390,Malle,Delften,30,51.2852990785,4.70844167884
2390,Malle,Acacialaan,17,51.2854774065,4.6735407634
2390,Malle,Dorpsweg,21,51.3020790469,4.73311618318
2390,Malle,Salphensebaan,18,51.2916873338,4.74158493964
2390,Malle,Antwerpsesteenweg,34,51.3014463184,4.72967463632
2390,Malle,Hallebaan,59,51.2936196519,4.68358421157
2390,Malle,Haard,14,51.2943758074,4.73354707207
2390,Malle,Rode-Kruislaan,36,51.2778983799,4.6679001269
2390,Malle,Guldenweg,7,51.3022559046,4.74678127831
2390,Malle,Moerbeeklaan,30,51.2802888933,4.66914030199
2390,Malle,Lang Ossegoor,8,51.2896484328,4.67640278562
2390,Malle,Philip Geertsstraat,4,51.3058290044,4.74471691821
2390,Malle,Fazantenlaan,4,51.285620763,4.72241415501
2390,Malle,Jagersweg,43,51.2752149547,4.64677951393
2390,Malle,Moerdreef,6,51.2806508852,4.67372164116
2390,Malle,Lacroixlaan,26,51.2796003009,4.66637188881
2390,Malle,Talondreef,76,51.3047236692,4.75215219208
2390,Malle,De Schaggelen,21,51.2948023629,4.69070710756
2390,Malle,Sint Jozeflei,42,51.3005546189,4.69284734092
2390,Malle,Lierselei,109,51.2951137615,4.73140801656
2390,Malle,Paaltjesdreef,5,51.3231490847,4.70216227187
2390,Malle,Elzenlaan,30,51.2778814853,4.66281641539
2390,Malle,Talondreef,58,51.3062682329,4.75300080174
2390,Malle,Brechtsesteenweg,6,51.2978387544,4.68514974341
2390,Malle,Hoogstraatsebaan,163,51.3124237778,4.7369000519
2390,Malle,Kapelstraat,30,51.2959822636,4.70207983282
2390,Malle,Hallebaan,103,51.2907118768,4.68344910915
2390,Malle,Heikantstraat,22,51.3048368003,4.64332980616
2390,Malle,Merksplassebaan,31,51.3068173166,4.74109032959
2390,Malle,Azalealaan,53,51.3122710306,4.73392669667
2390,Malle,Antwerpsesteenweg,16,51.3013006596,4.73127722938
2390,Malle,Herentalsebaan,1,51.2992993862,4.73354314891
2390,Malle,Kardinaal Cardijnplaats,28,51.300917889,4.67748310756
2390,Malle,Schapenstraat,11,51.3003740818,4.69677680443
2390,Malle,Antwerpsesteenweg,278,51.2972107744,4.69086329862
2390,Malle,Hickendorfdreef,9,51.2777376447,4.657693226
2390,Malle,Oude Baan,50,51.2965446639,4.68111820304
2390,Malle,Mostheuvellaan,5,51.2844219461,4.66857765691
2390,Malle,Thierry de Renesselaan,23,51.3048080993,4.72465850196
2390,Malle,Lang Ossegoor,14,51.2891187774,4.67701579931
2390,Malle,Boudewijnlaan,12,51.2939791033,4.69452248846
2390,Malle,Hoogstraatsebaan,110,51.3077436117,4.73748503603
2390,Malle,Antwerpsesteenweg,2,51.3013325791,4.73267774558
2390,Malle,Elzenlaan,12,51.2780159553,4.65932782462
2390,Malle,Hagelkruis,15,51.3075721379,4.7342069596
2390,Malle,Kapelstraat,12,51.2968624423,4.70244299101
2390,Malle,Antwerpsesteenweg,435,51.2899066822,4.67456092092
2390,Malle,Rubenslaan,9,51.2944387218,4.70083356508
2390,Malle,Talondreef,23,51.3077326212,4.74688478434
2390,Malle,Antwerpsesteenweg,52,51.3007061178,4.72505979632
2390,Malle,Onze Lieve Vrouwstraat,24,51.2994283459,4.74001730233
2390,Malle,Blijkerijstraat,59,51.3024502802,4.74206963811
2390,Malle,Mostheuvellaan,19,51.2836419384,4.67154120828
2390,Malle,Lammekensstraat,20,51.301512208,4.696988158
2390,Malle,Dennenlaan,10,51.2846576188,4.67013129808
2390,Malle,Silvesterdennenlaan,25,51.2911766643,4.73830857729
2390,Malle,Hallebaan,5,51.2964529685,4.68584896396
2390,Malle,Ganzenkuil,51,51.2947947324,4.69862346984
2390,Malle,Sparrelaan,31,51.2860788903,4.67375297448
2390,Malle,Leegstede,34,51.3115352334,4.74304773694
2390,Malle,Geurtsestraat,30,51.310013538,4.74236489621
2390,Malle,Herentalsebaan,73,51.2953855447,4.74070009714
2390,Malle,Vlimmersendijk,34,51.2998275258,4.7490339081
2390,Malle,Industrieweg,23,51.293666202,4.70324978903
2390,Malle,Brechtsesteenweg,84,51.3019428172,4.67953800757
2390,Malle,Oude Baan,14,51.2971076495,4.6836712227
2390,Malle,Kempendreef,15,51.2876413539,4.67578460224
2390,Malle,Turnhoutsebaan,55,51.3016760368,4.73969931801
2390,Malle,Druivenlaan,14,51.2940379185,4.66867471109
2390,Malle,Antwerpsesteenweg,303,51.2969235569,4.68965730332
2390,Malle,Wijngaardstraat,56,51.2950849077,4.66505900002
2390,Malle,Dorpsplaats,19,51.3019432678,4.73453189304
2390,Malle,Berkenlaan,3,51.2891409059,4.67074451173
2390,Malle,Zeepakker,42,51.3009679688,4.70184132405
2390,Malle,Kloosterstraat,1,51.3000576481,4.73266288375
2390,Malle,Brechtsesteenweg,66,51.3011253327,4.6801565301
2390,Malle,Herentalsebaan,91,51.2943266815,4.74236893747
2390,Malle,Slachterijstraat,56,51.3056830436,4.72874393885
2390,Malle,Heikantstraat,3,51.3099084637,4.66562770974
2390,Malle,Hemelstraat,10,51.3036466471,4.6755693754
2390,Malle,Antwerpsesteenweg,453,51.2882177977,4.67222495601
2390,Malle,Zandstraat,13,51.2958907736,4.69722885865
2390,Malle,Lierselei,45,51.2985371728,4.73290603521
2390,Malle,Zylhovenstraat,21,51.3037490216,4.73324327595
2390,Malle,Tulpenlaan,18,51.3078872419,4.73319472575
2390,Malle,Lange Dreef,29,51.3113929724,4.76775565912
2390,Malle,Ambachtsstraat,13,51.289935547,4.70969875223
2390,Malle,Tichelmanstraat,25,51.2984652534,4.67842266882
2390,Malle,Hoogstraatsebaan,13,51.3031615951,4.73459740693
2390,Malle,Geurtsestraat,12,51.3082652722,4.74275508897
2390,Malle,Lierselei,120,51.2843722801,4.7220883255
2390,Malle,Antwerpsesteenweg,100,51.2997497502,4.71850644668
2390,Malle,Antwerpsesteenweg,321,51.2971238171,4.68826285112
2390,Malle,Leegstede,16,51.3125968365,4.74494222091
2390,Malle,Antwerpsesteenweg,207,51.2967298087,4.69681300492
2390,Malle,Turnhoutsebaan,91,51.3016224136,4.74393198125
2390,Malle,Zeepakker,8,51.2990276923,4.70196748776
2390,Malle,Sint Jozeflei,24,51.2991319525,4.69337736346
2390,Malle,Hoogstraatsebaan,31,51.3037178787,4.73543746018
2390,Malle,Lorkenlaan,6,51.2959773932,4.76298111673
2390,Malle,Berckhovenstraat,30,51.2987993537,4.69619247577
2390,Malle,Grootakker,10,51.3021362479,4.68965976809
2390,Malle,Stekensbergstraat,26,51.2905174628,4.68145123974
2390,Malle,Turnhoutsebaan,206,51.3013729094,4.77281474683
2390,Malle,Steenovenstraat,19,51.3149475101,4.7066920766
2390,Malle,Hoogstraatsebaan,181,51.3143209511,4.7374345641
2390,Malle,Oude Baan,85,51.2926091294,4.67044981774
2390,Malle,Meirakkerweg,21,51.3000327691,4.73793297277
2390,Malle,Sint Lenaartsebaan,23,51.3027350594,4.72978803032
2390,Malle,Berckhovenstraat,65,51.3009720861,4.6934491538
2390,Malle,Heidemolenbaan,66,51.2993751045,4.66392646809
2390,Malle,Bloemenstraat,21,51.3060315638,4.73429406981
2390,Malle,Zoerselbaan,15,51.2959212599,4.69530941877
2390,Malle,Den Mostheuvel,57,51.2769141217,4.66841399105
2390,Malle,Antwerpsesteenweg,238,51.2970700774,4.6940253158
2390,Malle,Cantecroy,1,51.2853745325,4.67743671804
2390,Malle,Berckhovenstraat,12,51.2978594694,4.69673954851
2390,Malle,Begonialaan,28,51.30774269,4.73027407859
2390,Malle,Turnhoutsebaan,20,51.3011751004,4.7360798125
2390,Malle,Sint Pauluslaan,8,51.2899213062,4.66118782466
2390,Malle,Zandstraat,31,51.294616755,4.69785364849
2390,Malle,Steenovenstraat,5,51.3053514766,4.70634980787
2390,Malle,Heidemolenbaan,31,51.2998447633,4.67594155561
2390,Malle,Smekenstraat,29,51.304209507,4.74205179885
2390,Malle,Hoogstraatsebaan,84,51.3063380797,4.73732804423
2390,Malle,Turnhoutsebaan,73,51.3016716782,4.741599251
2390,Malle,Blijkerijstraat,19,51.3024001512,4.73770946457
2390,Malle,Leo Bauwensstraat,8,51.3066193873,4.74419159418
2390,Malle,Rozenlaan,22,51.306778433,4.73529699792
2390,Malle,Turnhoutsebaan,78,51.3006979396,4.74226876367
2390,Malle,Heidedreef,3,51.2909955094,4.74041452616
2390,Malle,Klaprooslaan,18,51.3083261842,4.72694291441
2390,Malle,Kapelakkers,15,51.3025066294,4.72320730218
2390,Malle,Kardinaal Cardijnplaats,33,51.3008993241,4.67657166066
2390,Malle,Talondreef,38,51.3078196152,4.75205298359
2390,Malle,Hoogstraatsebaan,58,51.3047475096,4.73687291553
2390,Malle,Oude Molenstraat,1,51.3024127436,4.69084216562
2390,Malle,Antwerpsesteenweg,410,51.293052697,4.67820022216
