PKANCODE,COMMUNE_NL,STREET_NL,HUISNR,LAT,LON
2440,Geel,Molderbeemdendijk,3,51.1843822814,4.98358149388
2440,Geel,Mezenstraat,7,51.1756618231,4.97434072821
2440,Geel,Zwaarvoerdersspoor,4,51.1620896124,4.95819645243
2440,Geel,Dr.-Van de Perrestraat,214,51.1777010248,4.9857411342
2440,Geel,Sijsjesstraat,2,51.1739109746,4.97416584062
2440,Geel,Bisschopshoeven,63,51.2030354813,4.97706997777
2440,Geel,Heuvel,46,51.1873383205,4.96617183782
2440,Geel,Olenseweg,17,51.1677012432,4.94135785109
2440,Geel,Holven,39,51.170218835,4.98599000099
2440,Geel,St.-Kristoffelstraat,37,51.1400700835,4.95034739187
2440,Geel,St.-Gerebernusstraat,2,51.099182025,4.94902565176
2440,Geel,Zandhoefstraat,4,51.1760955222,4.97974805143
2440,Geel,Diestseweg,16,51.1602310017,4.99200874088
2440,Geel,Velodroomstraat,111,51.1784890229,4.99494853434
2440,Geel,Logen,30,51.1639159316,5.00194661255
2440,Geel,Gemeenteheide,54,51.1306630741,5.00783919964
2440,Geel,Zammelseweg,127,51.1014879625,4.95837144175
2440,Geel,Kalvariebergstraat,3,51.1074558603,4.97502516307
2440,Geel,Tulpenstraat,23,51.1590514585,4.98019689732
2440,Geel,Otterstraat,24,51.2069251771,4.98281808474
2440,Geel,Molseweg,142,51.1668881914,5.04338287118
2440,Geel,Ericastraat,15,51.1893826508,5.02032797331
2440,Geel,Stokt,16,51.1466704052,4.97816120804
2440,Geel,Pas,132,51.1577049181,4.98771081935
2440,Geel,Herdersstraat,5,51.0965083532,4.94563265858
2440,Geel,Badstraat,16,51.1815893708,4.98705515565
2440,Geel,Waaiburg,115,51.1587197249,4.98212676458
2440,Geel,Diestseweg,34,51.1598362761,4.99231910083
2440,Geel,Anemoonstraat,75,51.1625519983,4.98224093006
2440,Geel,Kemeldijk,16,51.127306691,5.01018328645
2440,Geel,Hollandsebaan,32,51.1276514359,5.00270370136
2440,Geel,Bisschopshoeven,45,51.2038699568,4.9766938272
2440,Geel,Kraaibossen,25,51.1839537012,5.03660887051
2440,Geel,Acaciastraat,14C,51.1194498025,5.01571000953
2440,Geel,Elsum,74,51.1640915967,4.97945566932
2440,Geel,Ganzenstraat,50,51.1772299812,4.96314061215
2440,Geel,Zammelseweg,109,51.1028983316,4.96231230844
2440,Geel,Vleeshouwer,45,51.1766807088,4.99383456816
2440,Geel,Verbueckenstraat,118,51.157871223,4.997480719
2440,Geel,Doelenstraat,2,51.1630384978,4.99609704763
2440,Geel,Gerststraat,79,51.1704071127,5.00433192984
2440,Geel,Borgeleien,66,51.1929720188,4.91253829207
2440,Geel,Hondstraat,3,51.1496630875,5.0028817843
2440,Geel,Pallo,59,51.1652279548,4.99242979997
2440,Geel,Dr.-Van de Perrestraat,232,51.1791464452,4.98525687056
2440,Geel,Mosselgoren,79,51.1921377256,4.92166062689
2440,Geel,Koppeleershoeven,31,51.18198631,4.99075115451
2440,Geel,Oosterloseweg,90,51.1091974248,4.97758311304
2440,Geel,Pas,8,51.1601935582,4.99016116135
2440,Geel,Goorakker,17,51.0981636686,4.94006785767
2440,Geel,Nieuwstraat,87,51.1631417037,4.99497805208
2440,Geel,Larumsebrugweg,53,51.1703257248,4.9405028813
2440,Geel,Mosselgoren,97,51.1917508615,4.91923553279
2440,Geel,Gemeenteheide,72,51.129938028,5.00782098499
2440,Geel,Larum,17,51.1663948868,4.94683285595
2440,Geel,Anemoonstraat,93,51.1632405165,4.9817627772
2440,Geel,Wielewaalstraat,58,51.1728402564,4.97163159238
2440,Geel,Rijn,210,51.1641834518,5.02025167208
2440,Geel,Tessenderloseweg,4C,51.1410911462,5.0114419182
2440,Geel,Gansakker,28,51.164587898,4.99820947339
2440,Geel,Kollegestraat,90,51.1613282205,4.99485406095
2440,Geel,Asterstraat,38,51.1567743168,4.98378917152
2440,Geel,Wilders,61,51.1396002968,4.99008336222
2440,Geel,Oosterloseweg,2,51.1232379897,4.97873999428
2440,Geel,Reebokstraat,4,51.2052398904,4.98269456504
2440,Geel,Eindhoutseweg,980,51.1035093244,4.99256434511
2440,Geel,Dr.-Van de Perrestraat,339,51.1832024859,4.98491091198
2440,Geel,Berthoutsdreef,8,51.1095607434,4.97857757455
2440,Geel,Kievermondeveld,74,51.1708656184,5.0237771033
2440,Geel,Diestseweg,151,51.1532352074,4.9934669161
2440,Geel,Reigerstraat,11,51.1770744311,4.97298839332
2440,Geel,Weidestraat,10,51.1823215269,4.98885089406
2440,Geel,Sasachtweg,9,51.2018206458,4.98643624502
2440,Geel,Kemeldijk,34,51.1271413845,5.00642232238
2440,Geel,Schaapsdijk,16,51.0964255095,4.94749431616
2440,Geel,Vogelzang,71,51.1424863195,4.9430289021
2440,Geel,Haneveld,13,51.1378263966,4.986288195
2440,Geel,Meerhoutseweg,39,51.1586623838,5.03900161699
2440,Geel,Schoolsteeg,9,51.1638690191,4.99111823935
2440,Geel,Herentalsedijk,12,51.1801156835,4.93512186929
2440,Geel,Waterstraat,27,51.1561111238,4.98828701129
2440,Geel,Bel,173,51.1627342087,5.06918764431
2440,Geel,Meidoornstraat,40,51.166895606,4.97804422965
2440,Geel,Markt,14,51.1624179538,4.99022925738
2440,Geel,Pastoor Van Neylenstraat,13,51.162682837,4.99811628288
2440,Geel,Oude-Brugweg,30,51.1883170635,4.90423490814
2440,Geel,Aardseweg,159,51.2119023385,5.00692249892
2440,Geel,Groenenheuvel,38,51.1651825644,5.00773010812
2440,Geel,Larumseweg,78,51.1639968783,4.96345972269
2440,Geel,Pas,114,51.1582459511,4.99015722536
2440,Geel,Retieseweg,14A,51.1742231427,5.01089322374
2440,Geel,Velveken,31,51.1616122047,4.94375835203
2440,Geel,Honkersven,10,51.1768559954,5.01407140847
2440,Geel,Reiten,36,51.1766885192,4.94339519111
2440,Geel,Pierenstraat,1,51.2049909088,4.98758292166
2440,Geel,Holven,174,51.1788044173,4.9815126725
2440,Geel,Kwakkelberg,97,51.167537411,4.97811395194
2440,Geel,Puntstraat,53,51.1389898019,4.9394202842
2440,Geel,St.-Antoniusstraat,23,51.1659709875,5.06435180638
2440,Geel,Fazantenstraat,12,51.2056398876,4.98079057484
2440,Geel,Eendenstraat,23,51.1713857661,4.97458031019
2440,Geel,Kievermont,163,51.1786697806,5.02985336995
2440,Geel,Koning-Albertstraat,46A,51.1433999747,4.98185075357
2440,Geel,Zwaluwenstraat,27,51.1732726556,4.97257377797
2440,Geel,Kruishei,4,51.1023713058,4.94632673456
2440,Geel,Heistraat,70A,51.1724544,4.99309027177
2440,Geel,De-Billemontstraat,56,51.1633265332,4.99806564104
2440,Geel,Oostereinde,11,51.1953437773,5.02401370968
2440,Geel,Kabienstraat,20,51.1649687787,4.98428897805
2440,Geel,Gooreind,106,51.1953020145,4.9630569705
2440,Geel,De-Billemontstraat,21,51.1631797652,4.99659416474
2440,Geel,Kraaisteerten,8,51.111594332,4.99947880149
2440,Geel,Eindhoutseweg,31,51.1063840752,4.97963997018
2440,Geel,Tessenderloseweg,6A,51.1410118665,5.01182049379
2440,Geel,Eikevelden,35,51.155408541,4.9976464911
2440,Geel,Valkenborch,9,51.1646710096,4.97606268694
2440,Geel,Larumsgoor,2,51.1763705786,4.9199805413
2440,Geel,Velodroomstraat,57,51.1777849369,4.99114084747
2440,Geel,Tessenderloseweg,35,51.1377594292,5.018091976
2440,Geel,Retieseweg,9,51.1738319808,5.01136572177
2440,Geel,In 't Eegdeken,24,51.1704410102,5.01248716316
2440,Geel,Veltjensstraat,37,51.1689284663,5.07251860328
2440,Geel,Rijn,127,51.163342552,5.01423181261
2440,Geel,Wijdbos,25,51.1618775592,5.06059629061
2440,Geel,Herentalseweg,14,51.141716752,4.93890435607
2440,Geel,Elsum,110,51.1638126696,4.9774909985
2440,Geel,Meidoornstraat,29,51.1661144959,4.9790482499
2440,Geel,Antwerpseweg,58B,51.1489526375,4.96583827793
2440,Geel,Oosterloseweg,72,51.1103680344,4.97816386327
2440,Geel,Gasthuisheide,42,51.1286868313,5.01656747558
2440,Geel,Olenseweg,170,51.1636897185,4.92567960545
2440,Geel,Kollegestraat,72,51.161261839,4.99450650378
2440,Geel,Kollegestraat,2,51.1607831527,4.99152235841
2440,Geel,Moestoemaatheide,1,51.1216412494,4.93952139023
2440,Geel,De-Billemontstraat,74,51.1631854411,4.99890120259
2440,Geel,Vogelzang,53,51.1432736827,4.94519751596
2440,Geel,Stelenseweg,35,51.1510418581,4.98241684167
2440,Geel,Kalvariebergstraat,27,51.1046422844,4.96889771274
2440,Geel,Rauwelkoven,161,51.1694579363,4.9456001764
2440,Geel,Nachtegalenstraat,13A,51.1732014701,4.98187958997
2440,Geel,Brunosdijk,50,51.1915078148,4.97158999104
2440,Geel,Eindhoutseweg,66,51.1069962764,4.98125863847
2440,Geel,Pas,96,51.158434846,4.98909136145
2440,Geel,Bruul,57,51.1654135556,5.05933757879
2440,Geel,Keulsekar,38,51.1662633603,5.02541424063
2440,Geel,Mosselgoren,133,51.1892852545,4.91369580234
2440,Geel,Herentalseweg,60,51.1469542502,4.92638340749
2440,Geel,Tessenderloseweg,47,51.1367239843,5.02022648781
2440,Geel,Gansakker,4,51.1641134165,4.99641330479
2440,Geel,Zandhoefstraat,28,51.1782889002,4.97924238203
2440,Geel,Laarsveld,7,51.1624750031,5.0062201045
2440,Geel,Kievermont,117,51.173388302,5.03160893614
2440,Geel,Dr.-Van de Perrestraat,177,51.1760025394,4.9866595963
2440,Geel,Technische-Schoolstraat,59,51.1694943594,4.98352301162
2440,Geel,Maneshoeven,1,51.1367332639,5.01002481963
2440,Geel,Antwerpseweg,58,51.1491636104,4.96626358568
2440,Geel,Bruul,58A,51.1657747551,5.05964073387
2440,Geel,Bel,210,51.1633232538,5.07080625017
2440,Geel,Kanaaldijk,21,51.2010174466,4.97734309034
2440,Geel,Dr.-Van de Perrestraat,443,51.1980504443,4.98190968333
2440,Geel,Dr.-Van de Perrestraat,195,51.1765307002,4.98650972376
2440,Geel,Molseweg,1,51.1633133156,5.02135890696
2440,Geel,Gieshoek,3,51.1347284883,4.97702798943
2440,Geel,Katersberg,50C,51.179734219,4.99252719867
2440,Geel,Vroente,24,51.1294719706,5.00972047171
2440,Geel,Stationsstraat,50,51.164613256,4.98911293413
2440,Geel,Molseweg,78,51.1648596498,5.02857162183
2440,Geel,Italiëlaan,2,51.1903567322,5.03884672049
2440,Geel,Kalvariebergstraat,73,51.1037856462,4.96714437184
2440,Geel,Gladioolstraat,10,51.1560017068,4.97833787787
2440,Geel,Eindhoutseweg,84,51.1062994614,4.9831195756
2440,Geel,Eikevelden,88,51.1567865814,5.00108594634
2440,Geel,Poiel,102,51.1473336539,4.93851383716
2440,Geel,Langstraat,10,51.1816374489,4.93396719595
2440,Geel,Stationsstraat,128,51.1669751066,4.98842506164
2440,Geel,Meidoornstraat,5,51.1648560807,4.97980679776
2440,Geel,Oosterloseweg,54,51.1126391025,4.9798680536
2440,Geel,Larumsebrugweg,214,51.185074253,4.93510346142
2440,Geel,Wijdbos,1,51.1624090187,5.05758029149
2440,Geel,Nachtegalenstraat,44,51.1727821957,4.97805166509
2440,Geel,Eindhoutseweg,962,51.1053357078,4.98909553602
2440,Geel,Stelenseweg,88,51.1526795949,4.98349577402
2440,Geel,Wielewaalstraat,6,51.1735144487,4.96899924491
2440,Geel,Kollegestraat,54,51.1610603318,4.99339962009
2440,Geel,Larumseweg,132,51.1646477046,4.94879597382
2440,Geel,Ploegstraat,8,51.1238043235,4.97155482365
2440,Geel,Roggendries,49,51.165392567,5.0101444257
2440,Geel,Schaapsdijk,34,51.0950370881,4.94627927905
2440,Geel,Molseweg,25,51.1637645752,5.02327063488
2440,Geel,Velveken,50A,51.1579813274,4.94022717501
2440,Geel,Dr.-Van de Perrestraat,53,51.172217621,4.98768456552
2440,Geel,Zwaluwenstraat,3,51.174767651,4.97357981373
2440,Geel,Postelaar,4,51.1583281918,4.97385648923
2440,Geel,Pas,167,51.1573930675,4.98670422092
2440,Geel,Kleinekievit,4,51.216404709,5.00544044394
2440,Geel,Aardseweg,88,51.2082109533,4.99192295273
2440,Geel,Vroente,52,51.1303689965,5.00966893309
2440,Geel,Kemeldijk,62,51.1259709274,5.00180222202
2440,Geel,Gemeenteheide,2,51.1355735831,5.00754283144
2440,Geel,Olenseweg,47,51.167071817,4.93848624927
2440,Geel,Fabriekstraat,17,51.1677590199,4.99131170474
2440,Geel,Winkelomseheide,66,51.133549042,5.01136990655
2440,Geel,Brunosdijk,22,51.189079932,4.97940761893
2440,Geel,Stelenseweg,110A,51.1501251445,4.9828872822
2440,Geel,Eindekens,11,51.1751756375,4.95472034703
2440,Geel,Wilders,8,51.1489338151,4.99351835799
2440,Geel,Herentalsedijk,65,51.1819804697,4.92713125647
2440,Geel,Antwerpseweg,165,51.1409267183,4.9430519999
2440,Geel,Veldstraat,32,51.1581209754,4.9855564375
2440,Geel,Zammelseweg,191,51.0993543442,4.9484417427
2440,Geel,H.-Geeststraat,54,51.1594979067,4.98689378628
2440,Geel,Patronaatstraat,34,51.1625394224,4.98750522243
2440,Geel,Kleinemeerdijk,11,51.1237087914,5.01494528059
2440,Geel,Bel,127,51.1629231759,5.06284256908
2440,Geel,Laar,141,51.1590440741,5.01437430948
2440,Geel,Koning-Albertstraat,10,51.1489891215,4.98326706357
2440,Geel,Gerststraat,26,51.1677721468,5.0017166006
2440,Geel,Frankrijklaan,10,51.1909170928,5.03622987115
2440,Geel,Pastoor Op de Beeckstraat,18,51.1706377912,4.9904779418
2440,Geel,Malosewaver,79,51.1575501135,5.03784150686
2440,Geel,Elsumerblok,39,51.1655744212,4.97708623721
2440,Geel,Velveken,84,51.1522045314,4.93384905021
2440,Geel,Mosselgoren,26,51.1909238367,4.93135181893
2440,Geel,Waterstraat,73,51.1545662594,4.99047868808
2440,Geel,Larumseweg,1,51.1646023321,4.97296502866
2440,Geel,Winkelomseheide,209,51.1234067805,5.01139025143
2440,Geel,Velveken,66,51.1555209883,4.93818204955
2440,Geel,Kievermont,11,51.1651958008,5.02265322996
2440,Geel,Brukel,7,51.1514159845,4.99211578025
2440,Geel,Rozendaal,21,51.1668215423,4.99051570187
2440,Geel,Hazenstraat,27,51.2029803118,4.9879927633
2440,Geel,Nelis,2,51.2150790592,5.0003668917
2440,Geel,Anemoonstraat,5,51.159145963,4.98399370135
2440,Geel,Wielewaalstraat,23,51.1728142071,4.97044829885
2440,Geel,Tongerlosebinnenweg,36,51.1012256077,4.94563839946
2440,Geel,Kapelhoek,5,51.1006423843,4.95822299236
2440,Geel,Aardseweg,6A,51.2045677717,4.9820604157
2440,Geel,Logen,65,51.1650931353,5.0039332529
2440,Geel,Vroente,70,51.1309166957,5.00935515729
2440,Geel,Pas,149,51.157775242,4.98727663032
2440,Geel,Grotesteenweg,9,51.1232546557,4.94221162002
2440,Geel,Winkelom,41,51.1494743525,4.99969155172
2440,Geel,Stegen,2,51.1947699719,4.95961895838
2440,Geel,Bruul,29,51.1651603281,5.05437655513
2440,Geel,Hollandsebaan,49,51.1245661099,5.00300804606
2440,Geel,Elsum,4,51.1636102843,4.98380713454
2440,Geel,Roggendries,50,51.1651664773,5.01112250041
2440,Geel,Patrijzenstraat,9,51.1775425674,4.97177649125
2440,Geel,Van Parwijsstraat,8,51.1117870747,4.97563334555
2440,Geel,Standonk,4,51.1510300073,4.96615171707
2440,Geel,Bosakker,28,51.172930978,4.99162999748
2440,Geel,Korte Elzenstraat,7,51.186291556,4.98520891863
2440,Geel,Aardseweg,106,51.2095245423,4.99513858887
2440,Geel,Larumseweg,25,51.1650324305,4.97003107313
2440,Geel,Antwerpseweg,147,51.1414571015,4.94435314547
2440,Geel,Eendenstraat,51,51.1722709086,4.97393034731
2440,Geel,Markt,49,51.1615471829,4.99099947882
2440,Geel,Zandstraat,99,51.1496461251,5.0294029034
2440,Geel,Rauwelkoven,54,51.1690882677,4.96420652769
2440,Geel,Herentalseweg,42,51.1447143106,4.93370829613
2440,Geel,Heibloemwijk,4,51.177120009,4.995763142
2440,Geel,Heidebloemstraat,11,51.1654732907,4.99003951287
2440,Geel,Rundsvoort,28,51.2013211019,4.96169081116
2440,Geel,Peperstraat,23,51.1605283708,4.98881643482
2440,Geel,Anemoonstraat,29,51.1606701414,4.98314494031
2440,Geel,Vleeshouwer,17,51.1757208676,4.99142259973
2440,Geel,Borgeleien,38,51.1909725324,4.91004300142
2440,Geel,Hadschot,30,51.1741947642,5.0021076583
2440,Geel,Veldstraat,14,51.1579644092,4.98644562778
2440,Geel,Velveken,102,51.1496521252,4.9313703606
2440,Geel,Gooreind,45C,51.1779365462,4.97423413664
2440,Geel,Diestseweg,62,51.1592053775,4.99316235396
2440,Geel,Holvenseheide,3,51.1814650057,4.99268307853
2440,Geel,Kapelstraat,33,51.1759116726,4.9835085362
2440,Geel,Wolkenstraat,18,51.2050562124,4.96352710065
2440,Geel,Molekensweg,8,51.1014366158,4.94362721688
2440,Geel,Turnhoutseweg,41,51.2072463155,4.97869658057
2440,Geel,Gasthuisstraat,85,51.1577738218,4.9943121872
2440,Geel,Galven,35,51.1724180747,5.00522156837
2440,Geel,Scheplakens,54,51.1238547524,4.99968547493
2440,Geel,Mannestraat,19,51.1660538852,5.00568085007
2440,Geel,Dornik,17,51.1584661522,5.00003075761
2440,Geel,Technische-Schoolstraat,77,51.1701897778,4.98356721142
2440,Geel,Heistraat,140,51.1806591011,4.99532292182
2440,Geel,Eindhoutseweg,13,51.1079599646,4.97650860393
2440,Geel,Pas,329,51.1536901514,4.97665952324
2440,Geel,Brulendries,14,51.1765581569,4.99142691864
2440,Geel,Dr.-Van de Perrestraat,267,51.1796886427,4.98579175297
2440,Geel,Amerikalaan,32,51.1945392867,5.03676170649
2440,Geel,Technische-Schoolstraat,21A,51.1655952761,4.98510344536
2440,Geel,Manheuvels,8,51.1637649887,5.06882198288
2440,Geel,Mannestraat,101,51.1700894147,5.0140739891
2440,Geel,Pas,78,51.158878212,4.98958056475
2440,Geel,Nieuwstraat,16,51.1628910219,4.99156194443
2440,Geel,Aardseweg,177,51.2136788496,5.010112704
2440,Geel,Herentalsedijk,182,51.1832512496,4.91083547917
2440,Geel,Larumseweg,96,51.1643871137,4.95728908049
2440,Geel,Holven,128,51.1754057988,4.98296991236
2440,Geel,St.-Corneliusstraat,1,51.1664675178,4.94374302628
2440,Geel,Katersberg,8,51.1794523872,4.986638967
2440,Geel,Bruul,5,51.1650027117,5.05129857835
2440,Geel,Buitenblokken,12,51.1775366419,5.01667794794
2440,Geel,Roggendries,39,51.1656232513,5.00982491829
2440,Geel,Winkelomseheide,183,51.1251786493,5.01120209435
2440,Geel,Fehrenbachstraat,20,51.1568748059,4.99100503993
2440,Geel,Duivenstraat,1,51.1782047009,4.97212498305
2440,Geel,Gasthuisheide,60,51.1273461351,5.01420438585
2440,Geel,Turnhoutseweg,6,51.2040182906,4.98032742399
2440,Geel,Dul,8,51.1678128745,5.00723642771
2440,Geel,Katersberg,43,51.1793292692,4.99152356796
2440,Geel,Koppeleershoeven,13,51.1798316377,4.99014592441
2440,Geel,Laar,52,51.1596385558,5.00370229215
2440,Geel,Zammelseweg,217,51.0981324982,4.94631142358
2440,Geel,Dr.-Van de Perrestraat,159,51.175310108,4.98683502931
2440,Geel,Gasthuisstraat,32,51.159655325,4.9975180649
2440,Geel,Spikkewaverdijk,18,51.1207481744,5.02438145269
2440,Geel,Poiel,38,51.1573666855,4.97405957201
2440,Geel,Verbueckenstraat,12,51.1591029214,4.99956149969
2440,Geel,Leschot,26,51.1664059147,5.01136160805
2440,Geel,Winkelomseheide,120,51.1299151146,5.01155558681
2440,Geel,Zavelstraat,2,51.1633013533,5.05327186269
2440,Geel,Gemeenteheide,107,51.1265513403,5.00746891531
2440,Geel,Zammelseweg,74,51.1046019206,4.96690111068
2440,Geel,Nieuwland,9,51.1800075238,5.01732881755
2440,Geel,Stelensehulst,7A,51.1213874588,4.97718478548
2440,Geel,Logen,101,51.1664665408,5.00533577815
2440,Geel,Berthoutsdreef,25,51.1081334154,4.97981778857
2440,Geel,Meerhoutseweg,50,51.1581065163,5.04043781412
2440,Geel,Velodroomwijk,30,51.174248973,4.99117815402
2440,Geel,Kapelstraat,15,51.1766740411,4.98493416692
2440,Geel,Laar,213,51.163592457,5.02062098015
2440,Geel,Dr.-Van de Perrestraat,106,51.1728941564,4.98676939862
2440,Geel,Lijsterstraat,1,51.1730619235,4.98597287444
2440,Geel,Leeks,62,51.1384882921,4.94617987588
2440,Geel,Bosakker,4,51.1721493345,4.98850098006
2440,Geel,Vaartstraat,54,51.2036215804,4.97903173646
2440,Geel,Smallerijt,11,51.0930406431,4.94146889859
2440,Geel,Lebonstraat,79,51.1637729357,4.98445375505
2440,Geel,Eikenstraat,17,51.1629965796,4.97502800848
2440,Geel,Kievermondeveld,28,51.1666444344,5.01472759244
2440,Geel,Gasthuisstraat,67,51.1581294453,4.99459612955
2440,Geel,Gasthuisheide,7,51.1290603723,5.01244052632
2440,Geel,Nieuwstraat,34,51.1630380533,4.99217963868
2440,Geel,Veerleseweg,30,51.0948157649,4.94514409729
2440,Geel,Katersberg,139,51.1797916422,5.00577201102
2440,Geel,Pastorijstraat,33,51.1645964376,5.05800389833
2440,Geel,Belgiëlaan,28,51.1921008213,5.03358823538
2440,Geel,Aardseweg,195,51.2205865073,5.02257302214
2440,Geel,Acaciastraat,18,51.1188577805,5.0173130212
2440,Geel,Aardseweg,124,51.2107385063,4.99770249762
2440,Geel,Laar,70,51.158553364,5.00512899505
2440,Geel,Larumseweg,142,51.16477759,4.94791864019
2440,Geel,Steenovens,35,51.1442689667,4.94489700167
2440,Geel,St.-Dimpnaplein,8,51.1627516507,5.00078026459
2440,Geel,Holven,50,51.1708048787,4.98460266305
2440,Geel,Katersberg,61,51.1793590732,4.99321477857
2440,Geel,Nederlandlaan,34,51.1923550465,5.0360855266
2440,Geel,Heuvel,18,51.1810782786,4.96811541605
2440,Geel,Gasthuisstraat,49,51.1588706301,4.9954673356
2440,Geel,Haverbeemden,1A,51.1878650406,4.91998390757
2440,Geel,Velodroomstraat,29,51.1771378474,4.98823366879
2440,Geel,Oude-Brugweg,12,51.1890867176,4.90204295562
2440,Geel,Pallo,77,51.1655807319,4.99209668428
2440,Geel,Van Hoornestraat,17,51.1107351221,4.9755564105
2440,Geel,Verbueckenstraat,30,51.1588701331,4.99937194721
2440,Geel,Larumsebrugweg,159,51.1810532956,4.9377578693
2440,Geel,Vaartstraat,72,51.2044401353,4.97878060901
2440,Geel,Herentalsedijk,164,51.183212918,4.91437380302
2440,Geel,Hezeschrans,9,51.1389091097,4.93568855015
2440,Geel,Violetstraat,10,51.1617861855,4.98031166546
2440,Geel,Kapucienenberg,14,51.1617454792,5.06802613143
2440,Geel,Vinkenstraat,3,51.1748491058,4.98593518932
2440,Geel,Stelensehulst,17,51.121644467,4.97557854439
2440,Geel,Velveken,13,51.1631680968,4.94684546223
2440,Geel,Dr.-Van de Perrestraat,285,51.1805247681,4.98567453703
2440,Geel,Kemeldijk,44,51.1271658726,5.00491815122
2440,Geel,Retieseweg,168,51.2057482999,5.03557762834
2440,Geel,Dr.-Van de Perrestraat,350,51.1936928605,4.98126968952
2440,Geel,Stationsstraat,93,51.1660637888,4.9893359633
2440,Geel,Buitensteinde,13,51.1682274137,4.93469736559
2440,Geel,Voort,25,51.1748430861,5.03781682619
2440,Geel,Schransdijk,10,51.1910122186,5.00547463414
2440,Geel,Sluisstraat,4,51.202325288,4.9848511617
2440,Geel,Zammelseweg,56,51.1056043503,4.96989172179
2440,Geel,Vinkenstraat,27,51.1742568253,4.98426703737
2440,Geel,Twee-Molensstraat,1,51.1467421206,4.92558286459
2440,Geel,Winkelomseheide,13,51.1388981874,5.00911309179
2440,Geel,Canadalaan,8A,51.1894998563,5.03660480161
2440,Geel,Euseldonk,3,51.1883388471,5.01950049448
2440,Geel,Eikevelden,45,51.1555245783,4.99798538825
2440,Geel,Werft,63,51.161824271,4.98451537401
2440,Geel,Gasthuisstraat,14,51.1605076776,4.99833938395
2440,Geel,Larumsebrugweg,106,51.1750640447,4.9366601954
2440,Geel,Pas,185,51.1571328591,4.98613386424
2440,Geel,Velodroomwijk,12,51.1737790908,4.9887604419
2440,Geel,Diestseweg,44,51.1593598613,4.99264251475
2440,Geel,Gooreind,45A,51.1776791743,4.97464107521
2440,Geel,Nieuwstraat,69,51.1629491208,4.99429111547
2440,Geel,Boekweitstraat,1,51.1696355035,5.00242748813
2440,Geel,Reigerstraat,4,51.1776824703,4.97282366741
2440,Geel,Kwakkelberg,44,51.1680853425,4.98473130953
2440,Geel,Koekoekstraat,9,51.1723263935,4.96861032023
2440,Geel,Boerenkrijgstraat,38,51.1627475637,4.98488582172
2440,Geel,Katersberg,96,51.1799588712,4.99839614145
2440,Geel,Koning-Albertstraat,45,51.145681667,4.98213954499
2440,Geel,Opstal,2,51.1225797474,4.9782663162
2440,Geel,Koppeleershoeven,38,51.1810331516,4.989860321
2440,Geel,Bosheide,4,51.2386300224,5.01818137075
2440,Geel,Ossemeer,64,51.1874913479,4.97871096438
2440,Geel,Hadschot,75,51.1791334128,4.99838156025
2440,Geel,Larum,10,51.1659995199,4.94632670559
2440,Geel,Pastoor Van Neylenstraat,6,51.1617339074,4.99666018765
2440,Geel,Pallo,42,51.164979328,4.99222460619
2440,Geel,Oudekastelseweg,30,51.2143403428,5.00040467678
2440,Geel,Gemeenteheide,48,51.1308815903,5.00779076164
2440,Geel,Veltjensstraat,12,51.1669702771,5.06683486726
2440,Geel,Gooreind,35,51.1766358592,4.97619324261
2440,Geel,Waaiburg,80,51.1581579317,4.98259066683
2440,Geel,Stationsstraat,111,51.1666306,4.98922169514
2440,Geel,Mosselgoren,44,51.1915311088,4.92885897869
2440,Geel,Honkersven,17,51.1758528159,5.013581905
2440,Geel,Asterstraat,31,51.1567244888,4.98255250388
2440,Geel,Heistraat,86,51.1751823355,4.99446583315
2440,Geel,Anemoonstraat,40,51.16155503,4.98206999164
2440,Geel,Velveken,38,51.1598536727,4.94177210776
2440,Geel,Baantveld,2,51.1611724825,4.98211799675
2440,Geel,Kortestraat,1,51.1635782125,4.99448540479
2440,Geel,Zwanenstraat,3,51.1711833397,4.9737214851
2440,Geel,Gooreind,1,51.1730805012,4.9770131594
2440,Geel,Burgstraat,28,51.1643642352,5.00478211379
2440,Geel,Logen,19,51.163649381,5.00237059413
2440,Geel,Rozendaal,92,51.1649996756,4.99474737868
2440,Geel,Grotesteenweg,79,51.1015543015,4.94397317387
2440,Geel,Dr.-Van de Perrestraat,47,51.1720295487,4.98770651983
2440,Geel,Goorkens,6,51.1737277572,4.98044428364
2440,Geel,Vogelzang,88,51.1416162215,4.94160011019
2440,Geel,Wielewaalstraat,41,51.1723626758,4.9714386736
2440,Geel,Eindekens,56,51.182517811,4.95666761195
2440,Geel,Koppeleershoeven,1A,51.1784138132,4.98973876029
2440,Geel,Badstraat,9,51.1813060235,4.9865611374
2440,Geel,Rijn,198,51.164038302,5.01915639891
2440,Geel,Kemeldijk,9,51.1275879236,5.00803865369
2440,Geel,Aardseweg,1,51.2040168041,4.98225977904
2440,Geel,Mosselgoren,80,51.1916657177,4.92114434828
2440,Geel,Zammelseweg,92,51.1033597446,4.96455506886
2440,Geel,Winkelomseheide,38,51.1357408852,5.01132750955
2440,Geel,St.-Corneliusstraat,43,51.163661042,4.94401492899
2440,Geel,Ossemeer,56,51.1866985455,4.97863937119
2440,Geel,Dr.-Peetersstraat,58,51.1590929553,4.97792742466
2440,Geel,Stokt,9,51.1475841254,4.97887499004
2440,Geel,Waaiburg,2,51.1595293146,4.98700684687
2440,Geel,Rijn,66,51.1632898811,5.00533187291
2440,Geel,Olenseweg,124,51.1649677128,4.93116229532
2440,Geel,Pas,267,51.1549967475,4.98021292289
2440,Geel,Poiel,137,51.1469058167,4.93677410995
2440,Geel,Smallerijt,4,51.0945868215,4.93966137005
2440,Geel,Aardseweg,170,51.2131871887,5.00810261889
2440,Geel,Eindekens,82,51.1860168943,4.95226379498
2440,Geel,Larumseweg,61,51.1647676753,4.96660678404
2440,Geel,Eksterstraat,84,51.1743125367,4.9709104909
2440,Geel,Roggendries,32,51.1658753225,5.01026729973
2440,Geel,Gasthuisstraat,39,51.1597274484,4.99634741591
2440,Geel,Dahliastraat,13,51.1588129721,4.98184395459
2440,Geel,Olenseweg,10,51.1672367446,4.94208888399
2440,Geel,Hezemeerheide,2,51.1211993385,5.02136858652
2440,Geel,Grotesteenweg,97,51.0981916475,4.94440157897
2440,Geel,Lindenstraat,8,51.1262011891,5.0146330955
2440,Geel,Laar,87,51.1567832548,5.00646193043
2440,Geel,Larumseweg,149,51.1650302623,4.94863303377
2440,Geel,Kollegestraat,89,51.1613045025,4.99797674194
2440,Geel,Koning-Albertstraat,63,51.1429052531,4.98092798607
2440,Geel,Gooreind,64A,51.1805055501,4.97151349172
2440,Geel,Zwanenstraat,17,51.1713596751,4.97262121095
2440,Geel,Eggestraat,9,51.1236016307,4.97455069222
2440,Geel,Lebonstraat,62,51.1628721935,4.98873737711
2440,Geel,Veldstraat,50,51.1581672361,4.98485747442
2440,Geel,Albert Westerlinckstraat,12,51.16604958,5.00046339274
2440,Geel,Luxemburglaan,32,51.193913329,5.03554892011
2440,Geel,Vogelzang,47,51.1433164469,4.94555143449
2440,Geel,Oudekastelseweg,12,51.2103275322,4.99981004505
2440,Geel,Aardseweg,35,51.205287232,4.98587249805
2440,Geel,Leschot,2,51.1665006365,5.01368805695
2440,Geel,Dr.-Van de Perrestraat,322,51.1886625286,4.98279617407
2440,Geel,Diestseweg,9,51.1602937563,4.99137673088
2440,Geel,Retieseweg,26,51.1766491158,5.01284587369
2440,Geel,Tessenderloseweg,53,51.1361368333,5.02158935353
2440,Geel,Dr.-Van de Perrestraat,88,51.1724783293,4.98711292352
2440,Geel,Rozendaal,66,51.1664960907,4.99185471804
2440,Geel,Hollandsebaan,7,51.1328384071,5.00036940885
2440,Geel,Eikevelden,53,51.155827181,4.99882065777
2440,Geel,Pas,285,51.1546609224,4.97943209956
2440,Geel,Helleblok,32,51.1755889242,4.98879151759
2440,Geel,Langstraat,63,51.1748233882,4.92799130008
2440,Geel,Reigerstraat,18,51.1771481454,4.97365388539
2440,Geel,Winkelomseheide,155,51.1269670258,5.01110200318
2440,Geel,Brunosdijk,49,51.1918868499,4.97326384119
2440,Geel,Hooibeeksedijk,1,51.2187256957,5.02729057398
2440,Geel,In 't Eegdeken,87,51.1702234355,5.00985384851
2440,Geel,Bruul,40,51.1655811569,5.05549518609
2440,Geel,Olenseweg,106,51.1644136172,4.93242884688
2440,Geel,Laarsveld,60,51.1603768666,5.01065154617
2440,Geel,Molseweg,43,51.1639740322,5.02579045309
2440,Geel,Kievermont,100,51.1725644478,5.02989835686
2440,Geel,Spieren,12,51.2022285832,5.01138833865
2440,Geel,Gansakker,56,51.1651023287,4.99985896375
2440,Geel,Logen,5,51.1633141603,5.00195659793
2440,Geel,Rauwelkoven,115,51.1732944866,4.95213858958
2440,Geel,Dr.-Van de Perrestraat,425,51.1933482103,4.98250214023
2440,Geel,Eikevelden,71,51.1564679269,5.00096798856
2440,Geel,Gooreindse Leunen,23,51.1792075653,4.9688503152
2440,Geel,Poiel,119,51.1498126143,4.94187056193
2440,Geel,Elsumerblok,14,51.1658095651,4.97781887414
2440,Geel,Winkelomseheide,102,51.1307491032,5.01150864348
2440,Geel,Schaapsdijk,9,51.0973442065,4.94840551128
2440,Geel,Katersberg,104,51.1800232359,4.99972473965
2440,Geel,Doornboomstraat,16,51.1372336928,4.97534035885
2440,Geel,Groenstraat,56,51.1699843449,4.97509899619
2440,Geel,Amerikalaan,39,51.1938757373,5.03707807662
2440,Geel,Hanestrik,41,51.2032984764,4.97620017239
2440,Geel,St.-Kristoffelstraat,12,51.140916861,4.95464585482
2440,Geel,Oosterloseweg,48,51.1136986895,4.98010156505
2440,Geel,Langstraat,17,51.1802294572,4.93082244603
2440,Geel,Oude-Brugweg,37,51.1888649094,4.90467432334
2440,Geel,Stationsstraat,67,51.1652179658,4.98977405244
2440,Geel,Kwakkelberg,2,51.1683834824,4.98693494482
2440,Geel,Technische-Schoolstraat,42,51.1661930355,4.98420849098
2440,Geel,Antwerpseweg,41,51.1503370609,4.96758534553
2440,Geel,Herentalsedijk,37,51.1810826986,4.93074149177
2440,Geel,Groenstraat,74,51.1712600177,4.97543630237
2440,Geel,Eksterstraat,31,51.1747928039,4.97018927294
2440,Geel,Tweeboomkes,16,51.1642640607,5.01776063857
2440,Geel,Bel,31,51.1640958971,5.04562119107
2440,Geel,Ericastraat,8,51.1888091625,5.01938290223
2440,Geel,Elsumerblok,32,51.1660921906,4.97685766416
2440,Geel,Dr.-Peetersstraat,6,51.1558319484,4.98006635456
2440,Geel,Steentjesblok,18,51.1560111586,4.99115675401
2440,Geel,Gasthuisstraat,37D,51.1599871237,4.9967385939
2440,Geel,Meeuwstraat,29,51.1389966237,4.97005604329
2440,Geel,Otterstraat,42,51.2078180651,4.98496773136
2440,Geel,Gooreindse Leunen,41,51.18014727,4.96737894417
2440,Geel,Ierlandlaan,11,51.1946323838,5.03562186728
2440,Geel,Herentalseweg,7,51.1409658206,4.94088895182
2440,Geel,Borgeleien,13,51.1888040091,4.90913898639
2440,Geel,Meidoornstraat,22,51.1660304931,4.97851844965
2440,Geel,Bel,198,51.1631035578,5.06964309255
2440,Geel,Lichtaartseweg,55,51.1984883269,4.90322529632
2440,Geel,Steentjesblok,4,51.1559684554,4.99044206203
2440,Geel,Keulsekar,66,51.1654668772,5.02861538359
2440,Geel,Zwaluwenstraat,20,51.173042604,4.9731583476
2440,Geel,Eindhoutseweg,38,51.1069584826,4.97951754791
2440,Geel,St.-Kristoffelstraat,30,51.1401769681,4.9525103618
2440,Geel,Gansakker,21,51.1639282391,4.99697165721
2440,Geel,Larumsebrugweg,35,51.1695187406,4.94142263774
2440,Geel,Helleblok,50,51.176188713,4.99048976269
2440,Geel,Logen,83,51.1655956992,5.00435156159
2440,Geel,Waterstraat,55,51.1552688374,4.98972734458
2440,Geel,Retieseweg,97,51.1930604636,5.02643296313
2440,Geel,Stationsstraat,49,51.1646608044,4.98988214851
2440,Geel,Mosselgoren,2,51.18877885,4.9345106739
2440,Geel,Lupinenstraat,7,51.1832372456,4.98785290966
2440,Geel,Pas,142,51.1574610329,4.98747401337
2440,Geel,Doornboomstraat,69,51.1353222956,4.94815837428
2440,Geel,Rozendaal,110,51.16433143,4.99559576607
2440,Geel,Dr.-Van de Perrestraat,407,51.190486242,4.98411260834
2440,Geel,Djepstraat,54,51.1338204904,5.0129546591
2440,Geel,Larumsebrugweg,47,51.1700976469,4.9408801285
2440,Geel,H.-Geeststraat,33A,51.159603987,4.98728601718
2440,Geel,Molderbeemdendijk,20,51.1838035445,4.98227591819
2440,Geel,Bel,66,51.1635826133,5.05117814987
2440,Geel,Gerststraat,2,51.1653251347,5.00246327451
2440,Geel,Dr.-Van de Perrestraat,393,51.1879146677,4.983709622
2440,Geel,Eksterstraat,66,51.1743820265,4.97194752919
2440,Geel,Kalvariebergstraat,20,51.105851534,4.97249630814
2440,Geel,Roerdompstraat,7,51.2074712517,4.95425826059
2440,Geel,Hadschot,57,51.1773284106,5.00017205069
2440,Geel,Vroente,69,51.1309036299,5.00878181403
2440,Geel,Asterstraat,66,51.157127601,4.98135009054
2440,Geel,Drieskens,14,51.1618610447,5.00559056392
2440,Geel,Gooreind,53,51.1785962698,4.97368440296
2440,Geel,Holven,218,51.1813721487,4.98101411877
2440,Geel,Borgeleien,31,51.1902401591,4.91017396069
2440,Geel,Schransdijk,3,51.1843308314,5.00662097198
2440,Geel,Olenseweg,195,51.1642729112,4.92325734076
2440,Geel,Kemeldijk,79,51.1263072872,4.9995406405
2440,Geel,Grotesteenweg,26,51.1193349,4.94337733823
2440,Geel,Goorakker,7C,51.0987184837,4.94143546248
2440,Geel,Hollandsebaan,50,51.1241158321,5.00396253668
2440,Geel,Violetstraat,3,51.161579943,4.98097727917
2440,Geel,Huisbroek,15,51.1004586391,4.98963094859
2440,Geel,Eksterstraat,13,51.1759710143,4.97113225527
2440,Geel,Zandhoefstraat,56,51.1812866228,4.97893983332
2440,Geel,Winkelom,58,51.1492671906,5.0056215809
2440,Geel,Rauwelkoven,89,51.1720084606,4.95774533116
2440,Geel,Kanunnikenblok,14,51.1660703305,4.99517307559
2440,Geel,Dr.-Van de Perrestraat,35,51.1715921822,4.9878032351
2440,Geel,Smallerijt,36,51.0943152744,4.94377894402
2440,Geel,Stationsstraat,146,51.1672001627,4.98820744493
2440,Geel,Eindhoutseweg,6,51.1082979597,4.97659453837
2440,Geel,Patrijzenstraat,26,51.1757069166,4.97224151742
2440,Geel,Olenseweg,98,51.1656609335,4.93313789057
2440,Geel,Wolfsbossen,1,51.1434497177,4.96281024502
2440,Geel,Winkelom,76,51.1460349298,5.00350585308
2440,Geel,Klavet,13,51.1217793574,4.97423965873
2440,Geel,Kalvariebergstraat,55,51.1017344609,4.96996268703
2440,Geel,Esdoornstraat,13,51.1649533993,4.97804029723
2440,Geel,Goorakker,7A,51.0985112698,4.94103190173
2440,Geel,Retieseweg,80,51.188591854,5.02204411712
2440,Geel,Paaleik,4,51.1004013779,4.95745199889
2440,Geel,Technische-Schoolstraat,60,51.1686225439,4.9830023745
2440,Geel,Ossemeer,18,51.1827216465,4.98061451035
2440,Geel,Gooreind,47,51.1781126962,4.97415262283
2440,Geel,Korte Elzenstraat,24,51.1881565045,4.9853218392
2440,Geel,Grotekievit,2,51.2199390039,5.01552854494
2440,Geel,Keulsekar,13,51.1657412519,5.02422381805
2440,Geel,Doornboomstraat,87,51.1397741023,4.94308182098
2440,Geel,Stationsstraat,29,51.1640415745,4.99027176802
2440,Geel,Tulpenstraat,41,51.1596958399,4.97959609274
2440,Geel,Stelenseweg,106,51.1505598381,4.98290672583
2440,Geel,Holven,85,51.1724345186,4.98368003178
2440,Geel,Heidebloemstraat,4,51.1665053391,4.99039139
2440,Geel,Van Merodestraat,4,51.1099805925,4.97637383187
2440,Geel,In 't Eegdeken,69,51.1704887488,5.01124901243
2440,Geel,Dennenstraat,14,51.1236134891,5.00918464629
2440,Geel,Dr.-Van de Perrestraat,375,51.1866563207,4.98412412003
2440,Geel,Frankrijklaan,17,51.1901034118,5.03476760865
2440,Geel,Heistraat,33,51.1748425175,4.99491371385
2440,Geel,Kievermondeveld,21,51.1656485701,5.01405099409
2440,Geel,Schurendel,1,51.1921765904,4.90489980564
2440,Geel,Koning-Albertstraat,3,51.1494164703,4.98229755973
2440,Geel,Koppeleershoeven,6,51.1781585945,4.98907710072
2440,Geel,Velodroomwijk,37,51.1736983716,4.99014425617
2440,Geel,Djepstraat,48,51.1336550829,5.01418892317
2440,Geel,St.-Apolloniastraat,1,51.1241700149,4.9725345809
2440,Geel,Nachtegalenstraat,26,51.1726920202,4.98036549155
2440,Geel,Dennenstraat,29,51.1239253963,5.00704945289
2440,Geel,Fransebaan,10,51.2038269946,5.0160403549
2440,Geel,Ganzenstraat,32,51.1750675435,4.96296117889
2440,Geel,Pas,160,51.1568555146,4.98624383141
2440,Geel,Kievermont,135,51.1742225041,5.03136326098
2440,Geel,Molseweg,132,51.1668936672,5.04181038928
2440,Geel,Aardseweg,47,51.2058892135,4.98717716864
2440,Geel,Manheuvels,25,51.1647592062,5.0728488487
2440,Geel,Groenstraat,100,51.1737943428,4.97831227092
2440,Geel,Laar,148,51.1587158124,5.01299075033
2440,Geel,Koning-Albertstraat,17,51.1489273001,4.98258967961
2440,Geel,De-Billemontstraat,92,51.1627960707,4.99983733168
2440,Geel,Pelserij,15,51.1771029222,4.99215121442
2440,Geel,Fabriekstraat,10,51.1677882418,4.99040677738
2440,Geel,Liessel,13,51.1234640961,4.9466101951
2440,Geel,Gemeenteheide,153,51.1233014077,5.00752485869
2440,Geel,Elsum,21,51.1640985865,4.98307774157
2440,Geel,Diestseweg,194,51.1537019347,4.99417510564
2440,Geel,Ossemeer,36,51.1847276083,4.97943126574
2440,Geel,Winkelomseheide,119,51.1300907173,5.01082127678
2440,Geel,Acaciastraat,11,51.1188403166,5.01486289055
2440,Geel,Herentalseweg,39,51.1473360551,4.92701935443
2440,Geel,Lieventier,1,51.1901555405,5.02211137946
2440,Geel,Zammelseweg,28,51.1068560319,4.97329106331
2440,Geel,Vidse,1,51.1665825762,4.97784255336
2440,Geel,Pastorijstraat,8,51.1637097184,5.05563861365
2440,Geel,Markt,50,51.1615137042,4.99099002591
2440,Geel,Dr.-Peetersstraat,38,51.1577662389,4.97880549724
2440,Geel,Eksterstraat,110,51.173279429,4.97154804473
2440,Geel,Hadschot,19,51.1724229704,5.002625806
2440,Geel,Holven,49,51.1705096228,4.98549197934
2440,Geel,Brulendries,7,51.1769831709,4.99040011265
2440,Geel,Bel,110,51.1628980866,5.05743011451
2440,Geel,Bruul,22,51.165293407,5.05084919427
2440,Geel,Bisschopshoeven,10,51.2051908177,4.97729386591
2440,Geel,Pas,232,51.1539909821,4.97875397507
2440,Geel,Rauwelkoven,168,51.1693053637,4.94674526562
2440,Geel,Kleinemeerdijk,36,51.1241195716,5.02006041841
2440,Geel,Veerleseweg,37,51.0945438946,4.94458273087
2440,Geel,Smallerijt,18,51.0932817639,4.94096267927
2440,Geel,Diestseweg,79,51.1579705318,4.99252401129
2440,Geel,Tweeboomkes,34,51.1647542986,5.02012868999
2440,Geel,Schrans,20,51.1568226917,5.02258844688
2440,Geel,Violetstraat,17,51.1622584896,4.98072228709
2440,Geel,Stelensedijk,3,51.1214660991,4.98245749331
2440,Geel,Eikenstraat,10,51.1620736074,4.97408164077
2440,Geel,Mosselgoren,115,51.1904996756,4.91601743743
2440,Geel,Valkenborch,44,51.1668739364,4.97481735576
2440,Geel,Grotweg,9,51.2027511873,4.98248463657
2440,Geel,Reebokstraat,21,51.2064228552,4.98379108048
2440,Geel,Laar,16,51.1613503375,5.00179183935
2440,Geel,Mannestraat,83,51.1684676003,5.01177591612
2440,Geel,Hagelbos,15,51.1100688888,4.97153940752
2440,Geel,Kievermont,36,51.1669713951,5.02282939356
2440,Geel,Diestseweg,158,51.1561329258,4.99467883134
2440,Geel,Witbolstraat,12,51.1830521535,4.98591608324
2440,Geel,Stelensehulst,10,51.1211336159,4.97564931775
2440,Geel,Hemelrijk,29,51.1751548457,4.99021085782
2440,Geel,Meerhoutseweg,49,51.1572135938,5.03948267271
2440,Geel,Bosakker,21,51.1721659183,4.98982584459
2440,Geel,Binnenbroek,2,51.0995352041,4.95346105721
2440,Geel,Katersberg,122,51.1800781252,5.00268255802
2440,Geel,Heidebloemstraat,18,51.1669437721,4.99137144871
2440,Geel,Wolkenstraat,11,51.2019266615,4.96396160072
2440,Geel,Buitensteinde,6,51.167202079,4.93384924668
2440,Geel,Retieseweg,44,51.18184031,5.01664952199
2440,Geel,Antwerpseweg,140,51.1411544879,4.9451904784
2440,Geel,Vogelzang,1,51.1448651115,4.95215403434
2440,Geel,Roshoevendijk,9,51.2000821369,4.9933874809
2440,Geel,Van Hoornestraat,10,51.1111788686,4.97716841026
2440,Geel,Papenhoeven,1,51.1814961371,4.95825436461
2440,Geel,Haverstraat,7,51.1702254153,5.00686896844
2440,Geel,Poiel,84,51.151966429,4.94679037853
2440,Geel,Kwakkelberg,115,51.1674059763,4.97347088364
2440,Geel,Puntstraat,35,51.1394547774,4.93629673714
2440,Geel,Heistraat,130,51.1795029011,4.99475736173
2440,Geel,Antwerpseweg,94,51.1444583273,4.95408356739
2440,Geel,Heistraat,15,51.1710845562,4.99357123309
2440,Geel,Kruiskwacht,26A,51.1533565579,5.05138202103
2440,Geel,Helleblok,28B,51.1753930752,4.98844586014
2440,Geel,Velveken,6,51.1641096857,4.94785201545
2440,Geel,Diestseweg,105,51.1574688749,4.99333651067
2440,Geel,Rauwelkoven,133,51.1735552494,4.94803483648
2440,Geel,Winkelomseheide,137,51.1289798608,5.01090227939
2440,Geel,Vinkenstraat,20,51.1741220606,4.98502884759
2440,Geel,Molenberg,13,51.1373618083,4.94131269154
2440,Geel,Velodroomstraat,75,51.1780815064,4.9924975055
2440,Geel,Laar,34,51.1606686248,5.00259398923
2440,Geel,Heidebloemstraat,36,51.1675324158,4.99226374697
2440,Geel,Beekhoek,3,51.203496041,4.99114675893
2440,Geel,Tongerlosebinnenweg,11,51.0999288867,4.94616203735
2440,Geel,J.B.-Stessensstraat,53,51.1597962504,4.99950855094
2440,Geel,Nieuwstraat,70,51.1633860186,4.99370754551
2440,Geel,Pallo,60,51.1654490565,4.99170304932
2440,Geel,Koning-Albertstraat,134,51.1289813566,4.98152661564
2440,Geel,Katersberg,78,51.1798319779,4.99568949921
2440,Geel,Europawijk,27,51.2008106196,5.03569554599
2440,Geel,Zammelseweg,210,51.0979967191,4.94668691838
2440,Geel,Poiel,31,51.1578952288,4.97439305989
2440,Geel,Pastoor Op de Beeckstraat,11,51.1715906757,4.99147139327
2440,Geel,Diestseweg,176,51.1549442541,4.99436928985
2440,Geel,Turnhoutseweg,23,51.2061743673,4.97941746944
2440,Geel,Achterpad,6,51.1649329402,4.99123837673
2440,Geel,Pas,214,51.1546499718,4.98045236607
2440,Geel,Dr.-Van de Perrestraat,152,51.1749165526,4.98651335999
2440,Geel,Weverstraat,15,51.1003148977,4.94238645958
2440,Geel,Velodroomstraat,93,51.1783107732,4.99376189691
2440,Geel,Sluisstraat,21,51.2041196417,4.98398589432
2440,Geel,Veerleseweg,19,51.0957803886,4.94446293254
2440,Geel,Fehrenbachstraat,27,51.1565060715,4.99131330297
2440,Geel,Scheplakens,2,51.13650102,5.00056272286
2440,Geel,Leeks,26,51.1380905853,4.95152107967
2440,Geel,Nederlandlaan,9,51.1940116622,5.03024552318
2440,Geel,Rauwelkoven,186,51.167877039,4.94602898566
2440,Geel,Lebonstraat,80,51.1631010142,4.98771739337
2440,Geel,Aardseweg,53,51.2061437417,4.98795524993
2440,Geel,Meerhoutseweg,67,51.1559443016,5.04141697495
2440,Geel,Blokstraat,21,51.2117422566,5.02544720096
2440,Geel,Diestseweg,123,51.1566944957,4.99355398867
2440,Geel,Leeks,79,51.1386169604,4.94459201587
2440,Geel,Rundsvoort,21,51.200645895,4.96284742322
2440,Geel,Pas,249,51.1564711844,4.9836217935
2440,Geel,Logen,118,51.1673398925,5.005554155
2440,Geel,Rendersvensedijk,2,51.1949780777,5.00050703653
2440,Geel,Laar,184,51.1605450536,5.01553799849
2440,Geel,Rijn,28,51.1631019951,5.00309926213
2440,Geel,Gasthuisheide,20A,51.1295032686,5.0158378027
2440,Geel,Gasthuisstraat,50,51.1588180717,4.99708422427
2440,Geel,Katersberg,25,51.1791127989,4.98754615216
2440,Geel,Hollandsebaan,39,51.1257733899,5.00268090618
2440,Geel,Poiel,66,51.1547112635,4.95599892271
2440,Geel,Eindekens,4,51.1733418006,4.95374754878
2440,Geel,Voort,61,51.1751099441,5.04706263343
2440,Geel,Koekoekstraat,26,51.1723397464,4.97033064455
2440,Geel,Rozendaal,28,51.167755914,4.98934218454
2440,Geel,Heimerik,51,51.1720376059,5.01308216036
2440,Geel,Peperstraat,41,51.1604296237,4.98809006735
2440,Geel,Hazenhout,14,51.109256956,4.95438461213
2440,Geel,Winkelomseheide,202,51.1248790093,5.0119007625
2440,Geel,Fittelaarsdijk,20,51.1850668879,4.99369172486
2440,Geel,Heistraat,112,51.1768302823,4.9947164694
2440,Geel,Asterstraat,13,51.157420869,4.9834137525
2440,Geel,Veerleseweg,5,51.0964799696,4.94447084352
2440,Geel,Vogelzang,61,51.1429662673,4.94455253277
2440,Geel,Bel,163,51.1627620771,5.06803565494
2440,Geel,Elsum,84,51.1639906629,4.97868906572
2440,Geel,Ganzenstraat,60,51.1786630262,4.96197034646
2440,Geel,St.-Gerebernusstraat,18,51.0984422661,4.95216522375
2440,Geel,Voshonink,2,51.1554369337,4.95132374264
2440,Geel,Hezeschrans,2,51.1434547593,4.93429479218
2440,Geel,Waaiburg,125,51.1584110086,4.98137295206
2440,Geel,Waaiburg,87,51.1585025632,4.98435044186
2440,Geel,Velodroomstraat,83,51.1781717389,4.99299337334
2440,Geel,Werft,25,51.1620940707,4.98893374893
2440,Geel,Borgeleien,56,51.1924674667,4.91158484468
2440,Geel,Rauwelkoven,153,51.1709965215,4.94678224579
2440,Geel,Oude-Brugweg,22,51.1883256417,4.90377056688
2440,Geel,Albert Westerlinckstraat,3,51.1664440852,5.00039953911
2440,Geel,Snepstraat,11,51.169886644,5.0012398646
2440,Geel,Beekhoek,17,51.2046387919,4.99008686171
2440,Geel,Dr.-Van de Perrestraat,43,51.1719774253,4.98777274615
2440,Geel,Oudekastelseweg,29,51.2151186261,5.00125391497
2440,Geel,Technische-Schoolstraat,14,51.1648090048,4.9855531167
2440,Geel,Tarwestraat,7,51.1684670348,5.00303012865
2440,Geel,Otterstraat,14,51.2070020097,4.98135137169
2440,Geel,Gemeenteheide,82,51.1291137915,5.00789326968
2440,Geel,Doelenstraat,18,51.1624761144,4.99571521623
2440,Geel,Pastorijstraat,23,51.1642954957,5.05664714099
2440,Geel,Ganzenstraat,146,51.1874690033,4.96042951993
2440,Geel,Zammelseweg,117,51.102586243,4.96173881131
2440,Geel,Gemeenteheide,64,51.1302482575,5.007867377
2440,Geel,Mannestraat,75,51.1680569825,5.01062129764
2440,Geel,Bel,145,51.1627516016,5.06602403871
2440,Geel,St.-Kristoffelstraat,3,51.1415810104,4.95822497903
2440,Geel,Elsum,66,51.1640827243,4.97998852084
2440,Geel,Binnenbroek,16,51.0981666558,4.95509881223
2440,Geel,Zammelseweg,13,51.1075734138,4.97417323055
2440,Geel,Badstraat,26,51.1815887941,4.98865565351
2440,Geel,Dahliastraat,6,51.1587264625,4.98129733132
2440,Geel,Rauwelkoven,16,51.1654395807,4.97148429763
2440,Geel,Retieseweg,178,51.2087499608,5.02909388527
2440,Geel,Zandhoefstraat,27A,51.178772186,4.98056982307
2440,Geel,Koppeleershoeven,21,51.1805587933,4.99037571607
2440,Geel,Rijn,200,51.1640417886,5.01927396391
2440,Geel,Kemeldijk,26,51.1273118267,5.00885826731
2440,Geel,Heistraat,21I,51.1737543236,4.99427007166
2440,Geel,Doelenstraat,36,51.1619738297,4.99550932412
2440,Geel,Dr.-Van de Perrestraat,329,51.1827451371,4.9849792373
2440,Geel,Eendenstraat,15,51.1710756292,4.97437438583
2440,Geel,Technische-Schoolstraat,32,51.1657904761,4.98425007154
2440,Geel,Lebonstraat,69,51.1637046731,4.98483956696
2440,Geel,Gasthuisstraat,59,51.1582682013,4.99494106161
2440,Geel,Mosselgoren,69,51.1922496344,4.92292564857
2440,Geel,Doornboomstraat,7,51.1378725556,4.97753434842
2440,Geel,Borgeleien,74,51.1928816143,4.91397518258
2440,Geel,Logen,126,51.1686775786,5.00654367246
2440,Geel,Kapelstraat,8,51.1762981817,4.98568066914
2440,Geel,Verbueckenstraat,108,51.1577597133,4.99757384497
2440,Geel,Rode-Kruisstraat,18,51.1802551951,4.9745707301
2440,Geel,Otterstraat,32,51.2071175502,4.9841964827
2440,Geel,Nieuwland,2,51.1804515483,5.01766049536
2440,Geel,Larumsebrugweg,187,51.1831699173,4.93605229379
2440,Geel,St.-Gerebernusstraat,36,51.0996663019,4.95724400124
2440,Geel,Gerststraat,69,51.1696364018,5.00363139891
2440,Geel,Dr.-Van de Perrestraat,61,51.1726322916,4.98819568205
2440,Geel,Amandus-De-Vosstraat,3,51.1635442913,5.00104891083
2440,Geel,Groenhuis,31,51.1680825329,4.9788894272
2440,Geel,Larumseweg,150,51.1650047792,4.9471959108
2440,Geel,Nachtegalenstraat,2,51.1728366296,4.98236038712
2440,Geel,Diestseweg,26,51.1600383625,4.99207807094
2440,Geel,Anemoonstraat,65,51.1622121198,4.98232895251
2440,Geel,Hoogstraat,1,51.1614175501,5.06228750632
2440,Geel,Bel,28,51.1646564342,5.04408657735
2440,Geel,Schalieschuurstraat,7,51.1787870121,5.04350814275
2440,Geel,Ossestraat,11,51.169858464,5.00917939054
2440,Geel,Rauwelkoven,34,51.1664705682,4.97073444714
2440,Geel,Veltjensstraat,29,51.1684855206,5.07071782456
2440,Geel,Larumseweg,88,51.1638097532,4.96063154273
2440,Geel,Schaapsdijk,26,51.0951424003,4.94840987248
2440,Geel,Olenseweg,144,51.1642615442,4.92929411186
2440,Geel,Weidestraat,20,51.1822968029,4.98743038276
2440,Geel,Antwerpsedries,15,51.1660926272,4.99630541043
2440,Geel,Klavet,28,51.1161804396,4.96311887572
2440,Geel,Markt,24,51.1624235377,4.99107964918
2440,Geel,Waterstraat,17,51.1565076939,4.98818836135
2440,Geel,Dr.-Van de Perrestraat,204,51.1772649402,4.98574794711
2440,Geel,Breerijt,1,51.0958396672,4.93879974804
2440,Geel,Wolkenstraat,4,51.2016287966,4.96231482799
2440,Geel,Larum,27,51.1667434709,4.94547466339
2440,Geel,Eksterstraat,28,51.1751895455,4.97172646459
2440,Geel,Logen,22,51.1637537672,5.00193068626
2440,Geel,Puntstraat,43,51.1384069658,4.93862000467
2440,Geel,Azaleastraat,36,51.1663930479,4.97884230087
2440,Geel,Oosterloseweg,36,51.1193266849,4.97960754092
2440,Geel,Eindhoutseweg,970,51.104185179,4.99133061315
2440,Geel,Holven,111,51.1748940738,4.98353744499
2440,Geel,Antwerpsedries,33,51.1669585669,4.99842347861
2440,Geel,Borgeleien,6,51.1886083162,4.90825675024
2440,Geel,De-Billemontstraat,84,51.1629495894,4.99936892684
2440,Geel,Kievermont,89,51.1714204968,5.02903551226
2440,Geel,Brunosdijk,60,51.1914221615,4.97037255379
2440,Geel,Ericastraat,23,51.1900560166,5.01763357535
2440,Geel,Lammerdries,2,51.1423891836,4.92999369844
2440,Geel,Dr.-Van de Perrestraat,187,51.1763748324,4.98656142683
2440,Geel,Kievermont,127,51.1753951293,5.03506257862
2440,Geel,Gooreind,96,51.1921275387,4.96643951009
2440,Geel,Kollegestraat,36,51.1609384521,4.99287134498
2440,Geel,Korte Elzenstraat,39,51.1887631736,4.98469934827
2440,Geel,Lemersveld,18,51.1601973193,5.0079937411
2440,Geel,Groenenheuvel,28,51.1651960146,5.00690594296
2440,Geel,Herentalseweg,24,51.1420669072,4.93845051281
2440,Geel,Rijn,13,51.1628727387,5.00337391522
2440,Geel,Zandwaver,4,51.2057737244,4.98519739804
2440,Geel,Holven,42,51.17035893,4.98517270734
2440,Geel,Eikevelden,1,51.1542167256,4.99451504328
2440,Geel,Eindhoutseweg,56,51.106961084,4.98012514803
2440,Geel,Hezemeerdijk,18,51.1203836377,5.02651621932
2440,Geel,Rijn,145,51.163421468,5.01623408693
2440,Geel,Gansakker,38,51.1647382066,4.99888029607
2440,Geel,Stelenseweg,1,51.1569564514,4.98669171774
2440,Geel,Rijn,117,51.163373271,5.01273943045
2440,Geel,Oosterloseweg,82,51.1098138194,4.97784118953
2440,Geel,Eendenstraat,41,51.1722152833,4.97450529604
2440,Geel,Vroente,32,51.1297606591,5.00971115076
2440,Geel,Kalvariebergstraat,17,51.1054342856,4.97047109116
2440,Geel,Tulpenstraat,15,51.1588925883,4.98042924844
2440,Geel,Violetstraat,50E,51.163974657,4.97974964261
2440,Geel,Kabienstraat,10,51.164607071,4.98427076482
2440,Geel,Bruul,20A,51.1653403939,5.05049589153
2440,Geel,In 't Eegdeken,14,51.1705754558,5.01323325032
2440,Geel,Berkven,15,51.1830279584,5.01569190538
2440,Geel,Poiel,92,51.1494340495,4.9421011535
2440,Geel,Larumsebrugweg,43,51.1699515576,4.94105119958
2440,Geel,Markt,59,51.1608994874,4.99112721489
2440,Geel,Kollegestraat,82,51.1612852048,4.99460917316
2440,Geel,Winkelom,51,51.1490842999,5.00137342155
2440,Geel,Kanunnikenblok,5,51.1647022031,4.99713677255
2440,Geel,Kameinestraat,28,51.1599744476,4.98791462569
2440,Geel,Pas,229,51.1564627445,4.98427477592
2440,Geel,Koeneind,14,51.1625159942,5.01597548285
2440,Geel,Kollegestraat,64,51.1611865889,4.99408520695
2440,Geel,Langstraat,124,51.1695795749,4.92066518664
2440,Geel,Eikevelden,25,51.1550601167,4.99670427533
2440,Geel,Oosterloseweg,64,51.1136294936,4.98779364659
2440,Geel,Elsum,100,51.1638239496,4.97793518765
2440,Geel,Gebeunt,5,51.1873118344,4.940767336
2440,Geel,Gasthuisstraat,29I,51.1600735881,4.99680780305
2440,Geel,Kievermont,109,51.1734032729,5.03161615562
2440,Geel,Tessenderloseweg,25,51.1388528802,5.01578156657
2440,Geel,Gerststraat,16,51.1666337058,5.00190030705
2440,Geel,Ossemeer,36A,51.1848544916,4.97936928107
2440,Geel,St.-Kristoffelstraat,29,51.1404131492,4.95150265203
2440,Geel,Zwaluwenstraat,17,51.1737130618,4.97303948983
2440,Geel,Azaleastraat,18,51.1662634484,4.9824428808
2440,Geel,Groenstraat,38,51.1683758185,4.97469061237
2440,Geel,St.-Antoniusstraat,33,51.1681114297,5.064185853
2440,Geel,Tessenderloseweg,1,51.1408699846,5.01042461799
2440,Geel,De-Billemontstraat,66,51.1632510453,4.99846634332
2440,Geel,Ganzenstraat,5,51.1723140661,4.96176759342
2440,Geel,Veltjensstraat,3,51.1648839781,5.06550492344
2440,Geel,Koning-Albertstraat,47,51.1454527544,4.98206350996
2440,Geel,Stelenseweg,25,51.1519189608,4.98266578147
2440,Geel,Eindhoutseweg,74,51.1064576645,4.98194723216
2440,Geel,Grotesteenweg,2,51.1244740611,4.94365887747
2440,Geel,Laar,151,51.1596615899,5.01523212647
2440,Geel,Kollegestraat,18,51.1607974034,4.99183661771
2440,Geel,Mosselgoren,48,51.1921233327,4.92596306941
2440,Geel,Larumsebrugweg,61,51.1711200321,4.93978640473
2440,Geel,Patrijzenstraat,2,51.1771533737,4.97214126355
2440,Geel,Kievermont,173,51.1798747033,5.02990821192
2440,Geel,Wijdbos,35,51.1617914343,5.06206790735
2440,Geel,Duivenstraat,104,51.1731535981,4.96852959213
2440,Geel,Eendenstraat,33,51.171861667,4.97490678534
2440,Geel,Stationsstraat,60,51.1655451572,4.98910860443
2440,Geel,Mannestraat,126,51.1721751037,5.01602762781
2440,Geel,De-Billemontstraat,31,51.1631331173,4.99709976095
2440,Geel,Molseweg,88,51.16508139,5.03122108443
2440,Geel,Wassewater,10,51.1281439471,5.00801255644
2440,Geel,Vroente,14,51.1291996858,5.00973830357
2440,Geel,Drieskens,5,51.1618991803,5.00650143603
2440,Geel,Scheidijk,11,51.1802620311,4.91467719665
2440,Geel,Logen,93,51.1660067264,5.00482510388
2440,Geel,Reiten,4,51.1731604969,4.94626728453
2440,Geel,Oosterloseweg,18,51.1212997863,4.97912002323
2440,Geel,Eindhoutseweg,21,51.1076976514,4.97633669607
2440,Geel,Stelenseweg,78,51.1531364678,4.98432950305
2440,Geel,Wilders,53,51.1404200932,4.99066270061
2440,Geel,Haag,12,51.1548401544,4.92741734908
2440,Geel,Antwerpseweg,120,51.1430998422,4.95035772724
2440,Geel,Bel,181,51.1626596425,5.0703150556
2440,Geel,Langstraat,20,51.1797529442,4.93148613309
2440,Geel,Veldstraat,5,51.1580631587,4.98696768473
2440,Geel,Galven,25,51.1710031882,5.00531149544
2440,Geel,Stationsstraat,42,51.1637299815,4.98993765765
2440,Geel,Spreeuwenstraat,11,51.1725485326,4.97414872085
2440,Geel,Gemeenteheide,133,51.1251638363,5.00752706395
2440,Geel,Italiëlaan,9,51.1887539796,5.03699848861
2440,Geel,Malosewaver,107,51.1628433843,5.05146926662
2440,Geel,Peperstraat,15,51.1604849705,4.98908689587
2440,Geel,Waaiburg,34,51.1587215378,4.98572576745
2440,Geel,Diestseweg,52,51.1592543279,4.99257520357
2440,Geel,Larumseweg,35,51.1650495412,4.9689481815
2440,Geel,Schrans,98,51.1623413637,5.03524548709
2440,Geel,Acaciastraat,4,51.1224452116,5.0123968659
2440,Geel,J.B.-Stessensstraat,5A,51.1602764176,4.99872194677
2440,Geel,Pelserij,8,51.1773873471,4.99177348204
2440,Geel,Velleke,12,51.1663177094,4.98127295392
2440,Geel,Bisschopshoeven,27,51.2045861246,4.97668714638
2440,Geel,Liessel,6,51.1245370016,4.95518514378
2440,Geel,Velveken,56,51.1565286988,4.94034402387
2440,Geel,Larumseweg,122,51.1644929197,4.95010989116
2440,Geel,Doelenstraat,48,51.1615326377,4.99532627244
2440,Geel,Stelenseweg,96,51.1516291903,4.98309102964
2440,Geel,Waterstraat,45,51.1556072234,4.98924100188
2440,Geel,Zammelseweg,163,51.1002794843,4.95284805169
2440,Geel,H.-Geeststraat,48,51.1594179093,4.98697878145
2440,Geel,Vlinderstraat,1,51.1828195396,4.93216789258
2440,Geel,In 't Eegdeken,44,51.1696828627,5.01090805075
2440,Geel,Antwerpseweg,155,51.1412368859,4.94387159407
2440,Geel,Langstraat,55,51.1756572104,4.9285933155
2440,Geel,Velodroomwijk,57,51.1740761088,4.99198004586
2440,Geel,Koning-Albertstraat,20,51.1480293425,4.98339347583
2440,Geel,Kemeldijk,52,51.1269303642,5.00348343963
2440,Geel,Technische-Schoolstraat,49,51.1687248143,4.98362796248
2440,Geel,Brunosdijk,12,51.1887591983,4.98126621426
2440,Geel,Frankrijklaan,20,51.1895840113,5.03531333225
2440,Geel,Pas,157,51.1576733996,4.9868132849
2440,Geel,Aardseweg,78,51.2074635402,4.99006357502
2440,Geel,Aardseweg,116,51.2101431363,4.99647792487
2440,Geel,Stokt,52,51.1411829879,4.97208329821
2440,Geel,Verdonckstraat,1,51.120512258,4.95652202377
2440,Geel,Oudepostelseweg,6,51.1913269631,5.01785969013
2440,Geel,Dr.-Van de Perrestraat,139,51.1747049069,4.98700303412
2440,Geel,Mosselgoren,16,51.1900075095,4.93167518899
2440,Geel,Hazenstraat,17,51.2027029692,4.98667930537
2440,Geel,Laarsveld,39,51.1598600798,5.00986063313
2440,Geel,Kapelstraat,23,51.1763589961,4.98450099956
2440,Geel,Diestseweg,70,51.1586983488,4.99335926545
2440,Geel,De-Billemontstraat,13,51.1631826073,4.99612757845
2440,Geel,Spikkewaverdijk,4,51.1205198591,5.02248687935
2440,Geel,Peperstraat,33,51.1604438795,4.98842219223
2440,Geel,Stalpaart,31,51.1643688815,5.01310201337
2440,Geel,Elsum,38,51.164006761,4.98186048643
2440,Geel,Winkelomseheide,56,51.1349051895,5.01132514584
2440,Geel,Evelgoor,20,51.1772956996,5.00440610743
2440,Geel,Fabriekstraat,27,51.1679001389,4.99180671076
2440,Geel,Binneneinde,2,51.1637324923,4.94930082458
2440,Geel,Markt,77,51.1606817975,4.98953681448
2440,Geel,Drijzillen,22,51.1678152197,4.96702259798
2440,Geel,Bukenheiken,6,51.1229287502,4.98558230042
2440,Geel,Brulendries,24,51.1753699666,4.99311901994
2440,Geel,Burgstraat,13,51.1645662118,5.00393208038
2440,Geel,Waterstraat,63,51.1548890912,4.98973758289
2440,Geel,Velveken,74,51.1534776949,4.93589437247
2440,Geel,Patronaatstraat,26,51.1622409037,4.98762463435
2440,Geel,Retieseweg,107,51.1963954342,5.02929422512
2440,Geel,Dr.-Van de Perrestraat,169,51.1756970311,4.98680970018
2440,Geel,St.-Franciscusstraat,6,51.1614593848,4.97494154974
2440,Geel,Rijn,31,51.1629133989,5.00502022703
2440,Geel,Retieseweg,2,51.1723785385,5.00956961929
2440,Geel,Stationsstraat,12,51.1630090869,4.99036136775
2440,Geel,Winkelomseheide,74,51.1329322553,5.01139555869
2440,Geel,Waaiburg,16,51.1591207614,4.98644207393
2440,Geel,Mannestraat,29,51.1663839167,5.00645382655
2440,Geel,Herentalsedijk,190,51.1826475999,4.91053426744
2440,Geel,Logen,75,51.1654784922,5.00419984755
2440,Geel,Neerstraat,80,51.1042313743,4.95434513591
2440,Geel,Elsumerblok,5,51.1651035564,4.97862341823
2440,Geel,Vroente,62,51.1306965775,5.00938399396
2440,Geel,Pallo,85,51.1658064343,4.99174099235
2440,Geel,Katersberg,53,51.1793746026,4.992402973
2440,Geel,Gerststraat,34,51.1685537905,5.00148772365
2440,Geel,Diepezoel,3,51.1287511859,4.99961495762
2440,Geel,Winkelomseheide,237,51.1199080113,5.02035358678
2440,Geel,Laar,7,51.1612617249,5.00131931338
2440,Geel,Lemersveld,9,51.1611349937,5.00670799148
2440,Geel,Mosselgoren,34,51.1911206516,4.93047303449
2440,Geel,Winkelomseheide,130,51.1294991769,5.01180557398
2440,Geel,Scheplakens,64,51.1224613471,4.99993988593
2440,Geel,Witbolstraat,3,51.1832030602,4.98648602212
2440,Geel,Laar,44,51.1600052281,5.00321524566
2440,Geel,Groententen,4,51.1560045892,4.94093065047
2440,Geel,Beekhoek,45,51.2092669168,4.98578497584
2440,Geel,Kanaaldijk,13,51.2015940108,4.98182024747
2440,Geel,Technische-Schoolstraat,67,51.1697757012,4.98349040395
2440,Geel,Veldstraat,24,51.1580536809,4.98599696193
2440,Geel,Molderbeemdendijk,47,51.1840929765,4.97671964092
2440,Geel,Schoolsteeg,2,51.1641126928,4.99117224355
2440,Geel,Drijhoek,9A,51.1607051899,4.97408918119
2440,Geel,Oosterloseweg,9,51.121875004,4.97845822383
2440,Geel,Vaartstraat,64,51.2040843538,4.97881673021
2440,Geel,Kollegestraat,9,51.1603218098,4.99241307944
2440,Geel,Leeks,52,51.13864985,4.94731109633
2440,Geel,Hemelrijk,12,51.1746373162,4.99078151993
2440,Geel,Diestseweg,141,51.1536104775,4.99350424475
2440,Geel,Kalvariebergstraat,73A,51.1036802935,4.96682591059
2440,Geel,Herentalsedijk,154,51.1831910685,4.91563728088
2440,Geel,Pallo,67,51.1655782839,4.99210065467
2440,Geel,Laar,80,51.157764183,5.00568643167
2440,Geel,Mosselgoren,87,51.1919934298,4.92037934969
2440,Geel,Holven,60,51.1711486297,4.98413435157
2440,Geel,Pallo,32,51.1647412635,4.99253794926
2440,Geel,Opstal,16,51.1220563332,4.97659231292
2440,Geel,Goorkens,21,51.174414719,4.98102699319
2440,Geel,Pas,193,51.1571799154,4.98554127615
2440,Geel,Wielewaalstraat,15,51.1729742663,4.96981977632
2440,Geel,Katersberg,71,51.1794354389,4.9941726861
2440,Geel,Zammelseweg,84,51.104042672,4.96557951728
2440,Geel,Heistraat,119,51.1905983026,4.99863600358
2440,Geel,Herentalsedijk,57,51.1816226544,4.92763796739
2440,Geel,Azaleastraat,9,51.1666814644,4.98190065869
2440,Geel,Mannestraat,3,51.1657110878,5.00472385252
2440,Geel,Buitenblokken,22,51.178231075,5.02472375996
2440,Geel,Luxemburglaan,5,51.1952828716,5.03032422394
2440,Geel,Rundsvoort,16A,51.1998146502,4.96275126705
2440,Geel,Groenhuis,13,51.1682000348,4.97650040567
2440,Geel,Kleinhoefstraat,4,51.1608154412,4.96162151475
2440,Geel,Bel,235,51.1591967982,5.07444654763
2440,Geel,Waterstraat,81,51.154242848,4.9913116816
2440,Geel,Nieuwstraat,26,51.1631331932,4.99161106909
2440,Geel,Tongerlosebinnenweg,4,51.0995276762,4.94580101893
2440,Geel,Dr.-Van de Perrestraat,293,51.1808450022,4.98544108436
2440,Geel,Logen,172,51.1716347794,5.00892725163
2440,Geel,Wilgenstraat,8,51.1211446005,5.00331020854
2440,Geel,Pastoor Op de Beeckstraat,4,51.1710830693,4.99154039594
2440,Geel,Pas,88,51.1586992966,4.98922867742
2440,Geel,Fehrenbachstraat,10,51.1567175539,4.98995461218
2440,Geel,Larumsebrugweg,134,51.1777778517,4.93681009293
2440,Geel,Aardseweg,187,51.2147177178,5.01283067185
2440,Geel,Leeks,70,51.1382784435,4.94488503632
2440,Geel,Verbueckenstraat,22,51.1591376895,4.99929608551
2440,Geel,St.-Corneliusstraat,35,51.1641536403,4.94384716306
2440,Geel,Eksterstraat,92,51.1739799399,4.97040142763
2440,Geel,Hemelrijk,30,51.1749482693,4.98982058263
2440,Geel,Bosakker,38,51.1731885168,4.99229220008
2440,Geel,Pas,240,51.153893351,4.97846068768
2440,Geel,Nieuwstraat,97,51.1632272981,4.99532974204
2440,Geel,Nederlandlaan,26,51.1932999103,5.03362422337
2440,Geel,Bel,92,51.1630158649,5.05452530419
2440,Geel,Gasthuisheide,50,51.1273972861,5.01610516465
2440,Geel,Steenovens,1,51.151138192,4.95639256908
2440,Geel,Zeggendijk,3,51.201223766,4.9481296038
2440,Geel,Borgeleien,28,51.190041949,4.90931312004
2440,Geel,Broekstraat,11,51.2114516098,4.99801809217
2440,Geel,J.B.-Stessensstraat,5C,51.1602915398,4.99873487378
2440,Geel,Pallo,49,51.1649155183,4.99285137467
2440,Geel,Rijn,92,51.1634331125,5.00761935977
2440,Geel,Haverbeemden,6,51.1877101132,4.91154058595
2440,Geel,Scheplakens,48,51.1246632324,4.9994828534
2440,Geel,Heuvel,4,51.1815540124,4.9704731584
2440,Geel,St.-Gerebernusstraat,9,51.0983676395,4.9504057484
2440,Geel,Rozendaal,84,51.1654570966,4.99393831629
2440,Geel,Zammelseweg,31,51.1070735395,4.97287593627
2440,Geel,Westerloseweg,46,51.0951513617,4.93998960668
2440,Geel,Puntstraat,61,51.1392474921,4.94018573746
2440,Geel,Koning-Albertstraat,55,51.1439548296,4.98126914676
2440,Geel,Zandstraat,110,51.1515182767,5.03504040021
2440,Geel,Ganzenstraat,42,51.1761495936,4.96334090833
2440,Geel,Veerleseweg,22,51.0954400259,4.94513195972
2440,Geel,Poiel,6,51.1581806125,4.97873887304
2440,Geel,Winkelomseheide,219,51.121561174,5.01537890306
2440,Geel,Vroente,44,51.1301471652,5.00968217267
2440,Geel,Leschot,34,51.1673198185,5.01027130187
2440,Geel,Groenenheuvel,6,51.1650405625,5.00491514747
2440,Geel,Nieuwstraat,79,51.1625429492,4.99465693169
2440,Geel,Violetstraat,20,51.1622124143,4.98019502618
2440,Geel,Gemeenteheide,115,51.1258538293,5.0074452281
2440,Geel,Rauwelkoven,48,51.1677048329,4.97008169079
2440,Geel,Neerstraat,62,51.1069413647,4.9600019881
2440,Geel,Pas,175,51.157376719,4.98629018427
2440,Geel,H.-Geeststraat,9,51.1589628982,4.98802255918
2440,Geel,Westerloseweg,11,51.0970380195,4.94319889848
2440,Geel,Sijsjesstraat,9,51.1731251364,4.97504747137
2440,Geel,Gasthuisstraat,24,51.1600615286,4.99794053062
2440,Geel,Dr.-Van de Perrestraat,275,51.1800019143,4.98563501076
2440,Geel,Vinkenstraat,17,51.1744973284,4.98503209216
2440,Geel,Vaartstraat,48,51.2034543799,4.97912054789
2440,Geel,Maal,12,51.1503173212,4.97659098465
2440,Geel,Logen,154,51.1709048731,5.00824920531
2440,Geel,Baantveld,16,51.1605885215,4.98004836565
2440,Geel,Domeinstraat,2,51.1955320479,5.02171837565
2440,Geel,Larumsebrugweg,169,51.1814696925,4.93616374702
2440,Geel,Zammelseweg,181,51.0998570962,4.95110358526
2440,Geel,Schrans,17,51.1567237507,5.0237823378
2440,Geel,Van Hoornestraat,27,51.1102236644,4.97450447687
2440,Geel,Retieseweg,34,51.1805865889,5.01593676084
2440,Geel,Paviljoenstraat,5,51.1974294965,4.98132166754
2440,Geel,Laar,105,51.1571498527,5.00873015407
2440,Geel,Diestseweg,131,51.1565002542,4.99350135745
2440,Geel,Nieuwstraat,2,51.1627612478,4.99094391252
2440,Geel,Zandhoefstraat,31,51.1791522205,4.98046841164
2440,Geel,Lebonstraat,70,51.1628916794,4.98838195185
2440,Geel,Velveken,68B,51.1546108012,4.93703990139
2440,Geel,Waaiburg,70,51.1581660258,4.98310780679
2440,Geel,Velveken,102D,51.1490686417,4.93061944085
2440,Geel,Lichtaartseweg,10,51.1897706161,4.90288957485
2440,Geel,Malosewaver,16,51.155654057,5.02255248286
2440,Geel,Rijn,74,51.1632626485,5.00596381924
2440,Geel,Rode-Kruisstraat,9,51.1794390319,4.97402340527
2440,Geel,J.B.-Stessensstraat,25,51.1600962738,4.99904272688
2440,Geel,Gooreindse Leunen,15,51.1802462876,4.96903215634
2440,Geel,Galven,61,51.1756438429,5.00673263487
2440,Geel,Luxemburglaan,24,51.1944398158,5.03403360692
2440,Geel,Gasthuisstraat,42,51.1593187812,4.99712985222
2440,Geel,Stationsstraat,83,51.1658627353,4.9895527451
2440,Geel,Schoolsteeg,16,51.164286489,4.99164134155
2440,Geel,Antwerpseweg,15,51.1516256061,4.9712238975
2440,Geel,Logen,29,51.1639270485,5.00263827713
2440,Geel,Larumseweg,71,51.1646943008,4.96568886512
2440,Geel,Reebokstraat,13,51.2056589009,4.9834978185
2440,Geel,Galven,43,51.1739033499,5.00546362758
2440,Geel,Koeneind,7,51.1627201812,5.01526180178
2440,Geel,Kievermont,84,51.1709534565,5.02748751739
2440,Geel,Koning-Albertstraat,91,51.1388340706,4.97976520165
2440,Geel,Waterstraat,10,51.1570464336,4.98804499852
2440,Geel,Herentalsedijk,29,51.1808704375,4.93216263823
2440,Geel,Eindhoutseweg,28,51.107473905,4.97764417062
2440,Geel,Oosterloseweg,11,51.1217532031,4.97849291258
2440,Geel,Larum,20,51.1662445237,4.94558015117
2440,Geel,Rijn,188,51.1640043853,5.01834589275
2440,Geel,Eendenstraat,8,51.1713664353,4.97402084206
2440,Geel,Weverstraat,58,51.1014833301,4.94054906888
2440,Geel,Domeinstraat,16,51.1997396492,5.01989076862
2440,Geel,Raamberg,3,51.1902620487,4.94571364565
2440,Geel,St.-Antoniusstraat,8,51.16465595,5.06425198831
2440,Geel,Antwerpseweg,33,51.1508552515,4.96845610923
2440,Geel,Heistraat,94,51.1756116988,4.99452321832
2440,Geel,Bosakker,13,51.1719789604,4.98910627045
2440,Geel,Antwerpseweg,119,51.1430762292,4.94827111217
2440,Geel,Worfthoeven,4,51.1990547987,4.95263266398
2440,Geel,Gemeenteheide,99,51.1270906669,5.0073888715
2440,Geel,Rauwelkoven,9,51.1652934932,4.97224385173
2440,Geel,Stationsstraat,121,51.1668325128,4.98908069496
2440,Geel,Busser,34,51.167786913,5.04199685423
2440,Geel,Heistraat,8,51.1693047895,4.98990554987
2440,Geel,Valkenborch,48,51.1670690589,4.97475240888
2440,Geel,Rundsvoort,13,51.1997229092,4.96345859207
2440,Geel,Oude-Brugweg,29,51.1879122991,4.90475004743
2440,Geel,Stationsstraat,103,51.1663675148,4.98923506503
2440,Geel,Blokstraat,13,51.2104068478,5.01660144898
2440,Geel,Hadschot,65,51.1785928929,4.99927749982
2440,Geel,Retieseweg,48,51.182309651,5.01716734122
2440,Geel,Dr.-Van de Perrestraat,78,51.1721206235,4.987137492
2440,Geel,Beekhoek,10,51.2042557823,4.98979615291
2440,Geel,Malosewaver,34,51.1553556853,5.02682456076
2440,Geel,Van Hoornestraat,1,51.1119983004,4.9771008328
2440,Geel,Rendersvensedijk,9,51.1933541817,5.01183861253
2440,Geel,Meerhoutseweg,59,51.1565798283,5.04092713122
2440,Geel,Oudekastelseweg,22,51.2128084865,4.9999163551
2440,Geel,Gasstraat,37,51.1772036773,4.98125438922
2440,Geel,Rozendaal,56,51.1670824691,4.99086060013
2440,Geel,Otterstraat,7,51.206609122,4.98058666365
2440,Geel,Gooreind,25,51.1752944007,4.97571459638
2440,Geel,Winkelomseheide,165,51.1263471356,5.01120203661
2440,Geel,Zwanenstraat,27,51.1714701507,4.97218153015
2440,Geel,Grotesteenweg,69,51.1026077658,4.9440024285
2440,Geel,Vaartstraat,46,51.2033889743,4.97907948448
2440,Geel,Rijn,6,51.1630959415,5.0019506328
2440,Geel,Pallo,39,51.1644973377,4.99310940536
2440,Geel,Mannestraat,154,51.1736704871,5.0195914788
2440,Geel,Holven,59,51.1708408718,4.98512903444
2440,Geel,Katersberg,132,51.1802083948,5.00468336841
2440,Geel,Rijn,56,51.1631985155,5.00450559698
2440,Geel,Hagelbos,8,51.1081001176,4.97315110039
2440,Geel,Zammelseweg,100,51.1026107462,4.96295913642
2440,Geel,Aardseweg,180,51.2188838921,5.0180212816
2440,Geel,Aardseweg,25,51.2046952249,4.98546114847
2440,Geel,Dr. - Verwaeststraat,2,51.1661670354,4.99302253234
2440,Geel,Winkelom,33,51.1494549704,4.99825552555
2440,Geel,Retieseweg,16,51.1744518737,5.01116406198
2440,Geel,Technische-Schoolstraat,7,51.1649897078,4.98832676634
2440,Geel,Steenovens,43,51.1439456086,4.94530699302
2440,Geel,Klavet,14C,51.1224211861,4.97539081505
2440,Geel,Ossemeer,72,51.1881312733,4.97893461002
2440,Geel,Heistraat,58,51.1711795162,4.99296982217
2440,Geel,Dr.-Peetersstraat,68,51.1609939248,4.97681305625
2440,Geel,Eindekens,72,51.1847562632,4.95387007466
2440,Geel,Laar,123,51.1577312067,5.01227486381
2440,Geel,Stelensehulst,1,51.122208648,4.97827261123
2440,Geel,Gasstraat,19,51.1780460459,4.98332417496
2440,Geel,Doornboomstraat,79,51.139394057,4.94367055351
2440,Geel,Langstraat,91,51.1723483254,4.92305769495
2440,Geel,Klavet,21,51.1176611144,4.96684908146
2440,Geel,Djepstraat,36,51.1331104917,5.01701320234
2440,Geel,St.-Kristoffelstraat,22,51.1405524467,4.95345142481
2440,Geel,Zwaluwenstraat,10,51.1743104885,4.9739809887
2440,Geel,Groenstraat,31,51.170670564,4.97584871809
2440,Geel,Eksterstraat,74,51.1739311854,4.97192224901
2440,Geel,Winkelomseheide,92,51.1311540044,5.01183180505
2440,Geel,Houterveld,5,51.180286951,4.92481619392
2440,Geel,Olenseweg,169,51.1640537633,4.92568023668
2440,Geel,Olenseweg,134,51.1645850851,4.93021325837
2440,Geel,Winkelomseheide,28,51.1367621053,5.01136443337
2440,Geel,Scheidijk,4,51.1849619599,4.91388553481
2440,Geel,Tessenderloseweg,43,51.1371230833,5.01933362034
2440,Geel,Keulsekar,21,51.1655009604,5.02574591482
2440,Geel,Gansakker,84,51.1657175354,5.00151900823
2440,Geel,Rozendaal,100,51.1646958667,4.99509999944
2440,Geel,Pas,222,51.1544437405,4.98007588913
2440,Geel,Kollegestraat,99,51.1613734756,4.99877979556
2440,Geel,Poiel,129,51.1479206347,4.93886599988
2440,Geel,St.-Corneliusstraat,53,51.1631748953,4.94435260762
2440,Geel,Rode-Kruisstraat,11,51.1796635523,4.9743952891
2440,Geel,Zammelseweg,235,51.0975122126,4.9450533225
2440,Geel,Meidoornstraat,30,51.1663738092,4.97830376544
2440,Geel,Reivennen,4,51.1849527806,5.03574069963
2440,Geel,Bel,188,51.1631564318,5.06700237617
2440,Geel,Scheplakens,11,51.1291010667,4.99772583585
2440,Geel,Diestseweg,41D,51.1588483886,4.99233719806
2440,Geel,Gansakker,66,51.1654998345,5.00069541713
2440,Geel,Eksterstraat,21,51.1754384208,4.97064003805
2440,Geel,Rauwelkoven,125,51.1733456241,4.94958997938
2440,Geel,Kabienstraat,3,51.16452654,4.98461338942
2440,Geel,Stalpaart,21,51.1644420077,5.01223722724
2440,Geel,Olenseweg,55,51.1668113017,4.93755890035
2440,Geel,Velveken,28,51.1610364621,4.94337228282
2440,Geel,Winkelom,15,51.1498167051,4.99619421186
2440,Geel,Ossestraat,18,51.1694490418,5.01013502431
2440,Geel,Elsumerblok,24,51.1663918319,4.97723300914
2440,Geel,Wielewaalstraat,33,51.172627842,4.97112280586
2440,Geel,Laarsveld,14,51.1620500821,5.00771806791
2440,Geel,Antwerpsedries,58,51.1681892855,5.00061662672
2440,Geel,De-Billemontstraat,38,51.1634506157,4.99687844522
2440,Geel,Doornboomstraat,26,51.1361436784,4.97176838735
2440,Geel,Groenstraat,66,51.1709259476,4.97528754125
2440,Geel,Kievermont,90,51.1715849702,5.02833262829
2440,Geel,Pas,275,51.1548925361,4.97990653274
2440,Geel,Meeuwstraat,5,51.1420244168,4.96637034691
2440,Geel,Rauwelkoven,46,51.1674817355,4.97015101536
2440,Geel,Elsum,13,51.1639239349,4.98359482538
2440,Geel,Mosselgoren,52,51.1919608077,4.92526004752
2440,Geel,Tulpenstraat,51,51.1600688803,4.9791270958
2440,Geel,Winkelomseheide,112,51.1303499488,5.01161514886
2440,Geel,Katersberg,150,51.1803872681,5.00960248112
2440,Geel,Elsum,117,51.1644322758,4.97862164415
2440,Geel,Djepstraat,18,51.1337134335,5.01901205875
2440,Geel,Eikevelden,61,51.1560937194,4.99965830916
2440,Geel,Gooreindse Leunen,33,51.1794126553,4.96758331064
2440,Geel,Eksterstraat,6,51.1752459042,4.97262307297
2440,Geel,Gerststraat,52,51.170673218,5.00374131555
2440,Geel,H.-Geeststraat,46,51.1594081532,4.98705655946
2440,Geel,Bel,135,51.1628688083,5.0644879576
2440,Geel,H.-Geeststraat,11,51.1590526342,4.98794898883
2440,Geel,Eksterstraat,56,51.1746790304,4.97067785163
2440,Geel,Diestseweg,87,51.15789034,4.99295077224
2440,Geel,Sijsjesstraat,11,51.172863769,4.97514688248
2440,Geel,Doelenstraat,11,51.1627424902,4.99537040488
2440,Geel,Klavet,6,51.1235860987,4.97601416669
2440,Geel,St.-Gerebernusstraat,11,51.0983408251,4.95053861131
2440,Geel,Antwerpseweg,137,51.1420906528,4.94572990228
2440,Geel,Molderbeemdendijk,10,51.1839891514,4.9830385363
2440,Geel,Aardseweg,144,51.2114453635,5.00204480759
2440,Geel,Molseweg,204,51.1706253468,5.05858573681
2440,Geel,Olenseweg,116,51.165275227,4.93185810473
2440,Geel,Winkelomseheide,147,51.1278746821,5.0108485029
2440,Geel,Antwerpseweg,183,51.1405029731,4.94183435596
2440,Geel,Helleblok,24,51.175252123,4.9880362999
2440,Geel,Hanestrik,33,51.2025015479,4.97631970017
2440,Geel,Wassewater,3,51.1285689604,5.00991363859
2440,Geel,Groenstraat,84,51.1720192106,4.97599654089
2440,Geel,Rauwelkoven,107,51.1728607259,4.95434392887
2440,Geel,Haag,5,51.1533871039,4.92665785136
2440,Geel,Velveken,92,51.1509232149,4.93290024242
2440,Geel,Kalvariebergstraat,10,51.1062971374,4.97363236895
2440,Geel,Rijn,100,51.1635354682,5.00817202432
2440,Geel,Nieuwstraat,48C,51.16318288,4.99287364849
2440,Geel,Vleeshouwer,47,51.1767530602,4.99410767197
2440,Geel,Mezenstraat,14,51.176009649,4.97371819197
2440,Geel,Laarsveld,32,51.1610951034,5.00960613942
2440,Geel,Kievermont,110,51.1733630506,5.03080710297
2440,Geel,Doelenstraat,46,51.1615815041,4.99536638485
2440,Geel,Larumseweg,53,51.1648916015,4.96744572316
2440,Geel,Hollandsebaan,42,51.1259131573,5.00333461557
2440,Geel,Koppeleershoeven,28,51.1802408089,4.98975337315
2440,Geel,Vroente,7,51.1288158584,5.00920832181
2440,Geel,Grotekievit,9,51.2224172014,5.01855722219
2440,Geel,Gansakker,31,51.1640691212,4.99748979695
2440,Geel,Diestseweg,41B,51.1588595409,4.99231904987
2440,Geel,Meidoornstraat,12,51.1654308293,4.97890391188
2440,Geel,Grotesteenweg,48,51.1133227409,4.9469500659
2440,Geel,Bisschopshoeven,47,51.2037388743,4.97673389759
2440,Geel,Stationsstraat,59,51.1650271523,4.99019683662
2440,Geel,Vidse,25,51.1672365691,4.97713565896
2440,Geel,Pas,150,51.1570350286,4.98674050145
2440,Geel,Herentalsedijk,197,51.1849361662,4.90893981243
2440,Geel,Eindhoutseweg,92,51.1059674365,4.98445653632
2440,Geel,Leliestraat,36,51.1658054777,4.97303823497
2440,Geel,Bruul,30,51.1654835171,5.05379785009
2440,Geel,Aardseweg,43,51.2057946574,4.98697014809
2440,Geel,Helleblok,42,51.1758086668,4.98951615861
2440,Geel,Fabriekstraat,1,51.167434763,4.99017473641
2440,Geel,Kanaaldijk,6,51.2019772629,4.9838475777
2440,Geel,Dr.-Van de Perrestraat,122,51.173469922,4.98690114807
2440,Geel,Diestseweg,184,51.1545254033,4.99409181059
2440,Geel,Nachtegalenstraat,34,51.1727515774,4.97940123334
2440,Geel,Mannestraat,22,51.166566917,5.00600725571
2440,Geel,Heuvelgoor,18,51.176936249,4.9898539306
2440,Geel,Retieseweg,70,51.1849295115,5.01923134852
2440,Geel,Stationsstraat,19,51.1635175032,4.99058230167
2440,Geel,Technische-Schoolstraat,50,51.1666133123,4.98397556204
2440,Geel,Dr.-Van de Perrestraat,162,51.1752206704,4.98633692669
2440,Geel,Eksterstraat,100,51.1737538014,4.97131323506
2440,Geel,Meerhoutseweg,103,51.150898049,5.04556747663
2440,Geel,Rijn,38,51.1632201228,5.00316362891
2440,Geel,Otterstraat,50,51.20845627,4.98520799421
2440,Geel,Diestseweg,166,51.1556902709,4.99414416337
2440,Geel,Pas,53,51.1595708766,4.9895674852
2440,Geel,Holvenseheide,10,51.18182259,4.99274950546
2440,Geel,Stationsstraat,37,51.1644427723,4.99033558776
2440,Geel,Retieseweg,21A,51.1795664945,5.01589442624
2440,Geel,Neerstraat,79,51.1012093261,4.94862467518
2440,Geel,Korte Elzenstraat,14,51.1870073328,4.9850373048
2440,Geel,Anemoonstraat,12,51.1591118342,4.98338472026
2440,Geel,Groenenheuvel,56,51.164964948,5.01006477349
2440,Geel,Binnenhoeven,2,51.1814570666,4.96385324768
2440,Geel,Groenstraat,110,51.1743468682,4.97880296063
2440,Geel,Vogelzang,25,51.1439928834,4.94802241888
2440,Geel,Patrijzenstraat,16,51.1762915508,4.9724874678
2440,Geel,Laar,158,51.1596569153,5.01401741161
2440,Geel,Heistraat,23,51.1739787685,4.99457651616
2440,Geel,Burgstraat,6,51.1649535226,5.00398610743
2440,Geel,Dennenstraat,5,51.1239768881,5.01034678927
2440,Geel,Oude-Brugweg,40,51.1899995816,4.9039558576
2440,Geel,Larumseweg,139,51.1649830091,4.94939473937
2440,Geel,Dr.-Van de Perrestraat,144,51.1744569642,4.98656260945
2440,Geel,Gerststraat,9,51.1658663186,5.0022025616
2440,Geel,Drijhoek,12,51.159876378,4.97371075454
2440,Geel,Mosselgoren,9,51.1908076083,4.93746628919
2440,Geel,In 't Eegdeken,79,51.1703388783,5.01049399828
2440,Geel,Markt,60,51.1608212995,4.99105612417
2440,Geel,Dr.-Van de Perrestraat,240,51.1795084693,4.98517971313
2440,Geel,Pastorijstraat,41,51.1646707213,5.05881290027
2440,Geel,Dr.-Van de Perrestraat,180,51.1761798287,4.98610452974
2440,Geel,Rauwelkoven,160A,51.1710086758,4.94729170603
2440,Geel,Meerhoutseweg,121,51.1493546867,5.04685765829
2440,Geel,Winkelom,68,51.1471871212,5.00344178528
2440,Geel,Winkelomseheide,129,51.1294266994,5.01106842849
2440,Geel,Nieuwstraat,44,51.1632515956,4.99249214718
2440,Geel,Bisschopshoeven,20,51.204588257,4.97719799674
2440,Geel,Verbueckenstraat,40,51.1588193352,4.99907121326
2440,Geel,Heistraat,120,51.1773746607,4.99466314491
2440,Geel,Dr.-Van de Perrestraat,25,51.1710543901,4.98804074202
2440,Geel,Leliestraat,18,51.1661931256,4.97467611689
2440,Geel,Elsumerblok,42,51.1656713308,4.97753742263
2440,Geel,Groenhuis,6,51.1687151538,4.97593077725
2440,Geel,Velleke,19,51.1661903346,4.98172335166
2440,Geel,Antwerpseweg,86,51.1447162087,4.95582136921
2440,Geel,Dr.-Van de Perrestraat,347,51.1836427428,4.98489670833
2440,Geel,Nachtegalenstraat,16,51.1728097521,4.98125343218
2440,Geel,Turnhoutseweg,15,51.2057086638,4.97983377003
2440,Geel,Olenseweg,187,51.1637943185,4.92398918866
2440,Geel,Stationsstraat,156,51.1677580158,4.98815552131
2440,Geel,Kemeldijk,69,51.1264061156,5.00119401905
2440,Geel,Velodroomwijk,40,51.1746734383,4.99250367459
2440,Geel,Zavelstraat,11,51.1643843614,5.05371794212
2440,Geel,Asterstraat,74,51.1574740287,4.981177963
2440,Geel,Eksterstraat,38,51.1745972828,4.97232181663
2440,Geel,Rijn,135,51.1634017626,5.01517232089
2440,Geel,Vroente,39,51.1299247415,5.00915939551
2440,Geel,Velleke,5,51.1657658749,4.98122238573
2440,Geel,Fabriekstraat,20,51.1683269186,4.9920303098
2440,Geel,Brunosdijk,19,51.1892759508,4.98057568236
2440,Geel,Borgeleien,21,51.1893218935,4.90948270875
2440,Geel,Koning-Albertstraat,27,51.1479960502,4.98274420646
2440,Geel,Logen,179,51.1716641083,5.00950217665
2440,Geel,Paddenhoek,5,51.1022572969,4.94180496221
2440,Geel,Gasthuisheide,49,51.1277714904,5.01532080686
2440,Geel,Belgiëlaan,31,51.191582761,5.03330676447
2440,Geel,Veerleseweg,40,51.0929903498,4.94534653482
2440,Geel,Weverstraat,23,51.1009045716,4.94183418955
2440,Geel,Herentalsedijk,179,51.1837056576,4.91204143872
2440,Geel,Veerleseweg,29,51.0953794288,4.94447255023
2440,Geel,St.-Hubertusstraat,14,51.2045079169,4.98619728653
2440,Geel,Eggestraat,2,51.1241027019,4.97332076408
2440,Geel,Winkelomseheide,212,51.1234626037,5.01239489733
2440,Geel,Paviljoenstraat,19,51.1991260235,4.98082176186
2440,Geel,Dr.-Van de Perrestraat,96,51.172695454,4.98700169721
2440,Geel,Dr.-Van de Perrestraat,229,51.1780092663,4.98616808308
2440,Geel,Leeks,16,51.138516573,4.95398844827
2440,Geel,Leeks,69,51.1387310726,4.94533728528
2440,Geel,Verbueckenstraat,126,51.1579643668,4.99730858235
2440,Geel,Voort,71,51.1752845244,5.04916768605
2440,Geel,Velodroomwijk,29,51.17354357,4.98963456931
2440,Geel,Veldstraat,42,51.1581436942,4.98519980342
2440,Geel,Poiel,74,51.1524612444,4.94857109719
2440,Geel,Logen,40,51.1642302564,5.0023683361
2440,Geel,Dr.-Peetersstraat,15,51.1565117931,4.98018518644
2440,Geel,Badstraat,2,51.1815908505,4.98579362069
2440,Geel,Katersberg,35,51.1793138078,4.99092729454
2440,Geel,Schransdijk,7A,51.1922920689,5.00730084758
2440,Geel,Zammelseweg,38,51.1065337132,4.97221584223
2440,Geel,Westerloseweg,4,51.0967093291,4.94381698956
2440,Geel,Wielewaalstraat,51,51.1722146797,4.97181582226
2440,Geel,Gemeenteheide,143,51.1244975211,5.00756893981
2440,Geel,St.-Gerebernusstraat,34A,51.0993606621,4.95566088111
2440,Geel,Dennenstraat,37,51.123875656,5.0056095082
2440,Geel,Gooreind,61,51.1803943651,4.97216290749
2440,Geel,Vinkenstraat,10,51.1743321781,4.98565608389
2440,Geel,Grotesteenweg,87,51.1003430747,4.9440551922
2440,Geel,Holven,192,51.1797377488,4.98131828942
2440,Geel,Meerhoutseweg,24,51.1613527189,5.03769806512
2440,Geel,Lebonstraat,9,51.163040827,4.98940367012
2440,Geel,Zammelseweg,188,51.0993635982,4.95022984727
2440,Geel,Nieuwstraat,62,51.1635675225,4.99307608402
2440,Geel,Heistraat,155,51.2044090554,5.00083666502
2440,Geel,Van Hoornestraat,20,51.1106404995,4.97624790305
2440,Geel,Anemoonstraat,83,51.1628374609,4.98202095359
2440,Geel,Laar,97,51.15679287,5.00789061993
2440,Geel,Stationsstraat,5,51.163099264,4.9907841606
2440,Geel,Diestseweg,2,51.1607682038,4.99116992141
2440,Geel,Larumsebrugweg,162,51.1806420021,4.93567815143
2440,Geel,Zammelseweg,200,51.0982777771,4.94764490175
2440,Geel,Violetstraat,27,51.1631287898,4.98041118913
2440,Geel,Leschot,9,51.1672073666,5.01337156568
2440,Geel,Pas,204,51.155268408,4.98225232865
2440,Geel,Maal,19,51.1499105354,4.97626668644
2440,Geel,Meerhoutseweg,95,51.1513807154,5.04516757001
2440,Geel,Europawijk,3,51.1991237206,5.03393708761
2440,Geel,Canadalaan,10,51.1893017646,5.0364577773
2440,Geel,Gasthuisheide,14,51.1294789505,5.01379645143
2440,Geel,Larum,1,51.1654527883,4.94746981792
2440,Geel,Rauwelkoven,99,51.1728032217,4.95602076258
2440,Geel,Gemeenteheide,161,51.1226116305,5.00768282398
2440,Geel,Holven,95,51.1732353236,4.98354445651
2440,Geel,Goorakker,1,51.0991537147,4.94228924865
2440,Geel,Gasthuisstraat,60,51.1583430349,4.99628547403
2440,Geel,Beekhoek,27,51.205558932,4.98932515497
2440,Geel,Klein-Veldekensstraat,9,51.1699221097,4.98213000769
2440,Geel,Pas,139,51.1581295341,4.98757765464
2440,Geel,Vogelzang,96,51.1412574718,4.94056358897
2440,Geel,Diestseweg,148,51.1562105219,4.99416643372
2440,Geel,Laar,26,51.1610047238,5.00210808065
2440,Geel,Koekoekstraat,2,51.1727772679,4.96861154565
2440,Geel,Velodroomstraat,65,51.1779904273,4.99188922539
2440,Geel,Opstal,9,51.123090174,4.97693816085
2440,Geel,Bruggenhoofdweg,7,51.1323958993,4.9628653897
2440,Geel,Hemelrijk,19,51.1749173117,4.99095341987
2440,Geel,Zandstraat,109,51.1503862576,5.03316666936
2440,Geel,Puntstraat,25,51.1401094633,4.93703843876
2440,Geel,Zammelseweg,6,51.1079408037,4.97555222146
2440,Geel,Gasthuisheide,67,51.1276357572,5.01269329789
2440,Geel,Pelserij,23,51.1772263994,4.992718017
2440,Geel,Peperstraat,8,51.1603035993,4.98925302381
2440,Geel,Technische-Schoolstraat,39,51.1662820586,4.98471878304
2440,Geel,Heistraat,102,51.1762312554,4.99456571156
2440,Geel,Beekhoek,7A,51.2038806341,4.99074424555
2440,Geel,Spreeuwenstraat,4,51.1734104496,4.97394313724
2440,Geel,Poiel,56,51.1564949195,4.9721518714
2440,Geel,Fittelaarsdijk,10,51.1849294071,4.99055142899
2440,Geel,Koekoekstraat,16,51.1725204224,4.96957213066
2440,Geel,Rozendaal,38,51.1675701436,4.98974647395
2440,Geel,Bosakker,31,51.1722793804,4.99065769147
2440,Geel,Velodroomstraat,30,51.1775509325,4.98831023133
2440,Geel,Maal,5,51.1511416296,4.97511974983
2440,Geel,Dahliastraat,21,51.1589177444,4.98185133572
2440,Geel,Zammelseweg,135,51.1010277459,4.95658614183
2440,Geel,Rauwelkoven,196B,51.1670014312,4.94601156808
2440,Geel,Pallo,50,51.1651797974,4.99196622873
2440,Geel,Borgeleien,92,51.193088465,4.91726849945
2440,Geel,Laar,194,51.161256119,5.01646434669
2440,Geel,Keersvennen,9,51.1728666178,4.93022377303
2440,Geel,Katersberg,88,51.179905424,4.99688821397
2440,Geel,Euseldonk,10,51.1875456627,5.02062598467
2440,Geel,Hemelrijk,5,51.1746213515,4.99160968222
2440,Geel,Ganzenstraat,59,51.1813875494,4.96314657521
2440,Geel,Gooreind,43,51.1770884023,4.97581774967
2440,Geel,Lebonstraat,59,51.1635566017,4.98534312407
2440,Geel,Winkelomseheide,200A,51.1249625946,5.01193605404
2440,Geel,Eendenstraat,25,51.1715500735,4.97470455542
2440,Geel,Larumsgoor,4,51.1748494911,4.92197850553
2440,Geel,St.-Antoniusstraat,25,51.1662671541,5.06412646855
2440,Geel,Fazantenstraat,10,51.2055066544,4.98114111323
2440,Geel,Kruishei,2,51.1023507296,4.94597654061
2440,Geel,Kraaisteerten,6,51.1113373964,4.99946719065
2440,Geel,Velodroomstraat,55,51.1777699345,4.99100278982
2440,Geel,Kievermont,161,51.1782304943,5.02980509655
2440,Geel,Stelensedijk,1,51.1210712367,4.98058548886
2440,Geel,Kabienstraat,22,51.1650177827,4.98432064861
2440,Geel,Voort,58,51.1758825979,5.0496281533
2440,Geel,Puntstraat,51,51.138849384,4.93923681614
2440,Geel,Verbueckenstraat,14,51.1591453291,4.99953162521
2440,Geel,Langstraat,30,51.1787315737,4.93095282596
2440,Geel,Europawijk,17,51.2004183087,5.03603646054
2440,Geel,Eikevelden,33,51.1553203146,4.99745262257
2440,Geel,Holven,194,51.1798155407,4.98131087396
2440,Geel,Voort,19A,51.1743112914,5.03673987309
2440,Geel,Gasthuisheide,62,51.1273258661,5.0139168311
2440,Geel,Pas,219,51.1565603034,4.98452749575
2440,Geel,Wijdbos,23,51.1618608593,5.0601943309
2440,Geel,Bruul,7,51.1650255506,5.05157698446
2440,Geel,Katersberg,41,51.1793172232,4.99145562015
2440,Geel,Herentalseweg,16,51.1417677873,4.93887168538
2440,Geel,Aardseweg,179,51.2139027236,5.01026820552
2440,Geel,Meidoornstraat,27,51.1660453425,4.97907122072
2440,Geel,Rauwelkoven,181,51.1675683302,4.94528198676
2440,Geel,Koppeleershoeven,11,51.1788263442,4.98985208414
2440,Geel,In 't Eegdeken,26,51.1703691373,5.0122824198
2440,Geel,Tessenderloseweg,33,51.138117715,5.01732738545
2440,Geel,Mosselgoren,117,51.1904758542,4.91566870406
2440,Geel,Oostereinde,9,51.1952001585,5.02433343124
2440,Geel,Leeks,60,51.1385557391,4.94643061616
2440,Geel,Smallerijt,13,51.093114278,4.94170618877
2440,Geel,Kollegestraat,4,51.160788832,4.99153630074
2440,Geel,Logen,134,51.1693684464,5.00707900289
2440,Geel,Nieuwstraat,49,51.1629485938,4.99374614412
2440,Geel,Gasthuisstraat,69,51.1579911331,4.99462486381
2440,Geel,Bruul,55,51.1654202202,5.05898211387
2440,Geel,Poiel,82,51.1521146653,4.9472467213
2440,Geel,Gasthuisheide,44,51.1284464097,5.01654471015
2440,Geel,Gasthuisheide,5,51.1290621667,5.01235883697
2440,Geel,Diestseweg,138,51.1566982824,4.99439967872
2440,Geel,Stelenseweg,33,51.1511968703,4.9825122104
2440,Geel,Djepstraat,21,51.1341028333,5.01878474579
2440,Geel,Kollegestraat,70B,51.161242256,4.9943176834
2440,Geel,Bel,153,51.1627343133,5.06692571986
2440,Geel,Beekhoek,1,51.2040184673,4.99385205433
2440,Geel,Koning-Albertstraat,118,51.1320492566,4.98101644091
2440,Geel,Doelenstraat,28,51.1622293755,4.9955279121
2440,Geel,Zammelseweg,48,51.1060104419,4.9707962145
2440,Geel,Mosselgoren,135,51.189150576,4.91335121927
2440,Geel,Pas,94,51.1583668121,4.9897381453
2440,Geel,Lemersveld,4,51.1611333267,5.00758070808
2440,Geel,Liessel,18,51.1238763102,4.94906571817
2440,Geel,Vogelzang,51,51.1432011175,4.94527607114
2440,Geel,Larumseweg,140,51.1647147332,4.94819821361
2440,Geel,Beekhoek,40,51.2072379304,4.98730582785
2440,Geel,Kwakkelberg,117,51.16739595,4.9732874616
2440,Geel,Gansakker,2,51.1640774636,4.99632832933
2440,Geel,Puntstraat,3,51.1411249579,4.93897114183
2440,Geel,Holven,52,51.1709296213,4.98448649149
2440,Geel,St.-Gerebernusstraat,28,51.0990143903,4.95468844565
2440,Geel,Rozendaal,48,51.1673089192,4.99075453253
2440,Geel,Verbueckenstraat,32,51.1588315237,4.99929666352
2440,Geel,Pallo,79,51.1656979501,4.99190896078
2440,Geel,Koning-Albertstraat,136,51.128815151,4.98228671057
2440,Geel,In 't Eegdeken,50,51.1700797077,5.01094382826
2440,Geel,Borgeleien,46,51.1917895058,4.91082895244
2440,Geel,Werft,15,51.1621556657,4.9891006849
2440,Geel,Eksterstraat,18,51.1755417704,4.97143672949
2440,Geel,Steentjesblok,31,51.1549708309,4.99157282233
2440,Geel,Winkelomseheide,150,51.1287900696,5.01277008127
2440,Geel,Oosterloseheide,21,51.1050226071,4.99389302602
2440,Geel,Breerijt,15,51.0960227125,4.9393694325
2440,Geel,Rauwelkoven,200,51.1668289152,4.94610751057
2440,Geel,Herentalsedijk,98,51.182014035,4.92241193664
2440,Geel,Olenseweg,37,51.1673374451,4.93920993497
2440,Geel,Velveken,11,51.1632635584,4.94715715577
2440,Geel,Neerstraat,50,51.1096408428,4.96325766783
2440,Geel,Waterstraat,40,51.1558552,4.98970742127
2440,Geel,Holven,158,51.1775867186,4.98207984062
2440,Geel,Velodroomstraat,91,51.1782848183,4.99355390252
2440,Geel,Elsum,178,51.1641379572,4.9735281494
2440,Geel,Vroente,26,51.1295247872,5.00972762573
2440,Geel,Scheplakens,28,51.1281871732,4.99859735638
2440,Geel,St.-Kristoffelstraat,17,51.1412798629,4.9548028807
2440,Geel,Hoogstraat,15,51.1602657107,5.06227066512
2440,Geel,Gladioolstraat,12,51.1558589203,4.97822437689
2440,Geel,Nachtegalenstraat,42,51.1727511407,4.97842546399
2440,Geel,Hezemeerdijk,4,51.1330856114,5.02262490345
2440,Geel,Spikkewaverdijk,9,51.1203783966,5.02450480651
2440,Geel,Wielewaalstraat,8,51.1734917217,4.96910233559
2440,Geel,Larum,37,51.1675423709,4.94367593043
2440,Geel,Dr.-Van de Perrestraat,51,51.1721436719,4.98766184964
2440,Geel,Poiel,64,51.1548419306,4.95838314818
2440,Geel,Schaapsdijk,11A,51.0969624901,4.94854153218
2440,Geel,Twee-Molensstraat,10,51.1434563733,4.92303432842
2440,Geel,Nieuwstraat,67,51.1629726873,4.99413560488
2440,Geel,Amandus-De-Vosstraat,17,51.1646140267,4.99942660441
2440,Geel,Logen,116,51.1672144388,5.00546508499
2440,Geel,Schaapsdijk,32,51.09510074,4.94655229431
2440,Geel,Pas,58,51.1590975977,4.98968940986
2440,Geel,Klavet,18,51.118728323,4.96848767054
2440,Geel,Molseweg,23,51.1637510471,5.02305185437
2440,Geel,Violetstraat,1,51.1615154247,4.98105963233
2440,Geel,St.-Gerebernusstraat,4,51.0990835351,4.94914720507
2440,Geel,Vroente,50,51.1303143372,5.00967003962
2440,Geel,Violetstraat,40,51.1633458933,4.97981731674
2440,Geel,Schransdijk,1,51.1834690449,5.00725736084
2440,Geel,Rozendaal,89,51.1638577,4.9953955404
2440,Geel,Hollandsebaan,16,51.1309408297,5.00159220046
2440,Geel,Zandhoefstraat,2,51.1749314756,4.97972893501
2440,Geel,Gerststraat,59,51.1690874487,5.003113632
2440,Geel,Mosselgoren,59,51.1922225591,4.92409618114
2440,Geel,Zandhoefstraat,54,51.1811515988,4.97899427102
2440,Geel,Gasstraat,7,51.1784011786,4.9841896181
2440,Geel,Eggestraat,14,51.1238317101,4.97503033639
2440,Geel,Malosewaver,77,51.1574353096,5.03754296522
2440,Geel,Asterstraat,64,51.1570227122,4.98139974309
2440,Geel,Aardseweg,86,51.2081813992,4.99144231782
2440,Geel,Rauwelkoven,24,51.1659675925,4.97125450888
2440,Geel,Winkelom,61,51.1476495949,5.00240709527
2440,Geel,Hollandsebaan,34,51.1265033783,5.00310065463
2440,Geel,Diestseweg,60,51.1590581353,4.99277242102
2440,Geel,Stelenseweg,108,51.1504963645,4.98294347858
2440,Geel,Winkelom,43,51.1494821141,4.99995448487
2440,Geel,Badstraat,14,51.1815684817,4.9868387797
2440,Geel,Markt,69,51.1599218193,4.99067359326
2440,Geel,Diestseweg,32,51.1598833765,4.99218335553
2440,Geel,Technische-Schoolstraat,26,51.1654325527,4.98445407996
2440,Geel,Kapelhoek,7,51.1005934266,4.95843195915
2440,Geel,Kemeldijk,14,51.1272988719,5.01031517367
2440,Geel,Sijsjesstraat,4,51.1741449481,4.97437722146
2440,Geel,Doelenstraat,4,51.1629977437,4.99583302341
2440,Geel,Malosewaver,95,51.1602009438,5.04595635642
2440,Geel,Roggendries,52,51.1650909432,5.01122654072
2440,Geel,Acaciastraat,14A,51.1202119962,5.01342801215
2440,Geel,J.B.-Stessensstraat,3A,51.1602695905,4.99870427145
2440,Geel,Heidebloemstraat,13,51.1655358934,4.99003191183
2440,Geel,Mannestraat,116,51.1718942023,5.01550282321
2440,Geel,Velveken,104,51.1488340968,4.93047369948
2440,Geel,St.-Apolloniastraat,3,51.1240267426,4.97270756455
2440,Geel,Markt,92C,51.1614981448,4.98983187713
2440,Geel,Oosterloseweg,92,51.1089344318,4.97728209928
2440,Geel,Zandstraat,84,51.1507502627,5.02606927283
2440,Geel,Larum,19,51.1665152761,4.9471387325
2440,Geel,Koning-Albertstraat,1,51.1495039016,4.98225168941
2440,Geel,Rijn,153,51.1635301062,5.01707564205
2440,Geel,Gooreind,86,51.1896522181,4.96604687129
2440,Geel,Kollegestraat,92,51.1613333606,4.99496949486
2440,Geel,Berthoutsdreef,6,51.1096417072,4.97839185374
2440,Geel,Frankrijklaan,1,51.1925146517,5.03666416636
2440,Geel,Tessenderloseweg,4A,51.1412767047,5.01072771712
2440,Geel,Larumsebrugweg,51,51.1702605785,4.94077632141
2440,Geel,Asterstraat,36,51.1567760229,4.98396186691
2440,Geel,Winkelomseheide,99,51.131381174,5.0101788573
2440,Geel,Eindhoutseweg,982,51.1033922059,4.99274924861
2440,Geel,Dr.-Van de Perrestraat,3,51.1691785559,4.98842417649
2440,Geel,Kollegestraat,28,51.1608776809,4.99205655257
2440,Geel,Nieuwstraat,85,51.163186516,4.9948166791
2440,Geel,Korte Elzenstraat,5,51.186002208,4.98489872005
2440,Geel,Goorakker,19,51.097990597,4.93975937563
2440,Geel,Eindhoutseweg,46,51.1066333166,4.97915932357
2440,Geel,Pas,6,51.1602767473,4.99015326382
2440,Geel,Oosterloseweg,4,51.1228851593,4.97872481312
2440,Geel,Reebokstraat,2,51.2050046954,4.98260031816
2440,Geel,Retieseweg,77,51.1825004821,5.01818129347
2440,Geel,Stokt,32,51.1439838743,4.97547785691
2440,Geel,Retieseweg,100,51.192172518,5.02509764731
2440,Geel,Waterstraat,29,51.156124589,4.98856420635
2440,Geel,Bel,171,51.1627426699,5.06888283587
2440,Geel,Lieventier,3,51.1903109568,5.02173792323
2440,Geel,Engelandlaan,6,51.1908121786,5.03804205269
2440,Geel,Breerijt,33,51.0966175145,4.94111176377
2440,Geel,Laar,39,51.1600083284,5.0026051715
2440,Geel,Reiten,38,51.1769874943,4.94306139095
2440,Geel,Dr.-Van de Perrestraat,383,51.1870927588,4.98396296156
2440,Geel,Oosterloseweg,28,51.1206232594,4.97915716794
2440,Geel,Markt,16,51.1624061949,4.99061837662
2440,Geel,St.-Kristoffelstraat,45,51.1393822813,4.94984885689
2440,Geel,Turnhoutseweg,43,51.2073741434,4.97862541821
2440,Geel,Brandemolenstraat,21,51.1295823891,4.97760105897
2440,Geel,Antwerpseweg,8,51.1520832545,4.97411563964
2440,Geel,Groenenheuvel,36,51.1652675184,5.00747950637
2440,Geel,Heistraat,142,51.1808725722,4.99517319395
2440,Geel,Eindhoutseweg,11,51.1080045866,4.97627500611
2440,Geel,Kameinestraat,18,51.1608063497,4.9883808345
2440,Geel,Vidse,3,51.1666041548,4.97766740965
2440,Geel,Veltjensstraat,17,51.1671167433,5.06780042003
2440,Geel,Tongerlosebinnenweg,9,51.0998724243,4.94640261467
2440,Geel,Holven,176,51.1788616552,4.98151671407
2440,Geel,Kleinhoefstraat,9,51.1625670817,4.96481832216
2440,Geel,Oostereinde,13,51.1954691311,5.02363221353
2440,Geel,Stationsstraat,70,51.16582788,4.9890701898
2440,Geel,Rauwelkoven,117,51.1733976808,4.95159250928
2440,Geel,Pas,283,51.1547306453,4.9795769478
2440,Geel,Poiel,36,51.1574369366,4.97431292114
2440,Geel,Violetstraat,30,51.1625723971,4.9800259082
2440,Geel,Herentalsedijk,180,51.183287205,4.91132431494
2440,Geel,Larumseweg,94,51.1643089936,4.95786666897
2440,Geel,Olenseweg,108,51.1656413573,4.93270160272
2440,Geel,Steenovens,15,51.1463468522,4.9430898631
2440,Geel,Fehrenbachstraat,22,51.1569125866,4.99115320273
2440,Geel,Dul,6,51.1680342537,5.00755514994
2440,Geel,Turnhoutseweg,8,51.2041092598,4.98029213112
2440,Geel,Winkelomseheide,122,51.129833921,5.01160918354
2440,Geel,Zavelstraat,4,51.1636633822,5.05323342951
2440,Geel,Buitenblokken,10,51.1774240203,5.01621776603
2440,Geel,Antwerpseweg,78,51.146132153,4.95825176418
2440,Geel,Elsum,107,51.1643098648,4.97903535399
2440,Geel,Gansakker,54,51.1651216141,4.99966493267
2440,Geel,Katersberg,6,51.1795584682,4.98653354387
2440,Geel,Nieuwstraat,14,51.1628952408,4.99149495254
2440,Geel,Leschot,24,51.1663120243,5.01151858287
2440,Geel,Dahliastraat,18,51.1588907262,4.9813076368
2440,Geel,St.-Dimpnaplein,6,51.1627144236,5.00058133215
2440,Geel,Hemelrijk,20,51.1748182719,4.99035322878
2440,Geel,Berthoutsdreef,23,51.1082652338,4.97977567644
2440,Geel,Heistraat,53,51.1773279259,4.99552540518
2440,Geel,Laarsveld,5,51.162705452,5.00632489885
2440,Geel,Keulsekar,48,51.1656783766,5.02652473649
2440,Geel,Groenstraat,54,51.1699194757,4.97505811784
2440,Geel,Nederlandlaan,14,51.19412475,5.03133392733
2440,Geel,Wolkenstraat,9,51.2018243719,4.96367585321
2440,Geel,Molseweg,58,51.1645396395,5.02668938355
2440,Geel,Retieseweg,59,51.180737738,5.01692737932
2440,Geel,Katersberg,137,51.1798942551,5.0052630023
2440,Geel,Brunosdijk,52,51.1914223265,4.97118606463
2440,Geel,Pastorijstraat,35,51.1646250495,5.05810697108
2440,Geel,Galven,15,51.1702336917,5.00620263926
2440,Geel,Gemeenteheide,28,51.1329657072,5.00768900509
2440,Geel,Steenovens,33,51.1443541606,4.94475415103
2440,Geel,Dr.-Van de Perrestraat,179,51.1760920817,4.98677718537
2440,Geel,Aardseweg,126,51.2109291567,4.99825932629
2440,Geel,Boerenkrijgstraat,15,51.1627111918,4.98561900846
2440,Geel,Nieuwstraat,32,51.1632183664,4.99204437777
2440,Geel,Rundsvoort,2,51.1983405686,4.96343293732
2440,Geel,Fehrenbachstraat,47,51.1566846016,4.99234929228
2440,Geel,Oude-Brugweg,10,51.1891142633,4.90185503156
2440,Geel,Molseweg,76,51.1648796564,5.02848212181
2440,Geel,Van Hoornestraat,19,51.1106447553,4.97536959605
2440,Geel,Dr.-Van de Perrestraat,129,51.1744003231,4.98713097961
2440,Geel,Zammelseweg,153,51.1004038633,4.95372349232
2440,Geel,Maal,20,51.1498031769,4.97714438718
2440,Geel,Nederlandlaan,32,51.1929823218,5.03479043771
2440,Geel,Lijsterstraat,23,51.1728725941,4.98437745439
2440,Geel,Laar,141A,51.1590793873,5.01445885214
2440,Geel,Velveken,46,51.1585795638,4.94075926079
2440,Geel,Pand,15,51.1832454077,5.0170662253
2440,Geel,Schuttershof,23,51.1592826779,4.9952481568
2440,Geel,Fabriekstraat,37,51.1680722523,4.99233859311
2440,Geel,Stelensehulst,19,51.1217784794,4.97537174914
2440,Geel,Buitensteinde,46,51.1740435114,4.93440334063
2440,Geel,Kapucienenberg,16,51.1616558234,5.06816860251
2440,Geel,Kwakkelberg,77,51.1677129017,4.98118090504
2440,Geel,Herentalsedijk,162,51.1832449579,4.9146760958
2440,Geel,Keulsekar,64,51.1654122021,5.02816926365
2440,Geel,Kemeldijk,42,51.1272073874,5.0052538456
2440,Geel,Elsum,89,51.164475275,4.98010875284
2440,Geel,Stationsstraat,52,51.165156936,4.98926070338
2440,Geel,Fehrenbachstraat,45,51.1566342201,4.99201742474
2440,Geel,Poiel,104,51.1469911508,4.93771878696
2440,Geel,Gasthuisstraat,16,51.1604386422,4.99817105452
2440,Geel,Eendenstraat,71,51.1726559251,4.97294356905
2440,Geel,Zandstraat,66,51.1518079684,5.01999822038
2440,Geel,Sluisstraat,2,51.2022577999,4.98489948901
2440,Geel,Larumseweg,130,51.1646130532,4.94926175031
2440,Geel,Beekhoek,30,51.2055992728,4.98864429372
2440,Geel,Duivenstraat,112,51.1728301768,4.9683532714
2440,Geel,Diestseweg,42,51.1594939917,4.99292834992
2440,Geel,Poiel,18,51.1579235903,4.97677745691
2440,Geel,Pallo,26,51.1643794222,4.99259615644
2440,Geel,Velodroomwijk,10,51.1736454096,4.98855833115
2440,Geel,Heidebloemstraat,31,51.1660860711,4.99051576022
2440,Geel,Meidoornstraat,7,51.1649032093,4.97978425485
2440,Geel,Bel,64,51.1636304682,5.05086147168
2440,Geel,Larumseweg,92A,51.1641961315,4.95845267993
2440,Geel,Eksterstraat,64,51.1744382442,4.97169401137
2440,Geel,Bel,207,51.1628506798,5.07385464746
2440,Geel,Larumsebrugweg,3,51.1678717449,4.94328380956
2440,Geel,Eikevelden,86,51.156922866,5.00073143994
2440,Geel,Holven,105,51.1743440359,4.98353934353
2440,Geel,Grotesteenweg,138,51.0985635662,4.9449630806
2440,Geel,Fabriekstraat,19,51.167775756,4.99141072388
2440,Geel,Veldstraat,34,51.15812579,4.9854780242
2440,Geel,Belgiëlaan,2,51.1938642094,5.02848513493
2440,Geel,Dr.-Van de Perrestraat,212,51.1775813568,4.98579775341
2440,Geel,Winkelomseheide,229,51.1205040271,5.01782137577
2440,Geel,Kleinekievit,2,51.2152883689,5.00579586865
2440,Geel,Gemeenteheide,4,51.1352930482,5.00750741556
2440,Geel,Gooreind,15,51.1742693096,4.97613438134
2440,Geel,Lebonstraat,100,51.1631512809,4.9867023247
2440,Geel,Gerststraat,24,51.1676042392,5.00176593523
2440,Geel,Ossemeer,66,51.1876386912,4.97874250103
2440,Geel,Langstraat,1,51.1829538097,4.93457698056
2440,Geel,Mosselgoren,24,51.1908355045,4.93164771326
2440,Geel,Waaiburg,100,51.1581084733,4.98148805142
2440,Geel,Kalvariebergstraat,40,51.1049880929,4.97051902725
2440,Geel,Kievermondeveld,2,51.1648775008,5.01192770961
2440,Geel,Rauwelkoven,92,51.171352706,4.95852275153
2440,Geel,Patronaatstraat,32,51.1624419345,4.98754867497
2440,Geel,Pas,165,51.1574213627,4.98675948599
2440,Geel,Mezenstraat,5,51.1755150605,4.97433581881
2440,Geel,Doornboomstraat,39,51.1360043706,4.96544012129
2440,Geel,Broekstraat,21,51.2117263293,4.99634155123
2440,Geel,Gerststraat,77,51.1702004061,5.00424146392
2440,Geel,Nelis,4,51.2161270515,4.99643948643
2440,Geel,Zwanenstraat,1,51.171102422,4.97367239225
2440,Geel,Van Parwijsstraat,6,51.1116877983,4.97586739455
2440,Geel,Borgeleien,99,51.1927978034,4.91766719287
2440,Geel,Ganzenstraat,52,51.1774650437,4.96301476255
2440,Geel,Rijn,82,51.1634110355,5.00704821072
2440,Geel,Wielewaalstraat,25,51.1727802606,4.97058312923
2440,Geel,Velleke,20,51.1662944573,4.98171728595
2440,Geel,St.-Corneliusstraat,23,51.1650307023,4.94367712875
2440,Geel,Dr.-Van de Perrestraat,247,51.1787614627,4.98592563533
2440,Geel,Kortestraat,3,51.1636364412,4.99448904536
2440,Geel,Antwerpseweg,167,51.1408723232,4.94292529969
2440,Geel,Rijn,48,51.1631646519,5.0040004829
2440,Geel,Leliestraat,21,51.1665284104,4.97492109371
2440,Geel,Eendenstraat,53,51.1722923437,4.97381709268
2440,Geel,Dr.-Van de Perrestraat,230,51.1791003097,4.98527842691
2440,Geel,Herdersstraat,7,51.096411491,4.94578963564
2440,Geel,Mosselgoren,77,51.1921743307,4.92196303691
2440,Geel,Larumsebrugweg,197,51.1836944615,4.93574288391
2440,Geel,Manheuvels,19A,51.1644651447,5.07213086498
2440,Geel,Elsum,2,51.1636162111,4.98398062571
2440,Geel,St.-Corneliusstraat,58,51.1626216444,4.94515978366
2440,Geel,Eksterstraat,48,51.1748979602,4.97130171179
2440,Geel,Herentalseweg,44,51.1450581148,4.9317020796
2440,Geel,Larumseweg,23,51.1649925393,4.97013306543
2440,Geel,Ossemeer,54,51.1865634446,4.97869138352
2440,Geel,Eindekens,84,51.1861955278,4.95196752623
2440,Geel,Antwerpseweg,149,51.1416322425,4.9438667512
2440,Geel,Rijn,64,51.163275185,5.00519014053
2440,Geel,Aardseweg,3,51.2040270151,4.98249156959
2440,Geel,Borgeleien,36,51.1907145511,4.90980884558
2440,Geel,Velveken,20B,51.1620534133,4.94575732364
2440,Geel,Lebonstraat,77,51.1637483983,4.98452219604
2440,Geel,Veldstraat,16,51.1579445318,4.98629341425
2440,Geel,Smallerijt,31,51.0937559058,4.94366399632
2440,Geel,Heistraat,71,51.1784615033,4.99534057792
