PKANCODE,COMMUNE_NL,STREET_NL,HUISNR,LAT,LON
2520,Ranst,Oude Vaartstraat,9,51.202964532,4.57523662198
2520,Ranst,Lievevrouwestraat,43,51.189051148,4.56231565655
2520,Ranst,Broechemsesteenweg,126,51.1676986484,4.59304747029
2520,Ranst,Knodbaan,65,51.2176137954,4.59819600079
2520,Ranst,Massenhovensesteenweg,34,51.1840158586,4.61584135326
2520,Ranst,Oostmalsesteenweg,5,51.1620426392,4.59600535899
2520,Ranst,Schelkenshof,20,51.1802313367,4.59965869029
2520,Ranst,Zwaluwenlaan,3A,51.1858243224,4.55412616085
2520,Ranst,Doggenhoutstraat,16,51.1886144025,4.56060901316
2520,Ranst,de Fraulalaan,19,51.216179862,4.58944449832
2520,Ranst,Broddestraat,46,51.177901011,4.59866713642
2520,Ranst,Schawijkstraat,85,51.1992680147,4.54766222804
2520,Ranst,Rembrandtlaan,19,51.1836388001,4.59475230871
2520,Ranst,Wilgenlaan,5,51.1923323986,4.55761696566
2520,Ranst,Molenstraat,72,51.1919018243,4.56510458788
2520,Ranst,Broechemsesteenweg,108,51.1694701454,4.59303584889
2520,Ranst,Profeetstraat,82,51.1870567536,4.5473150083
2520,Ranst,Notelaarweg,19,51.156432231,4.583394902
2520,Ranst,Herentalsebaan,48,51.1848540289,4.54665865426
2520,Ranst,Doggenhoutstraat,34,51.1882900857,4.5618799556
2520,Ranst,Broechemlei,101,51.1861751658,4.57813403463
2520,Ranst,Schildesteenweg,8,51.2116092118,4.5968678361
2520,Ranst,Ranstsesteenweg,2,51.1525620982,4.58060547502
2520,Ranst,Berkenlaan,23,51.1909453456,4.5573584334
2520,Ranst,Veldstraat,39,51.1858547842,4.56623741921
2520,Ranst,Massenhovensesteenweg,16,51.1816787725,4.61045364742
2520,Ranst,Liersesteenweg,160,51.1507594937,4.5784580682
2520,Ranst,Abelebaan,55,51.1813051241,4.58827668721
2520,Ranst,Fruithoflaan,4,51.156559457,4.58519090998
2520,Ranst,Gasthuisstraat,11,51.1892154889,4.55848683574
2520,Ranst,Oudstrijdersstraat,20,51.2114672826,4.59472228925
2520,Ranst,Kievitlaan,73,51.1856409678,4.55593641354
2520,Ranst,Wilgenlaan,29,51.1933726643,4.55698390968
2520,Ranst,Profeetstraat,64,51.1876265274,4.54914828194
2520,Ranst,Bistweg,19,51.1890983848,4.59553148829
2520,Ranst,Merellaan,42,51.1859529895,4.55591778918
2520,Ranst,Broechemsesteenweg,93A,51.1702557719,4.59193598689
2520,Ranst,Mollentstraat,58,51.1798752283,4.63051313684
2520,Ranst,Vaartstraat,138,51.2063846401,4.59780662604
2520,Ranst,Heidestraat,24B,51.1671863294,4.58244801596
2520,Ranst,Korenveld,25,51.1845317557,4.5640311249
2520,Ranst,Schranshoeveweg,9,51.1546483896,4.5752309303
2520,Ranst,Heidestraat,3,51.1714585091,4.59209260124
2520,Ranst,Schawijkstraat,49,51.1963864992,4.54466994923
2520,Ranst,Lievevrouwestraat,61,51.1883722998,4.56304602018
2520,Ranst,Molenstraat,54,51.1918702499,4.56387584756
2520,Ranst,Broechemlei,83,51.1870963478,4.57304718394
2520,Ranst,Venusstraat,57,51.2160963186,4.60709879998
2520,Ranst,Kromstraat,25,51.1902729478,4.55592946053
2520,Ranst,Gustaaf Peetersstraat,24,51.1804984115,4.60373679011
2520,Ranst,Broechemsesteenweg,20,51.1806843649,4.59380553165
2520,Ranst,Liersesteenweg,78,51.1549804303,4.58494144184
2520,Ranst,Grensweg,1,51.1510982027,4.57318786888
2520,Ranst,Stenenkruisstraat,14,51.1923431545,4.53556524212
2520,Ranst,Antwerpsesteenweg,16,51.1825226042,4.59234879856
2520,Ranst,Vaartstraat,155B,51.2075558896,4.59173454095
2520,Ranst,Vaartstraat,60,51.1954866306,4.56309520953
2520,Ranst,Van den Nestlaan,109,51.1754536528,4.57536260084
2520,Ranst,Europalaan,30,51.2090281438,4.61067634861
2520,Ranst,Visvijverstraat,3,51.1663472469,4.61631300511
2520,Ranst,Kardinaal Cardijnlaan,20,51.2161045674,4.60175907979
2520,Ranst,Jozef Simonslaan,8,51.216304969,4.58415568871
2520,Ranst,Kievitlaan,3,51.1880144026,4.55756080548
2520,Ranst,Kasteeldreef,14,51.1939666005,4.5584553017
2520,Ranst,Muizenheuvelstraat,61,51.216698311,4.59363137506
2520,Ranst,Hooiveld,7,51.1836504802,4.56302214319
2520,Ranst,Schransken,16,51.2126448602,4.59816546997
2520,Ranst,Eksterlaan,1,51.1876073867,4.55457652436
2520,Ranst,van Edinghenlaan,14,51.2189918905,4.58508344135
2520,Ranst,Emblemseweg,43,51.1763067071,4.60363197096
2520,Ranst,Liersesteenweg,25,51.1573147702,4.59093311746
2520,Ranst,Kromstraat,78,51.1935040752,4.54663769409
2520,Ranst,Valkenlaan,1B,51.1877518804,4.55703524253
2520,Ranst,Vaartstraat,14,51.1932086883,4.5644425006
2520,Ranst,De Voortstraat,5B,51.1621805677,4.60813978123
2520,Ranst,Antwerpsesteenweg,34,51.18470856,4.58798253283
2520,Ranst,Spruytershofstraat,2B,51.1942557456,4.54654415452
2520,Ranst,Ranstsesteenweg,54,51.1565416094,4.57669356179
2520,Ranst,Moorstraat,13,51.1918665729,4.58885551377
2520,Ranst,Ranstsesteenweg,196,51.1864111103,4.56330685987
2520,Ranst,Sint Antoniusstraat,4,51.1869263762,4.54946380434
2520,Ranst,Eksterlaan,25,51.1864421309,4.55496361917
2520,Ranst,Haegenbroekseweg,4,51.1542051464,4.57172520459
2520,Ranst,Kromstraat,1,51.1895360223,4.55759072943
2520,Ranst,Herentalsebaan,89,51.1865713101,4.54406855544
2520,Ranst,Europalaan,12,51.2103152691,4.61130038235
2520,Ranst,Valkenlaan,1D,51.1878208952,4.55665219684
2520,Ranst,Vaartstraat,32,51.1942054596,4.56382542403
2520,Ranst,Hallebaan,20,51.2252822909,4.63361021214
2520,Ranst,Kerkstraat,13F,51.2110090417,4.59895348174
2520,Ranst,Sint Antoniusstraat,28,51.1837600198,4.54678676012
2520,Ranst,Muizenheuvelstraat,43,51.2152243578,4.59453932934
2520,Ranst,Vaartstraat,155D,51.2075761626,4.59260950608
2520,Ranst,Vorstjensweg,11,51.1798158295,4.60214939199
2520,Ranst,Kruizemuntlaan,8,51.1804177366,4.59560015275
2520,Ranst,Processieweg,11,51.1907291049,4.5664934244
2520,Ranst,van Colenlaan,16,51.2169186328,4.58726798344
2520,Ranst,Driepikkelhoeveweg,2,51.1981869308,4.56311050454
2520,Ranst,van Vrieselelaan,15,51.2177606278,4.58563617993
2520,Ranst,Mollentstraat,23,51.1796279109,4.61068653655
2520,Ranst,Kapelstraat,13,51.1826471123,4.59572357654
2520,Ranst,Profeetstraat,36,51.1877750003,4.55206856257
2520,Ranst,Oelegemsesteenweg,8A,51.1864052779,4.60358483518
2520,Ranst,Dullaard,26,51.1905357514,4.57084088024
2520,Ranst,Lievevrouwestraat,8,51.1902914277,4.56141266315
2520,Ranst,Liersesteenweg,1,51.1587363393,4.59201769239
2520,Ranst,Laarstraat,15,51.1926154028,4.56932962013
2520,Ranst,John Kennedylaan,1,51.2144849174,4.60627321707
2520,Ranst,Berkenlaan,58,51.191811174,4.55557675687
2520,Ranst,Schawijkstraat,39,51.1955300286,4.54319123401
2520,Ranst,Kievitlaan,27,51.1872566185,4.5586541965
2520,Ranst,Molenstraat,2,51.190775555,4.56129937843
2520,Ranst,Herbsteinlaan,18,51.2150271932,4.58434068355
2520,Ranst,Rundvoortstraat,11,51.2108584209,4.59178815888
2520,Ranst,Bieslooklaan,29,51.1789997294,4.59702686411
2520,Ranst,Antwerpsesteenweg,87,51.1859764943,4.58205449108
2520,Ranst,Konijnenbos,20,51.2153393831,4.59224258373
2520,Ranst,Schawijkstraat,14,51.1948628873,4.54063522815
2520,Ranst,Zavelstraat,13,51.2163273224,4.56324262634
2520,Ranst,Pertendonckstraat,22,51.1819361514,4.59811859546
2520,Ranst,Emblemseweg,8,51.1792057373,4.60576923688
2520,Ranst,Zandhovensteenweg,6,51.2103491183,4.60137477682
2520,Ranst,Muizenheuvelstraat,8,51.2129687321,4.59499433855
2520,Ranst,Oostmalsesteenweg,40,51.1642593961,4.60608355761
2520,Ranst,Van den Nestlaan,21,51.1807848118,4.59132249866
2520,Ranst,Profeetstraat,18,51.1884244054,4.5539736137
2520,Ranst,Oude Vaartstraat,23A,51.2029775261,4.57745210507
2520,Ranst,Kloosterstraat,30,51.1628942746,4.60636007897
2520,Ranst,Sparrenweg,16,51.157553533,4.57792078504
2520,Ranst,Broechemlei,37,51.1874740532,4.56736909042
2520,Ranst,Vaartstraat,83N,51.2042265121,4.57748232201
2520,Ranst,Louis Ecranlaan,7,51.2145310203,4.58591306418
2520,Ranst,Kastanjelaan,24,51.1936809321,4.55525697393
2520,Ranst,Rubenslaan,4,51.183975702,4.59675222373
2520,Ranst,Broechemsesteenweg,55,51.1788340217,4.5930286477
2520,Ranst,Ter Stratenweg,5,51.2086719653,4.58592333116
2520,Ranst,Massenhovensesteenweg,13A,51.1810064703,4.6080994805
2520,Ranst,Binnenweg,12,51.2113222095,4.59931637001
2520,Ranst,Schildesteenweg,78,51.2170552736,4.59901547845
2520,Ranst,Rubenslaan,28,51.1853133397,4.59274365789
2520,Ranst,Streep,39,51.1819370121,4.60594418289
2520,Ranst,Kardinaal Cardijnlaan,55,51.2169759478,4.60205670266
2520,Ranst,Hazenstraat,30,51.2154415369,4.60556910318
2520,Ranst,Oudstrijdersstraat,75A,51.2130389235,4.59155447501
2520,Ranst,Oostmalsesteenweg,29,51.1646723618,4.60495198131
2520,Ranst,Broddestraat,36,51.1790160848,4.59869223789
2520,Ranst,Salielaan,6,51.1793283679,4.59445336791
2520,Ranst,Lostraat,34,51.1833987186,4.60217136923
2520,Ranst,Massenhovensesteenweg,44,51.1874780403,4.62245432949
2520,Ranst,Spruytershofstraat,59,51.1957206527,4.54555551998
2520,Ranst,Molenstraat,15A,51.1906727264,4.56266856589
2520,Ranst,Vaartstraat,42,51.1945856159,4.56369741357
2520,Ranst,Hofstraat,14,51.1866452032,4.5680706794
2520,Ranst,Broechemlei,19,51.1875026145,4.56609938441
2520,Ranst,Dorpstraat,82,51.1620531065,4.60209621181
2520,Ranst,van Halmalelaan,22,51.2183809835,4.58215453699
2520,Ranst,Vlotstraat,21,51.2091135197,4.59777141535
2520,Ranst,Kanaalstraat,11,51.1560507711,4.58993912002
2520,Ranst,Dennenlaan,17,51.1917103199,4.55732634829
2520,Ranst,Schildesteenweg,25,51.2133322106,4.59797909724
2520,Ranst,Dorpstraat,48,51.1622141551,4.60427706142
2520,Ranst,Torekenshoefstraat,23,51.1710895036,4.59455567478
2520,Ranst,Sint Antoniusstraat,17A,51.1854885157,4.54743913644
2520,Ranst,Roggelaan,8,51.1839774547,4.56520613815
2520,Ranst,Knodbaan,37,51.2172479446,4.59588649182
2520,Ranst,Emblemseweg,48D,51.1755021259,4.60214634625
2520,Ranst,Beemdenstraat,1,51.1870078828,4.62088916716
2520,Ranst,Zandhovensteenweg,41,51.2106647068,4.60588364254
2520,Ranst,Broddestraat,18,51.1801292685,4.5981191269
2520,Ranst,Achterlo,10,51.1833349479,4.57985505805
2520,Ranst,Hofstraat,32,51.1856331689,4.567334625
2520,Ranst,Wijnegembaan,22,51.2047362067,4.55195461546
2520,Ranst,Hazenstraat,12,51.2164731163,4.60499915823
2520,Ranst,Juul Persijnstraat,2,51.1806118503,4.60174437637
2520,Ranst,Tarwelaan,3,51.1835880401,4.56457721231
2520,Ranst,Liersesteenweg,142,51.1513074564,4.57905465572
2520,Ranst,Tarwelaan,27,51.1827172373,4.56239898429
2520,Ranst,Heiken,17,51.1536518376,4.5769034742
2520,Ranst,Merellaan,7,51.1874615831,4.55594417303
2520,Ranst,Nieuwelaan,38,51.2138638839,4.5934482206
2520,Ranst,Lostraat,16,51.1825999145,4.60216664683
2520,Ranst,Abelebaan,27,51.1814621908,4.59127454081
2520,Ranst,Boomgaardweg,18,51.1784604016,4.59258510956
2520,Ranst,Herentalsebaan,171,51.191445156,4.53786486436
2520,Ranst,Veldstraat,50,51.1857169108,4.5668730106
2520,Ranst,Vaartstraat,113,51.205648397,4.5860348386
2520,Ranst,Handboogweg,10,51.1584033848,4.57239961963
2520,Ranst,Van den Nestlaan,56,51.1781905391,4.58411549272
2520,Ranst,Vorstjensweg,25A,51.1786097385,4.60269505123
2520,Ranst,Heiken,35,51.1523290299,4.57722914007
2520,Ranst,Jozef Simonslaan,33,51.2160364324,4.5866286766
2520,Ranst,Hallebaan,3,51.2148586632,4.61742893871
2520,Ranst,Boekweitlaan,3,51.1807802811,4.5637137631
2520,Ranst,Marreweg,60,51.1801469183,4.56887342205
2520,Ranst,Kreupelstraat,7,51.1671668829,4.60815727567
2520,Ranst,Schranshoeveweg,16,51.1547923135,4.57445216768
2520,Ranst,Oostmalsesteenweg,118,51.1730758267,4.62485994792
2520,Ranst,Juul Persijnstraat,36,51.1791224833,4.6010417698
2520,Ranst,Hallebaan,19,51.2183402355,4.62178727351
2520,Ranst,Liersesteenweg,195,51.1497157548,4.57824228013
2520,Ranst,Schildesteenweg,1,51.2114892844,4.59715732073
2520,Ranst,Processieweg,46,51.1895395086,4.56759347002
2520,Ranst,Profeetstraat,48,51.1877143136,4.55109385008
2520,Ranst,Liersesteenweg,53,51.1559190701,4.58793026816
2520,Ranst,Venusstraat,50,51.2151295541,4.60619149919
2520,Ranst,Schoolstraat,9,51.1909241134,4.56098272804
2520,Ranst,Korenveld,8,51.1855082655,4.56419684383
2520,Ranst,Sint Antoniusstraat,11,51.1858541224,4.54776578235
2520,Ranst,Boekweitlaan,19,51.1808513351,4.56541631457
2520,Ranst,Herentalsebaan,82,51.1862386468,4.54358372679
2520,Ranst,Vaartstraat,131,51.2069097689,4.58998559517
2520,Ranst,Zwaluwenlaan,23,51.1870262114,4.55296054432
2520,Ranst,Vaartstraat,85,51.2045006248,4.58152207186
2520,Ranst,Kromstraat,53,51.1926504894,4.55314562037
2520,Ranst,Heggestraat,3,51.2104757373,4.60843246225
2520,Ranst,Bosstraat,2A,51.1609072098,4.60346564286
2520,Ranst,Peeters-Reypensplein,3,51.1889779878,4.56620920392
2520,Ranst,Veldstraat,22,51.1866943652,4.5657237943
2520,Ranst,Antwerpsesteenweg,44,51.1851286623,4.58561575429
2520,Ranst,Dennenlaan,35,51.192383537,4.5563277588
2520,Ranst,Oudstrijdersstraat,144,51.2131603638,4.58557564868
2520,Ranst,Kromstraat,71C,51.1942388819,4.54741169685
2520,Ranst,Oeverweg,10,51.1528967785,4.57491915803
2520,Ranst,Voetweg,11,51.1826949727,4.60349889176
2520,Ranst,Oelegemsesteenweg,3,51.1844695856,4.60191415366
2520,Ranst,Pertendonckstraat,75,51.1815671857,4.59541798131
2520,Ranst,Emblemseweg,33,51.1771724435,4.60428412798
2520,Ranst,Heidestraat,15B,51.165900051,4.58432581269
2520,Ranst,Kardinaal Cardijnlaan,19,51.2153471049,4.60153459826
2520,Ranst,Knodbaan,18G,51.2179659345,4.59917799825
2520,Ranst,Vlotstraat,38,51.2086350973,4.5979389138
2520,Ranst,Jozef De Voghtstraat,11,51.1793634049,4.60379155009
2520,Ranst,Creyboschlaan,6,51.2152318796,4.578199524
2520,Ranst,Schawijkstraat,60,51.1971092766,4.54478184038
2520,Ranst,Oelegemsesteenweg,37,51.1931980425,4.60316079828
2520,Ranst,Broechemsesteenweg,19,51.1805634622,4.59319658338
2520,Ranst,Vaartstraat,49,51.1945287627,4.56421302208
2520,Ranst,Rundvoortstraat,46,51.2149335508,4.59053169501
2520,Ranst,Juul Persijnstraat,18,51.179891019,4.60139969358
2520,Ranst,Liersesteenweg,177,51.1505512198,4.57906610239
2520,Ranst,Alliers,16,51.1529101496,4.57183046633
2520,Ranst,Kapelstraat,41,51.1853425888,4.59920163658
2520,Ranst,Hutveld,4,51.1574953146,4.58831848019
2520,Ranst,Kamillelaan,6,51.1783650285,4.59773047126
2520,Ranst,Hogenaardseweg,22,51.209912591,4.55303682403
2520,Ranst,Oudstrijdersstraat,3,51.2111676433,4.59610564649
2520,Ranst,Oudstrijdersstraat,37,51.2122012666,4.59393104159
2520,Ranst,Broechemsesteenweg,37,51.1797845356,4.59313748196
2520,Ranst,Dennenlaan,47,51.1929844836,4.55594838966
2520,Ranst,Ranstsebinnenweg,2,51.1511986942,4.57560608302
2520,Ranst,Bistweg,20,51.1887625877,4.59213692103
2520,Ranst,Moorstraat,19A,51.1912621037,4.58433050787
2520,Ranst,Venusstraat,39,51.2149475402,4.60668073953
2520,Ranst,Kardinaal Cardijnlaan,3,51.2153806155,4.59962344443
2520,Ranst,Pertendonckstraat,57,51.1813234287,4.59671534352
2520,Ranst,Emblemseweg,15,51.1783241365,4.6060822132
2520,Ranst,Bremstraat,4,51.1716174362,4.59467948549
2520,Ranst,Achterstraat,88,51.2107990388,4.59300295691
2520,Ranst,Kardinaal Cardijnlaan,37,51.2158854505,4.60233861189
2520,Ranst,Ranstsebinnenweg,18,51.152985376,4.573959665
2520,Ranst,Gustaaf Peetersstraat,7,51.1815799575,4.60371608064
2520,Ranst,Kromstraat,8,51.1895598147,4.55665278864
2520,Ranst,Gasthuisstraat,28,51.189967655,4.5592621697
2520,Ranst,Broechemsesteenweg,83,51.1749698193,4.59237327644
2520,Ranst,Bolkerhoeveweg,4,51.2087085727,4.60240473223
2520,Ranst,Fazantenstraat,41,51.2144965682,4.60535162323
2520,Ranst,Oudstrijdersstraat,162,51.2130380491,4.58443921986
2520,Ranst,Gustaaf Peetersstraat,22A,51.1804786835,4.6036231409
2520,Ranst,Boekweitlaan,37,51.1815371525,4.5661737492
2520,Ranst,Ranstsebinnenweg,36,51.1546066982,4.57290355681
2520,Ranst,Oelegemsesteenweg,19,51.1853920323,4.60230179631
2520,Ranst,Jozef Simonslaan,4A,51.2147623961,4.58809005913
2520,Ranst,Kloosterstraat,12,51.1628841865,4.60435750461
2520,Ranst,Rembrandtlaan,20,51.1837569606,4.59528734672
2520,Ranst,Jozef Simonslaan,1,51.2139155266,4.59038429898
2520,Ranst,Oudstrijdersstraat,19,51.2115773388,4.59531141439
2520,Ranst,Molenstraat,26,51.1913666875,4.5622573518
2520,Ranst,Antwerpsesteenweg,89A,51.1864709655,4.58075391867
2520,Ranst,Zandhovensteenweg,84,51.2114929442,4.60941181855
2520,Ranst,Bredabaan,21,51.2185604212,4.58129316858
2520,Ranst,Liersesteenweg,71,51.155246546,4.58792667267
2520,Ranst,Venweg,12,51.1701350428,4.61399660424
2520,Ranst,Venusstraat,5,51.2127162234,4.59913581059
2520,Ranst,Vaartstraat,128F,51.2058714271,4.58450441761
2520,Ranst,Knodbaan,40,51.2174451954,4.60234873811
2520,Ranst,de Fraulalaan,20,51.2162269038,4.59009834653
2520,Ranst,Keerbaan,60,51.216400897,4.55217321707
2520,Ranst,Emblemseweg,1,51.1785098846,4.60766106147
2520,Ranst,Jozef Simonslaan,15,51.2168520117,4.58434886089
2520,Ranst,Dorpstraat,100,51.1616080878,4.59898721126
2520,Ranst,Ter Stratenweg,50,51.2102220746,4.57946099302
2520,Ranst,Kromstraat,71,51.1943612671,4.54779182679
2520,Ranst,Kapelstraat,41A,51.1848481473,4.59928385704
2520,Ranst,Klaverstraat,5,51.173952928,4.58696610445
2520,Ranst,Nieuwelaan,41,51.2141895903,4.59468900904
2520,Ranst,Schaepsvonderlaan,2,51.182307712,4.56441450438
2520,Ranst,Haegenbroekseweg,11,51.1534924441,4.57057110735
2520,Ranst,Berkenlaan,51,51.1913416339,4.55556414161
2520,Ranst,Sintelweg,9,51.182552932,4.59119037309
2520,Ranst,Eksterlaan,8,51.1870247901,4.55426625347
2520,Ranst,Notelaarweg,20,51.1560922154,4.58308530962
2520,Ranst,Van den Nestlaan,93B,51.1768434431,4.57983489525
2520,Ranst,Processieweg,28,51.1903038953,4.56753880788
2520,Ranst,Veldstraat,93,51.182052129,4.56701628658
2520,Ranst,Ranstsebinnenweg,16A,51.152835571,4.57409363956
2520,Ranst,Ter Stratenweg,30,51.2082409944,4.58261654934
2520,Ranst,Herentalsebaan,36,51.1838694647,4.54793548392
2520,Ranst,Gemeenteplein,13,51.1814005409,4.6008623641
2520,Ranst,Schawijkplasweg,14,51.2013985881,4.5499329936
2520,Ranst,Spoorweglei,29B,51.1575202957,4.58467836732
2520,Ranst,Valkenlaan,42,51.187702038,4.5536047182
2520,Ranst,Lostraat,44,51.183828333,4.60223631021
2520,Ranst,Fazantenstraat,21,51.2154422685,4.60345054938
2520,Ranst,Konijnenbos,37,51.2157678734,4.59142944527
2520,Ranst,Nauwelaershoeven,3A,51.1802958421,4.61477091498
2520,Ranst,Spoorweglei,24,51.157252978,4.58589739144
2520,Ranst,Schildesteenweg,53,51.2154319441,4.59902375408
2520,Ranst,Van den Nestlaan,38,51.1794165677,4.58743862597
2520,Ranst,Kesselsesteenweg,3,51.1617419409,4.60582041397
2520,Ranst,Herentalsebaan,2,51.1788928806,4.56805118458
2520,Ranst,Vaartstraat,148,51.2058209228,4.59801704932
2520,Ranst,Vinkenstraat,3,51.2002852704,4.5469320526
2520,Ranst,Broechemhof,2,51.1960057262,4.62441479306
2520,Ranst,Van den Nestlaan,4,51.1807607195,4.59284086718
2520,Ranst,Veldstraat,103,51.1811397256,4.56726824415
2520,Ranst,Kapelstraat,127,51.1859243527,4.61646306781
2520,Ranst,Muizenheuvelstraat,1,51.2124624634,4.59566906005
2520,Ranst,Keerbaan,42,51.218337016,4.5595780109
2520,Ranst,John Kennedylaan,8,51.2133658515,4.60712072516
2520,Ranst,Oudstrijdersstraat,83,51.2132868197,4.59127187574
2520,Ranst,Liersesteenweg,124,51.1517854328,4.57962978776
2520,Ranst,Pertendonckstraat,39,51.1816568926,4.59820274064
2520,Ranst,Torekenshoefstraat,6,51.1709422414,4.59367849117
2520,Ranst,Liersesteenweg,8,51.1580788238,4.58963357271
2520,Ranst,Schranshoeveweg,18D,51.1540684856,4.57345675884
2520,Ranst,van Steenbergenlaan,1,51.2190606499,4.58586667023
2520,Ranst,Schawijkplasweg,32,51.2029075979,4.54643747222
2520,Ranst,Bieslooklaan,12,51.1791521772,4.59595693033
2520,Ranst,Klaverstraat,1B,51.1710690084,4.59167880461
2520,Ranst,Dorpstraat,2,51.1643224188,4.60926702801
2520,Ranst,De Voortstraat,9,51.1623632418,4.60861332679
2520,Ranst,Kromstraat,124,51.1935654268,4.53913098598
2520,Ranst,Ranstsesteenweg,143,51.1834028726,4.56009710018
2520,Ranst,van Steenbergenlaan,15,51.218718135,4.58769451608
2520,Ranst,Kapelstraat,21,51.1832111557,4.59720556213
2520,Ranst,Emblemseweg,68,51.1718507627,4.60001331492
2520,Ranst,Kruizemuntlaan,1,51.1809180586,4.59628961624
2520,Ranst,Hovenierstraat,3,51.179682502,4.55208356186
2520,Ranst,Tulpenlaan,7,51.1887798713,4.56701708123
2520,Ranst,Zandhovensteenweg,66,51.2111672871,4.60706952958
2520,Ranst,Maislaan,9,51.1827717766,4.56603883451
2520,Ranst,Gustaaf Peetersstraat,59,51.1802039706,4.60547514713
2520,Ranst,Herentalsebaan,18,51.1803021609,4.55404279368
2520,Ranst,Ranstsesteenweg,126C,51.1810317252,4.56161956295
2520,Ranst,Zevenbergenlaan,4,51.1927538535,4.56062910044
2520,Ranst,Kievitlaan,10,51.1874623491,4.55816258213
2520,Ranst,Veldstraat,75,51.1836688937,4.5667527304
2520,Ranst,Louis Ecranlaan,14,51.214156588,4.58555696795
2520,Ranst,Zevenbergenlaan,38,51.1934518367,4.56378692874
2520,Ranst,Steenweg op 't Fort,1,51.1803141075,4.60905751236
2520,Ranst,Dorpstraat,89,51.1616998773,4.60226541176
2520,Ranst,Dorpstraat,36,51.1622939941,4.60507457603
2520,Ranst,Hemelstraat,17,51.2167664182,4.60092313625
2520,Ranst,Zakstraat,6,51.1955258329,4.56867196119
2520,Ranst,Oostmalsesteenweg,65,51.1691894047,4.61757071615
2520,Ranst,Streep,22,51.1818992951,4.60395438119
2520,Ranst,Schawijkstraat,42,51.1963273252,4.5438458553
2520,Ranst,Lievevrouwestraat,33,51.1893689568,4.56194808837
2520,Ranst,Massenhovensesteenweg,31A,51.186104972,4.61789386893
2520,Ranst,Roggelaan,1,51.1835916899,4.56583736693
2520,Ranst,Keerbaan,22,51.2159286384,4.56715194434
2520,Ranst,Pertendonckstraat,5,51.1813971322,4.59999054388
2520,Ranst,Oostmalsesteenweg,30,51.1639415832,4.60450510065
2520,Ranst,Kromstraat,71A,51.1943097119,4.54770722772
2520,Ranst,Zandhovensteenweg,13,51.210101552,4.60351746806
2520,Ranst,Beemdenstraat,8,51.1846390336,4.61967008185
2520,Ranst,Hallebaan,16B,51.2243595692,4.63243332043
2520,Ranst,Groenenbroekstraat,2,51.1863315294,4.53964639564
2520,Ranst,Melisselaan,7,51.1796987234,4.59649415979
2520,Ranst,Veldstraat,57,51.185166443,4.56703886121
2520,Ranst,Merellaan,32,51.1863887502,4.55575034207
2520,Ranst,Fruithoflaan,11,51.1558848735,4.58488961256
2520,Ranst,Liersesteenweg,159,51.1512578925,4.57977789241
2520,Ranst,Tarwelaan,10,51.1830897065,4.56398702653
2520,Ranst,Broechemlei,55,51.1873527538,4.56893432621
2520,Ranst,Muizenheuvelstraat,33,51.2146883606,4.59492270579
2520,Ranst,Everhoek,3,51.2151701043,4.58102621182
2520,Ranst,Knodbaan,20,51.2176567263,4.59991555566
2520,Ranst,Nieuwelaan,21,51.2141177681,4.59641960751
2520,Ranst,Abelebaan,83,51.1817058818,4.5844568365
2520,Ranst,Vremderhoeven,2,51.1691935707,4.56815860991
2520,Ranst,Schildesteenweg,71,51.2164557485,4.59938118591
2520,Ranst,Kerkstraat,20,51.2106226067,4.59845743759
2520,Ranst,Herentalsebaan,135,51.1890801838,4.53985718233
2520,Ranst,Kromstraat,106,51.1934743237,4.54381965668
2520,Ranst,Fransehoeveweg,4,51.1697145153,4.59309893546
2520,Ranst,Hulstweg,21,51.1583258919,4.57778860497
2520,Ranst,Dorpstraat,18,51.1625020472,4.60620826066
2520,Ranst,Sint Jozef,2,51.1759419797,4.58596259596
2520,Ranst,van Halmalelaan,5,51.2175798605,4.58149936205
2520,Ranst,Crauwelsveld,17,51.1955744856,4.539600279
2520,Ranst,Merellaan,14,51.1871900394,4.55549153443
2520,Ranst,Oostmalsesteenweg,12,51.1619787324,4.59859706783
2520,Ranst,Kriekenstraat,45,51.1930356883,4.54722869112
2520,Ranst,Liersesteenweg,150,51.1509538003,4.57882667417
2520,Ranst,Begonialaan,1,51.1905806001,4.56424119561
2520,Ranst,Kantonbaan,4,51.2268935356,4.62766884348
2520,Ranst,Oudstrijdersstraat,10,51.2111916094,4.59542287295
2520,Ranst,Veldstraat,29,51.1862287306,4.56574070145
2520,Ranst,Berkenlaan,33,51.1910449469,4.55684746351
2520,Ranst,Juul Persijnstraat,9,51.1807946611,4.60220678664
2520,Ranst,Notelaarweg,3,51.1570220745,4.58398080754
2520,Ranst,Vlotstraat,13,51.2095359362,4.59797769758
2520,Ranst,Oelegemsesteenweg,10,51.1878182045,4.6046113563
2520,Ranst,Hutveld,31,51.1582977676,4.5852414473
2520,Ranst,Broechemsesteenweg,116,51.1688700181,4.59291943532
2520,Ranst,Haegenbroekseweg,18,51.1540181706,4.57225250926
2520,Ranst,Hulstweg,6,51.1582122083,4.57681209186
2520,Ranst,de Fraulalaan,3,51.2172594031,4.5896207977
2520,Ranst,Pater Domstraat,59,51.1863712605,4.60607205664
2520,Ranst,Processieweg,6B,51.1913141735,4.56659704374
2520,Ranst,Venweg,8C,51.1691692356,4.61385783429
2520,Ranst,Liersesteenweg,22B,51.1575740038,4.58925953494
2520,Ranst,Doggenhoutstraat,26,51.1884111149,4.56135952988
2520,Ranst,Ranstsebinnenweg,35A,51.1529330543,4.57329297496
2520,Ranst,Jozef Simonslaan,3A,51.2148079977,4.58903769379
2520,Ranst,Dorpstraat,53B,51.1619038634,4.60454853107
2520,Ranst,Profeetstraat,92,51.1861694325,4.54658502416
2520,Ranst,Kievitlaan,83,51.1855293658,4.55500730445
2520,Ranst,Broechemlei,73,51.1871821682,4.57155089598
2520,Ranst,Lievevrouwestraat,51,51.188604081,4.56246598375
2520,Ranst,Dorpstraat,99,51.1615060098,4.60166675937
2520,Ranst,Ranstsebinnenweg,11,51.1513885571,4.57472225022
2520,Ranst,Meir,7,51.2123123554,4.58652221058
2520,Ranst,Veldstraat,5,51.1869020648,4.56487751328
2520,Ranst,Molenstraat,44,51.1914922557,4.56340336336
2520,Ranst,Heidestraat,13B,51.1673356564,4.58307633635
2520,Ranst,Ranstsesteenweg,62,51.1572486493,4.57705306604
2520,Ranst,Nieuwelaan,6,51.2137450968,4.59656432883
2520,Ranst,Van den Nestlaan,145,51.1742394198,4.55908291884
2520,Ranst,Lostraat,7,51.1821330779,4.60178860558
2520,Ranst,Ranstsesteenweg,44,51.1555544275,4.57697544591
2520,Ranst,Oudstrijdersstraat,116,51.2132752102,4.58845298188
2520,Ranst,Vaartstraat,24,51.1938797899,4.56399772071
2520,Ranst,Beukendreef,17,51.1553014005,4.58214203096
2520,Ranst,Vaartstraat,128,51.2059366265,4.58305810573
2520,Ranst,Rembrandtlaan,27,51.1833124973,4.59494908982
2520,Ranst,Gustaaf Peetersstraat,60,51.1798022738,4.60605457207
2520,Ranst,Zakstraat,48B,51.197530917,4.57711435332
2520,Ranst,Antwerpsesteenweg,79,51.1854626255,4.58500816904
2520,Ranst,Antwerpsesteenweg,26,51.1837633121,4.58981602201
2520,Ranst,Bistweg,3,51.1878140919,4.57750077343
2520,Ranst,Juul Persijnstraat,11,51.1807574861,4.60214238846
2520,Ranst,Fazantenstraat,6,51.2161659006,4.60369020531
2520,Ranst,Knodbaan,57,51.2176874973,4.59764290549
2520,Ranst,Handboogweg,19,51.157099536,4.57049612908
2520,Ranst,Broechemsesteenweg,10,51.1813745935,4.59451177558
2520,Ranst,Venusstraat,12,51.2133656538,4.60022952948
2520,Ranst,Jozef De Voghtstraat,18,51.178815865,4.60457888409
2520,Ranst,Gustaaf Peetersstraat,14,51.1805431831,4.6032363391
2520,Ranst,Heidestraat,19,51.1675931413,4.58285062901
2520,Ranst,Kardinaal Cardijnlaan,10,51.2156476473,4.60114052652
2520,Ranst,Van den Nestlaan,41,51.180235095,4.58906304829
2520,Ranst,Liersesteenweg,88,51.1543285437,4.58348467976
2520,Ranst,Emblemseweg,51,51.1744780309,4.60202281351
2520,Ranst,Liersesteenweg,35,51.1572590947,4.58994986469
2520,Ranst,Schelkenshof,10,51.1803722109,4.59863587262
2520,Ranst,Pater Domstraat,49A,51.1853580557,4.60621334584
2520,Ranst,Molenstraat,62,51.1917878069,4.56448258023
2520,Ranst,Europalaan,22,51.209408863,4.61130452723
2520,Ranst,Oudstrijdersstraat,134,51.2131717502,4.58646884938
2520,Ranst,Stenenkruisstraat,24,51.1917899118,4.53435610882
2520,Ranst,Hallebaan,10,51.2170399648,4.61820258372
2520,Ranst,Kromstraat,35,51.1912772212,4.55446259951
2520,Ranst,Dullaard,48,51.1929581449,4.57063883987
2520,Ranst,Gustaaf Peetersstraat,32,51.180379019,4.60415406018
2520,Ranst,Dullaard,16,51.189698546,4.57069191556
2520,Ranst,Kapelstraat,6,51.1826332854,4.59706428505
2520,Ranst,Gerstelaan,4,51.1822047376,4.56498784574
2520,Ranst,Schawijkstraat,95,51.1995979734,4.54908187313
2520,Ranst,Rembrandtlaan,3,51.1843008223,4.59432245651
2520,Ranst,Boekweitlaan,10,51.181198765,4.56475621246
2520,Ranst,Zevenbergenlaan,13,51.1925227878,4.5615467896
2520,Ranst,Sint Antoniusstraat,18,51.1851353282,4.54775328865
2520,Ranst,Heesterbos,3,51.2115607854,4.61824217228
2520,Ranst,Marreweg,24,51.1830684975,4.57111763588
2520,Ranst,Kastanjelaan,32,51.1934420749,4.55419645154
2520,Ranst,Tulpenlaan,14,51.1885519155,4.56782010382
2520,Ranst,Rubenslaan,13,51.1843934489,4.59691273881
2520,Ranst,Venweg,1B,51.1672758777,4.61402843521
2520,Ranst,Massenhovensesteenweg,19B,51.1825957876,4.61150214184
2520,Ranst,Torenplein,7,51.2112752585,4.59771866785
2520,Ranst,Groenlaan,3,51.1895205259,4.56680353824
2520,Ranst,Berkenlaan,68,51.1923856567,4.5549357889
2520,Ranst,Broechemlei,27,51.1875044953,4.56679938546
2520,Ranst,Pertendonckstraat,30,51.181857275,4.59758805471
2520,Ranst,Kloosterstraat,22,51.1628727714,4.60507494109
2520,Ranst,Konijnenbos,10,51.2147691001,4.59241415584
2520,Ranst,Zevenbergenlaan,31,51.1929389084,4.56326994897
2520,Ranst,Vruntebaan,4I,51.1574949215,4.58068724904
2520,Ranst,Torekenshoefstraat,15,51.1703722292,4.59370204414
2520,Ranst,Dorpstraat,11,51.1637969271,4.60892278522
2520,Ranst,Rozenlaan,6,51.189361052,4.56401550568
2520,Ranst,Kesselsesteenweg,10,51.1605442129,4.6053696019
2520,Ranst,Bremstraat,13,51.1726638866,4.59954736201
2520,Ranst,van Colenlaan,26,51.2169025675,4.58856014881
2520,Ranst,Vaartstraat,52,51.1952231095,4.56329967723
2520,Ranst,Ranstsesteenweg,188,51.1860539524,4.56306093334
2520,Ranst,Vinkenstraat,10,51.2016543965,4.5459191869
2520,Ranst,John van den Eyndelaan,9,51.1961917042,4.54647459619
2520,Ranst,Zwaluwenlaan,8,51.1864410919,4.55391279162
2520,Ranst,Abelebaan,19,51.1815952901,4.59185595279
2520,Ranst,Hooiveld,14,51.184121496,4.56431544298
2520,Ranst,Schawijkstraat,29,51.1951872755,4.54241559441
2520,Ranst,Spruytershofstraat,14,51.1952761074,4.54541849905
2520,Ranst,Ter Stratenweg,39,51.2126200158,4.57601437468
2520,Ranst,Spoorweglei,7,51.1565836239,4.58636767361
2520,Ranst,Alliers,2,51.1536453772,4.57273940425
2520,Ranst,Lindenlaan,2C,51.1911621066,4.5601138734
2520,Ranst,Zwetstraat,15,51.2136738571,4.55540191291
2520,Ranst,Gemeenteplein,21,51.1819661482,4.60152190634
2520,Ranst,Mollentstraat,33,51.1801199173,4.61170474071
2520,Ranst,le Roylaan,17,51.2174226443,4.58913466969
2520,Ranst,Broechemlei,3,51.1876959938,4.56484052718
2520,Ranst,Sparrenweg,26,51.1580053499,4.57870155596
2520,Ranst,Doornbaan,4,51.216008527,4.63011740187
2520,Ranst,Sint Gummarusstraat,6B,51.1672750371,4.58855591556
2520,Ranst,Vaartstraat,70,51.1960096646,4.56271786607
2520,Ranst,Kastanjelaan,14,51.1938755061,4.5566308949
2520,Ranst,Tarwelaan,19,51.1831728564,4.56289643757
2520,Ranst,Moorstraat,21,51.1908687349,4.58444554925
2520,Ranst,Fruithoflaan,18,51.1557832009,4.5839636441
2520,Ranst,Tongelweg,8,51.1642250536,4.59452294361
2520,Ranst,Pertendonckstraat,12,51.1820609096,4.60023367787
2520,Ranst,Dullaard,34,51.1917450691,4.57104925845
2520,Ranst,Oostmalsesteenweg,50,51.1647514873,4.60968654921
2520,Ranst,Van den Nestlaan,31,51.1804423925,4.59005851696
2520,Ranst,Wijnegembaan,12,51.2030009822,4.55218542769
2520,Ranst,Nachtegalenlaan,8,51.1883944226,4.55678396026
2520,Ranst,Schawijkstraat,59,51.1971723662,4.54610567424
2520,Ranst,Schaepsvonderlaan,11,51.1825123429,4.56362477539
2520,Ranst,van Gheldenakenlaan,5,51.2179257035,4.58315374402
2520,Ranst,Kreupelstraat,13A,51.1692655358,4.61071260003
2520,Ranst,Weidestraat,5,51.1567264288,4.57520570252
2520,Ranst,Hofstraat,24,51.1860142215,4.56758411686
2520,Ranst,Ranstsesteenweg,9,51.1526220978,4.57957926725
2520,Ranst,Europalaan,3,51.2107781056,4.61050299642
2520,Ranst,Oude Vaartstraat,34,51.2039575779,4.57935032973
2520,Ranst,Oeverweg,20,51.1533640672,4.57616454431
2520,Ranst,Donkereweg,6,51.1905255538,4.56918171327
2520,Ranst,Laarstraat,23,51.1934605241,4.57120835412
2520,Ranst,Streep,5,51.1822997128,4.60301865508
2520,Ranst,Profeetstraat,4,51.1891365621,4.5549449467
2520,Ranst,Asbroek,7,51.1956152731,4.57944616214
2520,Ranst,Beemdenstraat,6A,51.1851913775,4.61929147179
2520,Ranst,Gustaaf Peetersstraat,42,51.1801804826,4.60468261678
2520,Ranst,Herentalsebaan,143,51.1896808699,4.53955930152
2520,Ranst,van Halmalelaan,30,51.219131045,4.58276212394
2520,Ranst,Herentalsebaan,11,51.1811669844,4.55578254142
2520,Ranst,Lindenlaan,8,51.1913281703,4.55958730209
2520,Ranst,Kievitlaan,19,51.1876347185,4.55862799282
2520,Ranst,van Vrieselelaan,1,51.2164016327,4.58540986433
2520,Ranst,Keerbaan,5,51.2137775213,4.5706461294
2520,Ranst,Schranshoeveweg,2,51.1555991353,4.57629456928
2520,Ranst,Oostmalsesteenweg,39,51.1652264154,4.6086891251
2520,Ranst,Rundvoortstraat,64,51.216299243,4.5909199096
2520,Ranst,Vlotstraat,31,51.2085925642,4.59743901395
2520,Ranst,Oudstrijdersstraat,98,51.2133163398,4.58977093455
2520,Ranst,Schawijkplasweg,70,51.2084202479,4.54091563148
2520,Ranst,Oude Vaartstraat,2,51.2036187898,4.57411334267
2520,Ranst,Veldstraat,88A,51.1823029942,4.56744597183
2520,Ranst,Boomgaardweg,4,51.178340358,4.59142406335
2520,Ranst,Streep,29,51.1820135455,4.60520862164
2520,Ranst,Schildesteenweg,35,51.2137170504,4.59809505438
2520,Ranst,Veldstraat,40,51.1862606447,4.56680939176
2520,Ranst,Dorpstraat,119A,51.1604125646,4.59836061773
2520,Ranst,Knodbaan,3,51.2174855109,4.59297495675
2520,Ranst,Lostraat,26,51.1831180725,4.60218311893
2520,Ranst,Massenhovensesteenweg,54,51.1867013927,4.62562418927
2520,Ranst,Abelebaan,37,51.1814126276,4.58986205701
2520,Ranst,Selsaetenstraat,20,51.196886258,4.54096316626
2520,Ranst,Herentalsebaan,46,51.1848243298,4.5469800553
2520,Ranst,Kerkstraat,3,51.2105870816,4.5995721685
2520,Ranst,Broddestraat,28,51.1795292736,4.59839989433
2520,Ranst,Oude Vaartstraat,16,51.2033927025,4.57556732069
2520,Ranst,Rubenslaan,36,51.1856711621,4.59142253898
2520,Ranst,Bredabaan,41,51.2257211933,4.59342695371
2520,Ranst,Herbsteinlaan,4,51.2136733101,4.58436431486
2520,Ranst,Hazenstraat,22,51.2160006094,4.60566311712
2520,Ranst,Liersesteenweg,167,51.1509953152,4.57953745537
2520,Ranst,Sint Gummarusstraat,18,51.1654199234,4.59116352557
2520,Ranst,Gasthuisstraat,4,51.1894177118,4.55777219152
2520,Ranst,Pertendonckstraat,65,51.181528036,4.59609652891
2520,Ranst,Dorpstraat,46,51.1622625041,4.60437179847
2520,Ranst,Liersesteenweg,63,51.1557117763,4.58750377876
2520,Ranst,Van den Nestlaan,56B,51.1779894691,4.58371959094
2520,Ranst,Emblemseweg,23,51.1778152601,4.60529425431
2520,Ranst,Processieweg,64,51.1887678701,4.56879824176
2520,Ranst,Bremstraat,7F,51.1724418952,4.59796885177
2520,Ranst,Veldstraat,30,51.1865194595,4.56609278038
2520,Ranst,Profeetstraat,99,51.1861048862,4.54581572384
2520,Ranst,Meir,14,51.212243055,4.58792791075
2520,Ranst,Massenhovensesteenweg,7,51.1805475671,4.60723119594
2520,Ranst,Vorstjensweg,18,51.1785882226,4.60343470145
2520,Ranst,Zandhovensteenweg,21,51.2104740361,4.60459704613
2520,Ranst,Lothar Wyrtki-laan,7,51.1948771474,4.54400905118
2520,Ranst,Kromstraat,45,51.1920137087,4.55368323081
2520,Ranst,Dullaard,44,51.1926452461,4.57064377534
2520,Ranst,Liersesteenweg,149,51.1516536699,4.58037481035
2520,Ranst,Schranshoeveweg,12A,51.1550880407,4.57511910733
2520,Ranst,Schildesteenweg,17,51.2121288491,4.5976948224
2520,Ranst,Schransken,7,51.2120233523,4.59860417242
2520,Ranst,Dennenlaan,25,51.1918827349,4.55658579243
2520,Ranst,Schelkenshof,27,51.1798256445,4.60018180065
2520,Ranst,Stapstraat,15,51.1632001814,4.60271238672
2520,Ranst,Herentalsebaan,92,51.1868197857,4.54265322291
2520,Ranst,Antwerpsesteenweg,42B,51.1850413325,4.58588737769
2520,Ranst,Hofstraat,5,51.1867483487,4.56745795809
2520,Ranst,Venusstraat,40,51.2143575371,4.60525188129
2520,Ranst,Kanaalstraat,4,51.1561703972,4.58884309106
2520,Ranst,John Kennedylaan,45,51.2114386987,4.60602010421
2520,Ranst,Antwerpsesteenweg,7,51.1825153111,4.59410027706
2520,Ranst,Hulstweg,13,51.1585457971,4.57710532835
2520,Ranst,Kantonbaan,11,51.2259628432,4.6314226166
2520,Ranst,Liersesteenweg,45,51.1566023906,4.58893975753
2520,Ranst,Ranstsesteenweg,135,51.1830488344,4.56091212836
2520,Ranst,Handboogweg,20,51.1581488013,4.57090248531
2520,Ranst,Juul Persijnstraat,28,51.1794015972,4.60116900864
2520,Ranst,Hogenaardseweg,12,51.2090734975,4.5415503977
2520,Ranst,Pater Domstraat,52,51.1860513553,4.60660820508
2520,Ranst,Begonialaan,8,51.1904242775,4.56484316505
2520,Ranst,Alliers,26,51.152277522,4.57276928253
2520,Ranst,Rubenslaan,41,51.1860178133,4.59191706743
2520,Ranst,Jozef Simonslaan,23,51.2170250943,4.58323489028
2520,Ranst,Bergsehoeven,1,51.18939775,4.62256806865
2520,Ranst,Gustaaf Peetersstraat,49,51.1804787915,4.60478323489
2520,Ranst,Oostmalsesteenweg,108,51.1727361048,4.62413428399
2520,Ranst,Stapstraat,1,51.1627027347,4.60308199861
2520,Ranst,Oelegemsesteenweg,27,51.1889188257,4.6041300435
2520,Ranst,Achterstraat,25,51.2110613974,4.59239574727
2520,Ranst,De Voortstraat,2,51.1622341341,4.60694596458
2520,Ranst,Sint Gummarusstraat,4,51.1682518033,4.58770155349
2520,Ranst,Hazenstraat,3,51.2161859964,4.60420496295
2520,Ranst,Nieuwelaan,13,51.21412805,4.59677343242
2520,Ranst,Gasthuisstraat,18,51.1896235597,4.55849193405
2520,Ranst,Molenstraat,34,51.1914075667,4.56292381536
2520,Ranst,Ter Stratenweg,40,51.2090755625,4.58247400025
2520,Ranst,Broechemsesteenweg,73,51.1779538056,4.59296305709
2520,Ranst,Hooiveld,24,51.1855237041,4.56550501343
2520,Ranst,Heesterbos,10,51.2115128832,4.62035385601
2520,Ranst,Zandhovensteenweg,104,51.2117333987,4.61290225949
2520,Ranst,Moorstraat,6,51.1902100983,4.58884395614
2520,Ranst,Molenstraat,69,51.1917479851,4.56545511089
2520,Ranst,Kriekenstraat,35,51.1920776589,4.5471324622
2520,Ranst,Oudstrijdersstraat,152,51.213131142,4.58523848936
2520,Ranst,Nijlensesteenweg,3,51.1777230188,4.63187699243
2520,Ranst,Marreweg,5,51.1839907971,4.56849479868
2520,Ranst,Nierlenderstraat,6,51.1791174624,4.59178172068
2520,Ranst,Zwaluwenlaan,15,51.186456154,4.55319313678
2520,Ranst,Ranstsebinnenweg,28,51.1533415381,4.57358033693
2520,Ranst,Boekweitlaan,27,51.1808408949,4.56644394345
2520,Ranst,Achterstraat,78,51.2103850548,4.59360327309
2520,Ranst,Maislaan,2,51.1830636684,4.56553536495
2520,Ranst,Bredabaan,31,51.219064842,4.58249145078
2520,Ranst,Bistweg,10,51.1885424275,4.57775721299
2520,Ranst,Broechemsesteenweg,91,51.1705726375,4.59192678316
2520,Ranst,Vaartstraat,95,51.205039005,4.58327331716
2520,Ranst,Fazantenstraat,13,51.2159844625,4.60326451303
2520,Ranst,Berkenlaan,61,51.1916667383,4.55500328688
2520,Ranst,Bremstraat,2A,51.1715775748,4.59362136655
2520,Ranst,de Fraulalaan,10,51.2168866709,4.59013798391
2520,Ranst,Kardinaal Cardijnlaan,27,51.2151321294,4.60270077446
2520,Ranst,Molenstraat,16,51.1910189991,4.5618817078
2520,Ranst,Venusstraat,29,51.2142424866,4.60574331893
2520,Ranst,Gemeenteplein,6,51.1811883379,4.60158237054
2520,Ranst,Venweg,22,51.1712599987,4.6132464459
2520,Ranst,Notelaarweg,10,51.1571373144,4.58466486968
2520,Ranst,Doggenhoutstraat,7,51.1883627279,4.55927804946
2520,Ranst,Vorstjensweg,4,51.1799695955,4.60239041666
2520,Ranst,Grimmarastraat,6,51.1636961772,4.60940088938
2520,Ranst,Broechemhof,9,51.1959015496,4.60726699189
2520,Ranst,Broechemsesteenweg,27,51.1801411933,4.59314206222
2520,Ranst,Gerstelaan,11,51.181891317,4.56573519967
2520,Ranst,Kievitlaan,47,51.1864103836,4.55768244408
2520,Ranst,Rembrandtlaan,10,51.1841689889,4.59501046245
2520,Ranst,Liersesteenweg,185,51.1502292631,4.57860331236
2520,Ranst,Kromstraat,81,51.1939963635,4.54545225782
2520,Ranst,Knodbaan,50,51.2178736568,4.59708220271
2520,Ranst,Veldstraat,65,51.1843594766,4.56702397862
2520,Ranst,Kromstraat,114,51.1934695961,4.54215569244
2520,Ranst,Kapelstraat,117,51.1859118507,4.61509495498
2520,Ranst,Herentalsebaan,9,51.1809660506,4.55642857091
2520,Ranst,Emblemseweg,76,51.1694657034,4.59965875065
2520,Ranst,Valkenlaan,30,51.1879164663,4.55442843434
2520,Ranst,Zwaluwenlaan,1,51.1856883955,4.55431012142
2520,Ranst,Liersesteenweg,77F,51.1550649417,4.58654052437
2520,Ranst,Spoorweglei,14,51.1569552369,4.58650134225
2520,Ranst,Broddestraat,11,51.1806685024,4.5972355516
2520,Ranst,Sparrenweg,7,51.1578757121,4.57684117664
2520,Ranst,Nierlenderstraat,38,51.1779646765,4.5891086399
2520,Ranst,Tongelweg,1,51.1657900821,4.59823217244
2520,Ranst,Zavelstraat,6,51.2141574048,4.55990460257
2520,Ranst,Kromstraat,17,51.1898249692,4.55699471975
2520,Ranst,Oudstrijdersstraat,91,51.213663326,4.58951412531
2520,Ranst,Oostmalsesteenweg,57,51.1684286627,4.61660701716
2520,Ranst,Vaartstraat,5,51.1928985112,4.56556511841
2520,Ranst,Liersesteenweg,132,51.1515321174,4.57938724695
2520,Ranst,Pater Domstraat,49C,51.1856780055,4.60623457323
2520,Ranst,John Kennedylaan,17,51.2132778635,4.60627019989
2520,Ranst,Kapelstraat,31,51.1836429238,4.59796754329
2520,Ranst,Vaartstraat,124A,51.2053980955,4.58008988371
2520,Ranst,Dorpstraat,107,51.1613949388,4.60119746705
2520,Ranst,Liersesteenweg,17,51.157749642,4.59036028913
2520,Ranst,John van den Eyndelaan,16,51.1962674219,4.54740189925
2520,Ranst,Spoorweglei,32,51.1578654665,4.58472356542
2520,Ranst,Schaepsvonderlaan,9,51.182571411,4.5638338259
2520,Ranst,Louis Ecranlaan,24,51.2140939014,4.58361420943
2520,Ranst,Achterstraat,96,51.2107934705,4.59248031996
2520,Ranst,Abelebaan,47,51.181347481,4.58889155316
2520,Ranst,Keerbaan,52,51.2159420393,4.55874996897
2520,Ranst,Ranstsebinnenweg,9,51.151251883,4.57485141662
2520,Ranst,Ranstsesteenweg,16,51.1527915751,4.58015759327
2520,Ranst,Zandhovensteenweg,56,51.2111095615,4.60627772836
2520,Ranst,Keerbaan,12,51.2137684473,4.5673649742
2520,Ranst,Herentalsebaan,28,51.1835445227,4.54876416859
2520,Ranst,Schildesteenweg,45,51.2145995644,4.59868059416
2520,Ranst,Ranstsesteenweg,171,51.1853048722,4.56195365698
2520,Ranst,Rozenlaan,13,51.1907879105,4.56367791389
2520,Ranst,van Edinghenlaan,5,51.2186657884,4.58415203045
2520,Ranst,Vruntebaan,5,51.156361188,4.57766871941
2520,Ranst,Valkenlaan,12,51.1882338183,4.55581183019
2520,Ranst,Bieslooklaan,22,51.1793911474,4.59718366012
2520,Ranst,Konijnenbos,27,51.2156975466,4.5923510712
2520,Ranst,Emblemseweg,58,51.172871329,4.60051583551
2520,Ranst,Salvialaan,6,51.1884895862,4.56457353993
2520,Ranst,Eksterlaan,17,51.1868135094,4.55486741811
2520,Ranst,Hutveld,41,51.1588064676,4.58404738014
2520,Ranst,Fazantenstraat,31,51.2149778005,4.60427913257
2520,Ranst,Liersesteenweg,114,51.152718707,4.58084029799
2520,Ranst,Knodbaan,67A,51.2171279047,4.61063805567
2520,Ranst,Dorpstraat,92B,51.161584756,4.60043376651
2520,Ranst,Kievitlaan,20,51.1869126231,4.5578751427
2520,Ranst,Oudstrijdersstraat,73,51.2129310487,4.59184661592
2520,Ranst,Kanaalstraat,18,51.1554893042,4.58995817789
2520,Ranst,Schawijkstraat,30,51.1956787972,4.5422120032
2520,Ranst,Ter Stratenweg,22,51.2071308469,4.58315046688
2520,Ranst,Kerkstraat,10,51.2104385907,4.59911350697
2520,Ranst,Spoorweglei,23A,51.1571898026,4.58530390356
2520,Ranst,Schawijkstraat,70,51.1975085629,4.54537033399
2520,Ranst,Rundvoortstraat,36,51.2127384791,4.59062826876
2520,Ranst,Abelebaan,73,51.1812768631,4.58635933641
2520,Ranst,Bredabaan,13,51.2181222597,4.58043055519
2520,Ranst,Lievevrouwestraat,58,51.1887884611,4.56321396567
2520,Ranst,Bosstraat,6,51.1612694292,4.60388245508
2520,Ranst,Herentalsebaan,125,51.1884534538,4.54038552966
2520,Ranst,Kievitlaan,55,51.1861804496,4.5572384128
2520,Ranst,Vaartstraat,121,51.2060265227,4.58755118977
2520,Ranst,Baron Holvoetlaan,3,51.2101941855,4.61012246136
2520,Ranst,Abelebaan,20,51.1810922284,4.58988699134
2520,Ranst,Nieuwelaan,31,51.2141978405,4.59586815627
2520,Ranst,Veenmolstraat,15,51.2124686841,4.58811100728
2520,Ranst,Streep,12,51.1820134801,4.60321786295
2520,Ranst,Lindenlaan,15,51.1917343279,4.55883012201
2520,Ranst,Kloosterstraat,3,51.1632370444,4.60383578299
2520,Ranst,Oelegemsesteenweg,47,51.204981012,4.59959628311
2520,Ranst,Schoolstraat,16,51.1917975264,4.56004539608
2520,Ranst,Korenveld,17,51.1855300892,4.56469466188
2520,Ranst,Merellaan,24,51.1867406898,4.55561287703
2520,Ranst,Schoolstraat,2,51.1912472626,4.56036883923
2520,Ranst,Oostmalsesteenweg,22,51.1632083473,4.60222122876
2520,Ranst,Oudstrijdersstraat,47,51.212392496,4.59324791465
2520,Ranst,Processieweg,18,51.1904788678,4.56697254541
2520,Ranst,Oude Vaartstraat,12A,51.2033834418,4.57515878723
2520,Ranst,Muizenheuvelstraat,23,51.2135403342,4.59540169451
2520,Ranst,Nachtegalenlaan,1,51.1886572135,4.55753509529
2520,Ranst,Schawijkstraat,52,51.1986388928,4.54336385304
2520,Ranst,Liersesteenweg,72A,51.1552563657,4.58568296928
2520,Ranst,Torenplein,14,51.2108108036,4.59684875021
2520,Ranst,Rundvoortstraat,18,51.2116069441,4.59118884866
2520,Ranst,Lievevrouwestraat,23,51.1894589601,4.56149217487
2520,Ranst,van Colenlaan,7,51.2166699328,4.58629073301
2520,Ranst,Dorpstraat,28,51.1624092509,4.60573418003
2520,Ranst,van Vrieselelaan,8,51.2176965136,4.58491682794
2520,Ranst,Knodbaan,10,51.217592961,4.59483707985
2520,Ranst,Veenmolstraat,1,51.2126588603,4.58990089942
2520,Ranst,Profeetstraat,46,51.1877440209,4.55123871451
2520,Ranst,van Steenbergenlaan,23,51.2184630718,4.58864481597
2520,Ranst,Processieweg,4,51.1916416663,4.56641205154
2520,Ranst,Vaartstraat,103,51.2053362679,4.5845454323
2520,Ranst,Jozef Simonslaan,6,51.2149808488,4.58739483413
2520,Ranst,Beukendreef,3,51.1546228976,4.58330094308
2520,Ranst,Kromstraat,23,51.1903290329,4.55604454705
2520,Ranst,Schildesteenweg,76,51.2194734059,4.59981037174
2520,Ranst,Ranstsesteenweg,70,51.1574837493,4.57626323707
2520,Ranst,Oelegemsesteenweg,17B,51.1855495568,4.60196147224
2520,Ranst,Herentalsebaan,127,51.188549582,4.54023412566
2520,Ranst,Antwerpsesteenweg,14,51.1824228532,4.59247917827
2520,Ranst,Bieslooklaan,7,51.1787908965,4.59428902283
2520,Ranst,Kardinaal Cardijnlaan,22,51.2161965486,4.60174422702
2520,Ranst,Gustaaf Peetersstraat,26,51.1804979823,4.60381673031
2520,Ranst,Rozenlaan,18,51.1901633591,4.56347804468
2520,Ranst,John van den Eyndelaan,4,51.1956449957,4.54643359428
2520,Ranst,Hemelstraat,15,51.2165806661,4.60085766145
2520,Ranst,Ter Stratenweg,7,51.2090149839,4.58552268797
2520,Ranst,Hooiveld,9,51.1837957593,4.56338845096
2520,Ranst,Vaartstraat,16,51.1932998041,4.56440511928
2520,Ranst,Kanaalstraat,13,51.1559029889,4.59003947227
2520,Ranst,Kardinaal Cardijnlaan,47,51.216504881,4.60218400562
2520,Ranst,Emblemseweg,45,51.1760952159,4.60326597743
2520,Ranst,le Roylaan,3C,51.2175873343,4.58728858798
2520,Ranst,Vruntebaan,16,51.1565413898,4.57874083429
2520,Ranst,Broechemsesteenweg,47,51.179259028,4.59301467975
2520,Ranst,Veldstraat,19,51.1865138581,4.56541151507
2520,Ranst,Schransken,14,51.2125205584,4.59820721655
2520,Ranst,Herentalsebaan,109,51.1878266023,4.54148570322
2520,Ranst,Stenenkruisstraat,34,51.1921298708,4.53511116712
2520,Ranst,Venusstraat,20,51.2136812571,4.60136153718
2520,Ranst,Antwerpsesteenweg,32,51.1842102408,4.58894285797
2520,Ranst,le Roylaan,3A,51.217637665,4.58680578311
2520,Ranst,Lostraat,49,51.1837317335,4.60154117974
2520,Ranst,Maislaan,11,51.1827552034,4.56622010888
2520,Ranst,Spruytershofstraat,2D,51.1944141892,4.5464407619
2520,Ranst,Ter Elst,6,51.1834284869,4.56806261326
2520,Ranst,Eksterlaan,23,51.1865332174,4.55494295892
2520,Ranst,Oudstrijdersstraat,57,51.2128129021,4.59286169091
2520,Ranst,Peupelaarsweg,7,51.1917821933,4.54618967031
2520,Ranst,Sint Antoniusstraat,2A,51.187099477,4.54959277478
2520,Ranst,Massenhovensesteenweg,37B,51.1872487051,4.61995448109
2520,Ranst,Heidestraat,40,51.1657781085,4.5876204344
2520,Ranst,Europalaan,10,51.2104199311,4.61110802752
2520,Ranst,Ranstsesteenweg,52,51.1564070904,4.57687377435
2520,Ranst,Liersesteenweg,140,51.1513414314,4.57910611757
2520,Ranst,Vaartstraat,34,51.1942702739,4.56382111834
2520,Ranst,Merellaan,5,51.1876178964,4.55588587359
2520,Ranst,Muizenheuvelstraat,45,51.2152652376,4.59445465999
2520,Ranst,Ranstsebinnenweg,21,51.1524587165,4.57376153757
2520,Ranst,Schildesteenweg,58,51.2158925114,4.59865578861
2520,Ranst,Schawijkstraat,87,51.199472191,4.54804443199
2520,Ranst,Massenhovensesteenweg,32,51.183456187,4.61508953545
2520,Ranst,Creyboschlaan,1,51.2147562642,4.57852339567
2520,Ranst,Lievevrouwestraat,45,51.1889211809,4.56236603601
2520,Ranst,Processieweg,13,51.1905891441,4.56639198574
2520,Ranst,Kapelstraat,11,51.1825992993,4.59562709353
2520,Ranst,Broddestraat,9,51.180769197,4.59717755482
2520,Ranst,Heidestraat,29,51.1663918776,4.5833091705
2520,Ranst,Jozef De Voghtstraat,2,51.1791772092,4.60295545719
2520,Ranst,Oudstrijdersstraat,93,51.2136514815,4.58940730812
2520,Ranst,Vaartstraat,151,51.2073217624,4.59096129496
2520,Ranst,Laarstraat,4C,51.1927124885,4.56704171862
2520,Ranst,Dorpstraat,127,51.159481389,4.59429080656
2520,Ranst,Liersesteenweg,129,51.152687867,4.58208845835
2520,Ranst,Molenstraat,70,51.1918887256,4.56503601435
2520,Ranst,Oelegemsesteenweg,22,51.1934137918,4.60396024299
2520,Ranst,Knodbaan,59A,51.2166982957,4.60841859568
2520,Ranst,Vaartstraat,83E,51.2039496956,4.57522182474
2520,Ranst,Rundvoortstraat,41,51.2143595712,4.59104445116
2520,Ranst,Sint Antoniusstraat,24A,51.184130397,4.54693234325
2520,Ranst,Dorpstraat,109,51.1613728377,4.60110086476
2520,Ranst,Doggenhoutstraat,32,51.1883238067,4.56181658886
2520,Ranst,Juul Persijnstraat,21,51.1804425131,4.60201310121
2520,Ranst,Rundvoortstraat,13,51.2112022486,4.5918255842
2520,Ranst,Voetweg,2,51.1823972941,4.60348752188
2520,Ranst,Ranstsesteenweg,4,51.1525749233,4.58052149411
2520,Ranst,Kreupelstraat,23A,51.171610824,4.60684096075
2520,Ranst,Berkenlaan,25,51.1909345613,4.55741331752
2520,Ranst,Abelebaan,57,51.1813484023,4.58806051409
2520,Ranst,van Steenbergenlaan,17,51.2187033021,4.587985709
2520,Ranst,Veldstraat,37,51.1859482484,4.56614012933
2520,Ranst,Zavelstraat,11,51.2154762462,4.56196274998
2520,Ranst,Fruithoflaan,2,51.1567093984,4.58528280081
2520,Ranst,Oudstrijdersstraat,22,51.211483634,4.59463249906
2520,Ranst,Wilgenlaan,27,51.1932297227,4.5570552842
2520,Ranst,Venusstraat,55,51.2159594767,4.607028543
2520,Ranst,Louis Ecranlaan,5,51.2145325611,4.58614992483
2520,Ranst,Kapelstraat,16A,51.1834108599,4.59818779262
2520,Ranst,Massenhovensesteenweg,14,51.1816670864,4.61036649167
2520,Ranst,Emblemseweg,81,51.1667435236,4.59992274546
2520,Ranst,Molenstraat,52,51.1916769146,4.56387117398
2520,Ranst,Profeetstraat,9,51.1890779554,4.55392014774
2520,Ranst,Massenhovensesteenweg,60,51.1862865693,4.62718690636
2520,Ranst,Oudstrijdersstraat,75,51.2130058402,4.5916526325
2520,Ranst,Liersesteenweg,74A,51.1551437039,4.58531096435
2520,Ranst,Zandhovensteenweg,28,51.2106531919,4.60287600757
2520,Ranst,Veldstraat,83,51.1829989237,4.56689132172
2520,Ranst,Vremderhoeven,1A,51.1703459009,4.56816312063
2520,Ranst,Lievevrouwestraat,63,51.1883047338,4.56308364166
2520,Ranst,Liersesteenweg,76,51.1550785821,4.58513942925
2520,Ranst,Broechemlei,50,51.1878911814,4.56950662689
2520,Ranst,Binnenweg,10,51.2113335718,4.5991136478
2520,Ranst,Broddestraat,38,51.178807014,4.59873653712
2520,Ranst,Keerbaan,19,51.21726639,4.56446309513
2520,Ranst,Broechemsesteenweg,75,51.1777697319,4.5926258313
2520,Ranst,Lostraat,32,51.1833523622,4.60220431693
2520,Ranst,Massenhovensesteenweg,42,51.1870593361,4.62045063047
2520,Ranst,Vaartstraat,62,51.1954920024,4.56278108247
2520,Ranst,Kievitlaan,40,51.186314102,4.55673692927
2520,Ranst,Antwerpsesteenweg,49,51.1835086426,4.59145080332
2520,Ranst,Salielaan,8,51.1793265016,4.59430148653
2520,Ranst,Ranstsesteenweg,200,51.1865876965,4.56349324914
2520,Ranst,Vaartstraat,44,51.1946948011,4.56354966862
2520,Ranst,van Halmalelaan,20,51.2182791377,4.58191004067
2520,Ranst,Dorpstraat,103B,51.1614644131,4.6014289662
2520,Ranst,Vaartstraat,118A,51.2047742707,4.57844358643
2520,Ranst,le Roylaan,3,51.217653476,4.58656741361
2520,Ranst,Torekenshoefstraat,25,51.1713933108,4.59451268164
2520,Ranst,Schildesteenweg,23,51.2127817129,4.59781710342
2520,Ranst,Dorpstraat,21,51.1633861867,4.6075772972
2520,Ranst,Spruytershofstraat,5,51.1946931374,4.54689344616
2520,Ranst,Hofstraat,16,51.1864840863,4.56798946418
2520,Ranst,Kriekenstraat,3,51.1893945108,4.54842322538
2520,Ranst,Cijnshoevenweg,10,51.1885436002,4.54597076579
2520,Ranst,Emblemseweg,17,51.1781148664,4.60604553836
2520,Ranst,Zwetstraat,1,51.2144996442,4.55079539827
2520,Ranst,Achterlo,12,51.1830284429,4.57990257887
2520,Ranst,Oude Vaartstraat,24,51.2037208968,4.57708357548
2520,Ranst,Laarstraat,35,51.1945299551,4.57785736776
2520,Ranst,Hooiveld,29,51.1848585215,4.56493082305
2520,Ranst,Knodbaan,39,51.2172167813,4.59601257332
2520,Ranst,Broechemsesteenweg,93,51.1703969884,4.59217000523
2520,Ranst,Oostmalsesteenweg,88A,51.1682179094,4.6181682938
2520,Ranst,Ranstsesteenweg,198,51.1865482459,4.56343344127
2520,Ranst,Nierlenderstraat,11,51.1788162736,4.59196189246
2520,Ranst,Tarwelaan,5,51.1835660444,4.56434514322
2520,Ranst,Selsaetenstraat,12,51.1965516641,4.54160511713
2520,Ranst,Wijnegembaan,20,51.204671197,4.55133294781
2520,Ranst,Knodbaan,98,51.2173898255,4.60325471308
2520,Ranst,Kantonbaan,9,51.2260876015,4.63101920996
2520,Ranst,Juul Persijnstraat,4,51.1805702874,4.60162604215
2520,Ranst,Antwerpsesteenweg,67,51.1854994016,4.58636750493
2520,Ranst,Hazenstraat,10,51.21650993,4.60479425425
2520,Ranst,Rundvoortstraat,31,51.2123872449,4.59137246785
2520,Ranst,Moorstraat,11,51.1918052026,4.5888440659
2520,Ranst,Lostraat,14,51.1825490763,4.60219327878
2520,Ranst,Abelebaan,29,51.1814918535,4.59117915029
2520,Ranst,Vorstjensweg,13,51.1797556469,4.60212878308
2520,Ranst,Jozef Simonslaan,17,51.2151219415,4.58842378396
2520,Ranst,Zakstraat,25,51.1969150923,4.57333267005
2520,Ranst,Nieuwelaan,36,51.2137842826,4.59234201246
2520,Ranst,Broechemsesteenweg,111,51.168177466,4.59215220109
2520,Ranst,Haegenbroekseweg,6,51.1540763975,4.57127398949
2520,Ranst,Herentalsebaan,173,51.1913893257,4.53737187929
2520,Ranst,Liersesteenweg,58,51.1560680696,4.58698016824
2520,Ranst,Oostmalsesteenweg,48C,51.1646480302,4.60854060955
2520,Ranst,Kruizemuntlaan,6,51.180487351,4.59604410771
2520,Ranst,Profeetstraat,38,51.1877278979,4.5519546668
2520,Ranst,Herentalsebaan,21,51.1823245271,4.55137690342
2520,Ranst,Processieweg,66,51.1885013609,4.56863904272
2520,Ranst,Van den Nestlaan,48,51.1790815777,4.58646089807
2520,Ranst,Korenveld,10,51.185774294,4.56432453962
2520,Ranst,Lievevrouwestraat,6,51.1903895407,4.56132824719
2520,Ranst,van Steenbergenlaan,6,51.2194156026,4.58606198156
2520,Ranst,van Colenlaan,14,51.2169495971,4.58705015527
2520,Ranst,Kievitlaan,29,51.1871743835,4.55859221475
2520,Ranst,Schawijkstraat,37,51.1954909127,4.54308064853
2520,Ranst,Van den Nestlaan,64,51.1789713431,4.58706228952
2520,Ranst,Molenstraat,4,51.1908061615,4.56138146766
2520,Ranst,Antwerpsesteenweg,85,51.1859262282,4.58231356691
2520,Ranst,Herentalsebaan,74,51.1859329972,4.54445517836
2520,Ranst,Konijnenbos,22,51.2153755595,4.59193534342
2520,Ranst,Wilgenlaan,7,51.1923965701,4.55756501466
2520,Ranst,Rembrandtlaan,1B,51.1846848706,4.59415169063
2520,Ranst,Gustaaf Peetersstraat,54,51.1799272153,4.60542897777
2520,Ranst,Bieslooklaan,27,51.1789426261,4.59680821564
2520,Ranst,Oude Vaartstraat,59,51.2040457732,4.58223668641
2520,Ranst,Pertendonckstraat,20,51.1821206805,4.59872102431
2520,Ranst,Broechemlei,39,51.1874849613,4.56745667187
2520,Ranst,Kapelstraat,99,51.1846189079,4.60720157593
2520,Ranst,Emblemseweg,6,51.1792731632,4.60589742754
2520,Ranst,Goudbloemlaan,3,51.1897049474,4.56526152011
2520,Ranst,Gasthuisstraat,13,51.1892365853,4.55855915508
2520,Ranst,Zandhovensteenweg,8,51.2103597615,4.60144723925
2520,Ranst,Oudstrijdersstraat,146,51.2131528644,4.58545024967
2520,Ranst,Oudstrijdersstraat,111,51.2138674421,4.58768941682
2520,Ranst,Kromstraat,94,51.1934823649,4.54499655181
2520,Ranst,de Fraulalaan,50,51.2157363561,4.58844285966
2520,Ranst,Kastanjelaan,26,51.1936336369,4.55498298723
2520,Ranst,Muizenheuvelstraat,6,51.2128392857,4.59495406754
2520,Ranst,Herentalsebaan,56,51.1851658285,4.54625037105
2520,Ranst,Marreweg,34,51.1815527764,4.57370500437
2520,Ranst,Kardinaal Cardijnlaan,57,51.2170712016,4.60202326079
2520,Ranst,Sparrenweg,14,51.1574778354,4.57782710568
2520,Ranst,Selsaetenstraat,30,51.19715658,4.54032168417
2520,Ranst,Rubenslaan,2,51.1839336907,4.59695582147
2520,Ranst,Broechemsesteenweg,57,51.1787151056,4.59302721646
2520,Ranst,Kapelstraat,36,51.1837732885,4.59974634838
2520,Ranst,Maasweg,2,51.204357021,4.59261346821
2520,Ranst,Bistweg,22,51.1888737,4.59255568957
2520,Ranst,Broechemsesteenweg,39,51.1797470191,4.59287216561
2520,Ranst,Oudstrijdersstraat,50,51.2119983311,4.59316458402
2520,Ranst,Ranstsesteenweg,59,51.1632664119,4.57057318977
2520,Ranst,Nauwelaershoeven,1,51.1803401684,4.61429092445
2520,Ranst,Pertendonckstraat,7,51.1817163218,4.60007922531
2520,Ranst,Dorpstraat,74,51.1620915468,4.60279115712
2520,Ranst,Pater Damiaanstraat,4,51.2146477831,4.59999233205
2520,Ranst,Venusstraat,37,51.2149026053,4.60667707484
2520,Ranst,Ranstsebinnenweg,4,51.1512454892,4.57552425499
2520,Ranst,Mollentstraat,1,51.1792253335,4.60763742043
2520,Ranst,Zandhovensteenweg,11,51.2102123287,4.6027295424
2520,Ranst,Fruithoflaan,13,51.1557567571,4.58475809036
2520,Ranst,Bremstraat,2,51.1715303051,4.59338049931
2520,Ranst,Doggenhoutstraat,55B,51.1877454354,4.56310304486
2520,Ranst,Dennenlaan,15,51.1917044311,4.55746736548
2520,Ranst,Van den Nestlaan,16A,51.1804188377,4.59149135794
2520,Ranst,Liersesteenweg,157,51.1512902257,4.57984249593
2520,Ranst,Bolkerhoeveweg,2,51.2087779724,4.60230963569
2520,Ranst,Bremstraat,36,51.1723717079,4.60021365147
2520,Ranst,Kromstraat,6,51.1895186255,4.55672271028
2520,Ranst,Kardinaal Cardijnlaan,39,51.2160380295,4.60231590698
2520,Ranst,Lievevrouwestraat,6A,51.1903459616,4.56137383934
2520,Ranst,Pertendonckstraat,55,51.1813609765,4.59682078447
2520,Ranst,Melisselaan,5,51.1796931506,4.59630808028
2520,Ranst,Oudstrijdersstraat,164,51.2129980199,4.58425943215
2520,Ranst,Rembrandtlaan,22,51.1836683275,4.5953371149
2520,Ranst,Boekweitlaan,39,51.181655254,4.56617854095
2520,Ranst,Molenstraat,24,51.1912379152,4.56229186119
2520,Ranst,Sint Antoniusstraat,31,51.1841370724,4.54614303898
2520,Ranst,Venweg,10,51.169382873,4.6138683956
2520,Ranst,Herentalsebaan,120,51.1887266034,4.53921851884
2520,Ranst,Rundvoortstraat,66,51.2164434857,4.59093147605
2520,Ranst,Dorpstraat,102,51.1609970949,4.59932684001
2520,Ranst,Bremstraat,18,51.1718069202,4.59760969671
2520,Ranst,van Halmalelaan,7,51.2177830292,4.58193037908
2520,Ranst,Schelkenshof,17,51.1796340502,4.59947310641
2520,Ranst,Heiken,15,51.153810888,4.5767276698
2520,Ranst,de Fraulalaan,22,51.2160804355,4.59012312425
2520,Ranst,Tarwelaan,25,51.182856428,4.56236981648
2520,Ranst,Notelaarweg,22,51.1561907314,4.58293696791
2520,Ranst,Rundvoortstraat,9,51.2107756495,4.5918291184
2520,Ranst,Eksterlaan,6,51.1871815135,4.55423240869
2520,Ranst,Dorpstraat,56,51.1622070771,4.60381571442
2520,Ranst,Heiken,33,51.1517506155,4.57595369118
2520,Ranst,Vaartstraat,115,51.20490849,4.58621638895
2520,Ranst,Oelegemsesteenweg,8C,51.186068362,4.60332668784
2520,Ranst,Schranshoeveweg,14,51.1548975052,4.574540964
2520,Ranst,Berkenlaan,8,51.1911893797,4.55842408598
2520,Ranst,Handboogweg,12,51.1591400676,4.57199845509
2520,Ranst,Zevenbergenlaan,33A,51.193011398,4.56357065251
2520,Ranst,Schaubroekweg,5,51.1858507655,4.54238714516
2520,Ranst,Liersesteenweg,193,51.1497510548,4.57830703672
2520,Ranst,van Vrieselelaan,17,51.2181750763,4.58568949562
2520,Ranst,Heidestraat,30,51.1676605311,4.58192320577
2520,Ranst,Pater Domstraat,44,51.1852026874,4.60677063271
2520,Ranst,Dennenlaan,40,51.1925828388,4.55676199357
2520,Ranst,Doggenhoutstraat,49,51.1878129679,4.562540354
2520,Ranst,Veldstraat,105,51.1809549882,4.56733495668
2520,Ranst,Jozef Simonslaan,6A,51.2160571521,4.58484608911
2520,Ranst,Berkenlaan,71,51.1920646102,4.55457975194
2520,Ranst,Molenstraat,59,51.1916349165,4.56512777808
2520,Ranst,Schelkenshof,5,51.1799984839,4.59876487854
2520,Ranst,Dorpstraat,1C,51.16492384,4.61085000771
2520,Ranst,Processieweg,9,51.1908160766,4.56630140411
2520,Ranst,Liersesteenweg,51,51.1559712699,4.58799154694
2520,Ranst,Vaartstraat,87,51.2047963297,4.58197843216
2520,Ranst,Sint Gummarusstraat,2A,51.1700413755,4.58622987119
2520,Ranst,Zwaluwenlaan,25,51.1871669097,4.55294279403
2520,Ranst,Achterstraat,15,51.2110799105,4.59324830275
2520,Ranst,Kromstraat,51,51.1924822972,4.55327126283
2520,Ranst,Oeverweg,12,51.1530310474,4.57513657053
2520,Ranst,Herentalsebaan,155,51.1907705425,4.54005765559
2520,Ranst,Dennenlaan,33,51.1922741585,4.55637681116
2520,Ranst,Liersesteenweg,122,51.1522896723,4.58019433167
2520,Ranst,Hutveld,24A,51.1605115081,4.57685868106
2520,Ranst,Broddestraat,41,51.1779843221,4.59798214012
2520,Ranst,Veldstraat,20,51.186743023,4.5656522001
2520,Ranst,Vlotstraat,2,51.2105744246,4.59836718854
2520,Ranst,Oostmalsesteenweg,98,51.1714568154,4.62227607757
2520,Ranst,Emblemseweg,35,51.1770992394,4.60416778513
2520,Ranst,Kromstraat,122,51.1934730641,4.53947611073
2520,Ranst,Antwerpsesteenweg,42,51.1851122191,4.58624626885
2520,Ranst,Massenhovensesteenweg,49,51.1873888389,4.62475621074
2520,Ranst,Alliers,14,51.1530508302,4.57130425733
2520,Ranst,Broechemlei,47,51.1873617859,4.56848524951
2520,Ranst,Liersesteenweg,175,51.1506293498,4.5791060437
2520,Ranst,Vaartstraat,83L,51.2041485364,4.57689848368
2520,Ranst,Creyboschlaan,8,51.2153904516,4.57834221009
2520,Ranst,Oelegemsesteenweg,39,51.1993481221,4.59829760111
2520,Ranst,Kromstraat,71E,51.194133162,4.5471253313
2520,Ranst,Hutveld,2,51.1574717723,4.58836239435
2520,Ranst,Heidestraat,12,51.1704463205,4.58505419124
2520,Ranst,Tulpenlaan,5,51.1888340329,4.56698698876
2520,Ranst,Kanaalstraat,9,51.156079005,4.58988622539
2520,Ranst,Oudstrijdersstraat,118,51.2132744313,4.58824389446
2520,Ranst,Boomgaardweg,21,51.1780670789,4.59243406621
2520,Ranst,Burgemeester Louis Pittoorslaan,2,51.1806856004,4.56176914589
2520,Ranst,Zakstraat,8,51.1956351621,4.56913092517
2520,Ranst,Vruntebaan,4B,51.1567612982,4.57911760726
2520,Ranst,Hemelstraat,3,51.2158489466,4.60043123805
2520,Ranst,Ranstsesteenweg,51B,51.1579240814,4.57545815959
2520,Ranst,Merellaan,34,51.1863038556,4.55577731879
2520,Ranst,Streep,20,51.1819212745,4.60379560378
2520,Ranst,Keerbaan,20,51.2157968703,4.56747053413
2520,Ranst,Oudstrijdersstraat,118B,51.213243074,4.58794750887
2520,Ranst,Beemdenstraat,6,51.1860637975,4.62009783382
2520,Ranst,Dorpstraat,38,51.1621646806,4.60496856286
2520,Ranst,Hutveld,14C,51.1584005186,4.58621078486
2520,Ranst,Abelebaan,12,51.1811465927,4.59051721545
2520,Ranst,Rubenslaan,31,51.1856441531,4.59343334551
2520,Ranst,Achterstraat,86,51.2107990467,4.59309325459
2520,Ranst,Gustaaf Peetersstraat,5,51.181254245,4.60261538934
2520,Ranst,Broechemlei,57,51.1873654835,4.56900718351
2520,Ranst,De Voortstraat,11A,51.1624562524,4.60884453437
2520,Ranst,Schawijkstraat,44,51.1964735907,4.54401178177
2520,Ranst,Pertendonckstraat,19,51.1817685011,4.5992766071
2520,Ranst,Muizenheuvelstraat,35,51.214741385,4.59487974314
2520,Ranst,Antwerpsesteenweg,60,51.185873253,4.58008955628
2520,Ranst,Knodbaan,22,51.2175927399,4.60018459564
2520,Ranst,Ranstsesteenweg,51D,51.1582701236,4.57531618354
2520,Ranst,Venusstraat,7,51.2129349382,4.60008642281
2520,Ranst,Achterstraat,68,51.2107217941,4.59429236464
2520,Ranst,Abelebaan,30,51.180992686,4.58846713369
2520,Ranst,Vlotstraat,18,51.2097364599,4.59835174577
2520,Ranst,Salielaan,1,51.179774419,4.59485523718
2520,Ranst,Gasthuisstraat,9,51.1891011436,4.55849380694
2520,Ranst,Schawijkstraat,80,51.1981022311,4.54592309781
2520,Ranst,Hutveld,18,51.1589565347,4.58470875924
2520,Ranst,Vorstjensweg,15A,51.1795285051,4.60226507324
2520,Ranst,Van den Nestlaan,89,51.1778548572,4.58246484679
2520,Ranst,Fransehoeveweg,2,51.1696971859,4.59304194729
2520,Ranst,Merellaan,16,51.1870953596,4.55551074918
2520,Ranst,Gustaaf Peetersstraat,32A,51.1797938667,4.60275377426
2520,Ranst,Klaverstraat,7,51.1753056685,4.58805290853
2520,Ranst,Zevenbergenlaan,35A,51.1930891451,4.56384419993
2520,Ranst,Molenstraat,77,51.1918210101,4.56586223724
2520,Ranst,Crauwelsveld,19,51.1954227809,4.53946181616
2520,Ranst,Hooiveld,30,51.1847235798,4.56489106563
2520,Ranst,Ranstsesteenweg,181,51.1861563868,4.56204472751
2520,Ranst,Sint Jozef,4,51.1762835818,4.58378821184
2520,Ranst,Kromstraat,104,51.1934481992,4.54391897731
2520,Ranst,Dorpstraat,1A,51.1650875478,4.61101269258
2520,Ranst,Kriekenstraat,43,51.1929388263,4.54744317639
2520,Ranst,Knodbaan,47,51.217309001,4.59703677901
2520,Ranst,Gemeenteplein,28,51.1813457825,4.60228120088
2520,Ranst,Van den Nestlaan,61C,51.179344224,4.58514404121
2520,Ranst,Kreupelstraat,5,51.1672961416,4.61101303532
2520,Ranst,Profeetstraat,21,51.188584401,4.55328697226
2520,Ranst,Ranstsesteenweg,163,51.1847559642,4.56155634832
2520,Ranst,Zandhovensteenweg,1,51.2098632767,4.60142786902
2520,Ranst,Herentalsebaan,38,51.184163984,4.5476631639
2520,Ranst,Kievitlaan,30,51.186643071,4.5573060813
2520,Ranst,Broechemlei,93,51.1864565861,4.57513615355
2520,Ranst,Zevenbergenlaan,18,51.1930229254,4.56203007637
2520,Ranst,Gerstelaan,16,51.1823145504,4.56629403568
2520,Ranst,Van den Nestlaan,36,51.179344847,4.58757943574
2520,Ranst,Profeetstraat,74,51.1878055603,4.54768833702
2520,Ranst,Herentalsebaan,4,51.178581324,4.56294991514
2520,Ranst,Broechemsesteenweg,118,51.1686906993,4.59296460898
2520,Ranst,Broechemhof,4,51.1940447491,4.61338134925
2520,Ranst,Kievitlaan,65,51.1859078183,4.55668179483
2520,Ranst,Van den Nestlaan,2,51.1807893386,4.59282227065
2520,Ranst,Vorstjensweg,9,51.1798496925,4.60216143147
2520,Ranst,Schildesteenweg,51,51.2145997799,4.59866227661
2520,Ranst,Spoorweglei,26,51.1573206738,4.585842533
2520,Ranst,Broechemsesteenweg,50,51.1788723339,4.59367750106
2520,Ranst,Vaartstraat,133,51.206924056,4.59003588793
2520,Ranst,Keerbaan,44,51.2181554196,4.55915232739
2520,Ranst,Kloosterstraat,27,51.163407351,4.60653553319
2520,Ranst,Pertendonckstraat,37,51.1816869276,4.5983343179
2520,Ranst,Liersesteenweg,6,51.1580539684,4.58994563742
2520,Ranst,John Kennedylaan,6,51.2140173843,4.60696292049
2520,Ranst,Torekenshoefstraat,8,51.1711116211,4.59398957817
2520,Ranst,Schawijkplasweg,34,51.202984297,4.54641930843
2520,Ranst,Voetweg,13,51.1827340926,4.60353412815
2520,Ranst,Sint Gummarusstraat,9,51.1670610851,4.58938512223
2520,Ranst,Dorpstraat,4,51.1642241465,4.609103975
2520,Ranst,Bieslooklaan,10,51.1791238635,4.5957703131
2520,Ranst,Jozef De Voghtstraat,13,51.1793002096,4.60401946836
2520,Ranst,Knodbaan,18E,51.218035615,4.59870746337
2520,Ranst,Zevenbergenlaan,2,51.1926178926,4.56016564077
2520,Ranst,Ranstsesteenweg,24,51.1533865621,4.5792394207
2520,Ranst,Kamillelaan,4,51.1784224237,4.59798301136
2520,Ranst,Broechemlei,75,51.1871484603,4.57181220746
2520,Ranst,Louis Ecranlaan,16,51.2141287055,4.58527361802
2520,Ranst,Knodbaan,73,51.217131226,4.61151483828
2520,Ranst,Profeetstraat,56,51.1851406795,4.55479378637
2520,Ranst,Maislaan,7,51.1827369254,4.56580957462
2520,Ranst,Kievitlaan,12,51.1872920785,4.55812398545
2520,Ranst,Hutveld,16A,51.1587182804,4.58522825135
2520,Ranst,Korenveld,27,51.184283644,4.56323345609
2520,Ranst,Lankveld,3,51.2121593957,4.60886001345
2520,Ranst,Vaartstraat,12A,51.1931929535,4.56455358289
2520,Ranst,Muizenheuvelstraat,53,51.2162355712,4.59382749982
2520,Ranst,Valkenlaan,7,51.1878012594,4.55532149335
2520,Ranst,Weidestraat,7,51.1567239404,4.57503573983
2520,Ranst,Slijkstraat,4,51.1784175347,4.58082818717
2520,Ranst,Ranstsebinnenweg,31,51.1527319769,4.57355207072
2520,Ranst,van Gheldenakenlaan,7,51.2178928303,4.58343654887
2520,Ranst,Vaartstraat,26,51.1939413214,4.56402172552
2520,Ranst,Eksterlaan,33,51.1860638273,4.55494851642
2520,Ranst,Keerbaan,7,51.2144532957,4.57005471453
2520,Ranst,Broechemsesteenweg,12,51.1813222157,4.59426382451
2520,Ranst,Fazantenstraat,8,51.215939628,4.60379711629
2520,Ranst,Lindenlaan,17,51.1917276347,4.55874455447
2520,Ranst,Gemeenteplein,1,51.1810834991,4.60209826006
2520,Ranst,Asbroek,5,51.195603889,4.57922752135
2520,Ranst,Kardinaal Cardijnlaan,12,51.2156288843,4.60140233744
2520,Ranst,Knodbaan,55,51.2175499836,4.59740650455
2520,Ranst,Streep,7,51.182250384,4.60328041014
2520,Ranst,Rozenlaan,28,51.1910970032,4.5629299565
2520,Ranst,Rubenslaan,9,51.1841031264,4.5972795931
2520,Ranst,Emblemseweg,53,51.174349635,4.60195167548
2520,Ranst,Herentalsebaan,13,51.1803934238,4.55572951969
2520,Ranst,Ranstsesteenweg,155,51.1841567951,4.56111235935
2520,Ranst,Europalaan,20,51.2095544671,4.61135265231
2520,Ranst,Gustaaf Peetersstraat,34,51.1803095891,4.60430801568
2520,Ranst,Broechemsesteenweg,30,51.1802846257,4.59400280944
2520,Ranst,Schildesteenweg,68,51.2166514578,4.59885948086
2520,Ranst,Gemeenteplein,18,51.1820216785,4.60107626568
2520,Ranst,John Kennedylaan,33,51.2121564055,4.60647712827
2520,Ranst,Liersesteenweg,33,51.1573293488,4.59006526409
2520,Ranst,Bistweg,29,51.1883890155,4.60147351426
2520,Ranst,Wilgenlaan,19,51.1928977746,4.55722531028
2520,Ranst,Kardinaal Cardijnlaan,30,51.2166670287,4.60164067553
2520,Ranst,Boekweitlaan,12,51.181381647,4.5650470118
2520,Ranst,Kapelstraat,8,51.1827025092,4.59715086359
2520,Ranst,Processieweg,48,51.1894947775,4.56762789368
2520,Ranst,Liersesteenweg,137,51.1521416368,4.58088926363
2520,Ranst,Gasthuisstraat,21,51.1898737408,4.56002846905
2520,Ranst,Nierlenderstraat,1,51.1789709891,4.59261316379
2520,Ranst,Sint Antoniusstraat,1A,51.187268963,4.54914875368
2520,Ranst,Abelebaan,65,51.1812835444,4.58745927227
2520,Ranst,Rubenslaan,11,51.1842457201,4.59702972065
2520,Ranst,Kantonbaan,2,51.2287999709,4.61517003766
2520,Ranst,Veldstraat,91,51.1822332485,4.56701620065
2520,Ranst,Oudstrijdersstraat,12,51.2111520135,4.59526011429
2520,Ranst,Vaartstraat,126A,51.2062862154,4.58095746026
2520,Ranst,Torenplein,5,51.2112463676,4.59787694155
2520,Ranst,Berkenlaan,35,51.191069543,4.55669894265
2520,Ranst,Veldstraat,27,51.1861194821,4.56527926385
2520,Ranst,Oelegemsesteenweg,12,51.1885648827,4.60501520869
2520,Ranst,Liersesteenweg,119,51.1535718384,4.58321105679
2520,Ranst,Dorpstraat,13,51.1637582768,4.6085254475
2520,Ranst,Kapelstraat,125,51.1859129752,4.61610272405
2520,Ranst,John Kennedylaan,15,51.2134422406,4.60654853105
2520,Ranst,Stapstraat,6,51.162729706,4.60362064652
2520,Ranst,Liersesteenweg,15,51.1578129737,4.59042834423
2520,Ranst,Hulstweg,8,51.1581640395,4.57706030804
2520,Ranst,Dorpstraat,117,51.1612185634,4.60061420586
2520,Ranst,Oudstrijdersstraat,30,51.2116466048,4.59425177271
2520,Ranst,Kromstraat,15,51.1897210201,4.55713318837
2520,Ranst,Ranstsesteenweg,210,51.1871229856,4.56380586548
2520,Ranst,Dennenlaan,57,51.1927485165,4.5545415746
2520,Ranst,Bremstraat,11,51.1726364216,4.59892981446
2520,Ranst,Zandhovensteenweg,18,51.2107479878,4.60203103616
2520,Ranst,Schranshoeveweg,18B,51.1541796764,4.57381742857
2520,Ranst,Hooiveld,12,51.1840020912,4.56395853468
2520,Ranst,Juul Persijnstraat,31,51.1795029924,4.6018037491
2520,Ranst,Spoorweglei,5,51.1565094769,4.58650840481
2520,Ranst,Doggenhoutstraat,24,51.1885141764,4.56110721587
2520,Ranst,Kromstraat,119,51.194015324,4.54109099971
2520,Ranst,Lievevrouwestraat,53,51.188450605,4.56249137646
2520,Ranst,Dorpstraat,41,51.1620332034,4.60549239045
2520,Ranst,Emblemseweg,71,51.1730563893,4.60116191352
2520,Ranst,Veldstraat,73,51.1838016365,4.56676344997
2520,Ranst,Spoorweglei,28B,51.1576589782,4.58512555384
2520,Ranst,Molenstraat,42,51.1914562325,4.56328205515
2520,Ranst,Eksterlaan,15,51.1868939627,4.55480680987
2520,Ranst,Massenhovensesteenweg,24,51.1830926395,4.6143384847
2520,Ranst,Zandhovensteenweg,64,51.2111103895,4.60689193277
2520,Ranst,Nieuwelaan,8,51.2137543474,4.59647521566
2520,Ranst,Oudstrijdersstraat,101,51.2135784523,4.58846815362
2520,Ranst,Fruithoflaan,9,51.1559851318,4.58511519983
2520,Ranst,Bieslooklaan,19,51.1787757381,4.59595566417
2520,Ranst,Nieuwelaan,28,51.2137744715,4.59433035763
2520,Ranst,van Halmalelaan,10,51.2176583064,4.5809139169
2520,Ranst,Nachtegalenlaan,6,51.1885172681,4.55685754745
2520,Ranst,Ter Stratenweg,19,51.2109573757,4.58143699902
2520,Ranst,Veldstraat,7,51.1868073107,4.56504831899
2520,Ranst,Hofstraat,26,51.1859572677,4.56756427876
2520,Ranst,Knodbaan,29,51.217266108,4.59532253553
2520,Ranst,Oeverweg,22,51.153434509,4.57643598992
2520,Ranst,Vaartstraat,90,51.2011419739,4.56806630769
2520,Ranst,Antwerpsesteenweg,77,51.1854956905,4.58525976038
2520,Ranst,Oelegemsesteenweg,35B,51.192652612,4.60352525116
2520,Ranst,Gustaaf Peetersstraat,62,51.1796146887,4.60622979999
2520,Ranst,Lostraat,5,51.1821368561,4.60178705134
2520,Ranst,Oude Vaartstraat,32,51.2035241975,4.57831747486
2520,Ranst,Hogenaardseweg,7,51.2095625263,4.56470840749
2520,Ranst,Laarstraat,25,51.1941961007,4.57212036261
2520,Ranst,Juul Persijnstraat,13,51.1775019244,4.60095474392
2520,Ranst,Kromstraat,86,51.1927204376,4.54605478316
2520,Ranst,Gustaaf Peetersstraat,44,51.1801429426,4.60480112352
2520,Ranst,Antwerpsesteenweg,83D,51.1857979181,4.5829809079
2520,Ranst,Profeetstraat,2,51.1891033578,4.55542212388
2520,Ranst,Profeetstraat,41,51.188005071,4.55157128825
2520,Ranst,Zwaluwenlaan,17,51.1865938042,4.55299816362
2520,Ranst,Antwerpsesteenweg,95,51.1879201061,4.57808625098
2520,Ranst,Lindenlaan,6,51.1912790047,4.55964174247
2520,Ranst,Schranshoeveweg,4,51.1555389514,4.5761189221
2520,Ranst,Van den Nestlaan,109C,51.1752971455,4.57388120802
2520,Ranst,Donkereweg,8,51.190648022,4.56947218429
2520,Ranst,Liersesteenweg,86,51.1543577391,4.58369134748
2520,Ranst,Veenmolstraat,6,51.2123659093,4.59034070554
2520,Ranst,Jozef De Voghtstraat,9,51.1793995468,4.60360739761
2520,Ranst,Van den Nestlaan,11,51.1810796544,4.59202552269
2520,Ranst,Oostmalsesteenweg,37,51.1651820333,4.60712945909
2520,Ranst,Broechemsesteenweg,65,51.1783593727,4.5929617224
2520,Ranst,Boomgaardweg,2,51.1784462714,4.59131417174
2520,Ranst,Oude Vaartstraat,4,51.2029535046,4.57372781254
2520,Ranst,Streep,27,51.1821750686,4.6051197722
2520,Ranst,Kromstraat,68,51.1939196574,4.54826691269
2520,Ranst,Massenhovensesteenweg,52,51.1866991941,4.62531308961
2520,Ranst,Achterstraat,3,51.2110425554,4.59402975208
2520,Ranst,Voetweg,9,51.1826511234,4.60331089026
2520,Ranst,Oude Vaartstraat,14,51.2032686662,4.57520592304
2520,Ranst,Broechemlei,40,51.1877019816,4.56833824407
2520,Ranst,Abelebaan,39,51.1814030516,4.58964820812
2520,Ranst,Herentalsebaan,163,51.1906630939,4.53840714522
2520,Ranst,Liersesteenweg,68,51.155481134,4.58619057095
2520,Ranst,Lostraat,24,51.1829898021,4.6021849067
2520,Ranst,Hazenstraat,20,51.2161384509,4.60572836608
2520,Ranst,Gerstelaan,6,51.1822314979,4.56521878439
2520,Ranst,Liersesteenweg,183,51.1503511516,4.57865245372
2520,Ranst,Kapelstraat,34A,51.1836763494,4.5996304505
2520,Ranst,Bremstraat,7B,51.1722249928,4.59709372089
2520,Ranst,Zevenbergenlaan,11,51.1924887286,4.56137756784
2520,Ranst,Rubenslaan,38,51.1857536094,4.59098241467
2520,Ranst,de Fraulalaan,40,51.2153570356,4.58936144871
2520,Ranst,Sint Antoniusstraat,9,51.1860240497,4.54791403984
2520,Ranst,Salvialaan,1,51.188550344,4.56387249981
2520,Ranst,Kastanjelaan,34,51.1933724957,4.55391608441
2520,Ranst,Kapelstraat,28,51.1833677362,4.59923576157
2520,Ranst,Schildesteenweg,4A,51.2114274905,4.59666888806
2520,Ranst,Vlotstraat,11,51.2097766437,4.59788715752
2520,Ranst,Tulpenlaan,16,51.1884906359,4.56786017704
2520,Ranst,Vlotstraat,46,51.2083508355,4.59796269747
2520,Ranst,Broechemlei,29,51.1873188301,4.56688369772
2520,Ranst,Kloosterstraat,20,51.1627985436,4.60497621095
2520,Ranst,Kreupelstraat,11C,51.1687718831,4.61022992822
2520,Ranst,Schildesteenweg,15,51.2121547738,4.5974437979
2520,Ranst,Haverlaan,3,51.1817271751,4.56292844339
2520,Ranst,Rozenlaan,8,51.1895034745,4.56388036171
2520,Ranst,Oostmalsesteenweg,14B,51.1624718034,4.60004305568
2520,Ranst,van Colenlaan,24,51.2169165142,4.58831118387
2520,Ranst,Konijnenbos,12,51.2148936506,4.59252438115
2520,Ranst,Crauwelsveld,10,51.1952772322,4.53991218943
2520,Ranst,Korenveld,20,51.1851402843,4.56446160711
2520,Ranst,Vaartstraat,54,51.1952757902,4.56324038694
2520,Ranst,Vinkenstraat,12,51.2019371155,4.54589837439
2520,Ranst,Rundvoortstraat,48,51.2150884891,4.59059139779
2520,Ranst,Kesselsesteenweg,12,51.1603879789,4.60546472592
2520,Ranst,Zwaluwenlaan,6,51.1863286677,4.55406995983
2520,Ranst,Kantonbaan,17A,51.2253777797,4.63295485438
2520,Ranst,Antwerpsesteenweg,83B,51.1857048391,4.58354986349
2520,Ranst,Herentalsebaan,181,51.1916976502,4.53698206003
2520,Ranst,Konijnenbos,30,51.2154642891,4.59131020604
2520,Ranst,Spruytershofstraat,16,51.1953997644,4.54507535111
2520,Ranst,Pertendonckstraat,73,51.1816168537,4.59553148957
2520,Ranst,Alliers,4,51.15352602,4.57252491963
2520,Ranst,Herentalsebaan,31,51.1826721601,4.5506507467
2520,Ranst,Ter Stratenweg,37,51.2133849855,4.57639287787
2520,Ranst,Mollentstraat,35,51.1822371502,4.6178289708
2520,Ranst,Stapstraat,17,51.1632557261,4.6027149532
2520,Ranst,Kievitlaan,39,51.1867316014,4.55831765152
2520,Ranst,Processieweg,21,51.1901762649,4.56662767557
2520,Ranst,Herentalsebaan,66,51.1856126655,4.54516308524
2520,Ranst,Heiken,3,51.1541021263,4.57524408597
2520,Ranst,Zevenbergenlaan,24A,51.1933100182,4.56290443888
2520,Ranst,Schelkenshof,25,51.1795912344,4.60013001036
2520,Ranst,Ranstsebinnenweg,13,51.1517149364,4.57436181789
2520,Ranst,Doornbaan,2,51.2154253079,4.63115072006
2520,Ranst,Kastanjelaan,16,51.1938089594,4.55636898722
2520,Ranst,Schawijkstraat,26,51.1952830141,4.54167550162
2520,Ranst,Hooiveld,2,51.1839328073,4.56280607548
2520,Ranst,Schildesteenweg,39A,51.2142798901,4.59870362874
2520,Ranst,Ranstsesteenweg,60,51.1571820587,4.5766887048
2520,Ranst,Tongelweg,6,51.1640537589,4.59436743086
2520,Ranst,Oostmalsesteenweg,32B,51.1639143772,4.60484920767
2520,Ranst,Tarwelaan,17,51.1832394688,4.56310995519
2520,Ranst,Pertendonckstraat,10,51.1819918524,4.60033787765
2520,Ranst,Sparrenweg,24,51.1578889959,4.57852292755
2520,Ranst,Fransehoeveweg,11,51.1697240623,4.59370134163
2520,Ranst,Ter Stratenweg,7C,51.2100529671,4.5850850622
2520,Ranst,Sint Gummarusstraat,2,51.1693634864,4.58640756681
2520,Ranst,Achterstraat,23,51.2110754419,4.59257326291
2520,Ranst,Sint Antoniusstraat,21,51.1847312046,4.54626902058
2520,Ranst,De Voortstraat,4,51.1623275221,4.60721433814
2520,Ranst,Massenhovensesteenweg,42D,51.1874653012,4.62215046204
2520,Ranst,Herentalsebaan,110,51.1878832217,4.54044721596
2520,Ranst,Bredabaan,11,51.2179795821,4.58024770801
2520,Ranst,Oudstrijdersstraat,154,51.2131016183,4.58506533252
2520,Ranst,Molenstraat,32,51.1913807168,4.56279911301
2520,Ranst,Heesterbos,12,51.2114198655,4.62060035123
2520,Ranst,Moorstraat,8,51.1920334329,4.58927041831
2520,Ranst,Ranstsebinnenweg,2A,51.1511046792,4.57570470835
2520,Ranst,Dorpstraat,84,51.1619116502,4.60176599684
2520,Ranst,Rundvoortstraat,74,51.2170413218,4.59092359923
2520,Ranst,Liersesteenweg,84A,51.154517674,4.5838242962
2520,Ranst,Oostmalsesteenweg,8A,51.1615612869,4.59758877051
2520,Ranst,Boekweitlaan,29,51.1810026252,4.56637484162
2520,Ranst,Nierlenderstraat,8,51.1790581747,4.59171479609
2520,Ranst,Kapelstraat,1,51.1821837185,4.59536749749
2520,Ranst,Zevenbergenlaan,9,51.1923366224,4.56133516827
2520,Ranst,Bistweg,12,51.1884921143,4.58240315922
2520,Ranst,Kromstraat,29A,51.1906477113,4.55556979237
2520,Ranst,Ginnegemveld,3,51.2074844555,4.5733944974
2520,Ranst,Dorpstraat,121B,51.1599447197,4.59571136771
2520,Ranst,Profeetstraat,13,51.1890207334,4.5532682503
2520,Ranst,Donkereweg,11,51.1904690535,4.56995030956
2520,Ranst,Berkenlaan,63,51.1917616691,4.55493886838
2520,Ranst,Jozef De Voghtstraat,21,51.1791243123,4.60491322082
2520,Ranst,van Colenlaan,5,51.216684379,4.58606080601
2520,Ranst,Kapelstraat,18,51.1835123219,4.59861234374
2520,Ranst,Dorpstraat,66,51.1623013717,4.60322779247
2520,Ranst,Gasthuisstraat,38,51.1904855574,4.5604902876
2520,Ranst,Processieweg,56,51.1892857436,4.56824234194
2520,Ranst,de Fraulalaan,12,51.2167554244,4.59014608923
2520,Ranst,Kardinaal Cardijnlaan,29,51.2151729945,4.6029886431
2520,Ranst,Veldstraat,98,51.1814320434,4.56768837486
2520,Ranst,Doggenhoutstraat,3D,51.1882808624,4.55887650582
2520,Ranst,Bremstraat,28,51.1722211936,4.59909061973
2520,Ranst,Vorstjensweg,2,51.1802788634,4.60222364802
2520,Ranst,Bistweg,30,51.1890699256,4.59321402625
2520,Ranst,Venusstraat,27,51.2135422337,4.604514291
2520,Ranst,Gemeenteplein,8,51.1811492323,4.60140312436
2520,Ranst,Keerbaan,7A,51.214607257,4.5699031081
2520,Ranst,Rundvoortstraat,56,51.2156840898,4.59081607199
2520,Ranst,Liersesteenweg,2C,51.158730797,4.59081351516
2520,Ranst,Broechemsesteenweg,29,51.1800097664,4.59310224416
2520,Ranst,Notelaarweg,12,51.1570459969,4.58480795548
2520,Ranst,Oostmalsesteenweg,49A,51.1678416953,4.61519863094
2520,Ranst,Oudstrijdersstraat,40,51.2118528088,4.59372986461
2520,Ranst,Rembrandtlaan,12,51.1840900875,4.59504783615
2520,Ranst,Fazantenstraat,1,51.2169686078,4.60312878855
2520,Ranst,Molenstraat,14,51.1910045736,4.56179882681
2520,Ranst,Oudstrijdersstraat,29,51.2119695792,4.59442964581
2520,Ranst,Meir,16,51.2120887495,4.58839657221
2520,Ranst,Kromstraat,112,51.193466529,4.54240701813
2520,Ranst,Gasthuisstraat,2,51.189405054,4.55781819786
2520,Ranst,Liersesteenweg,61,51.155751287,4.5875249757
2520,Ranst,Emblemseweg,78,51.1693642075,4.59727027092
2520,Ranst,Emblemseweg,25,51.1777865805,4.60484923148
2520,Ranst,Schelkenshof,53,51.1810680734,4.59911253515
2520,Ranst,Kromstraat,61,51.1941768161,4.55084354354
2520,Ranst,Liersesteenweg,77H,51.1549723133,4.58627338112
2520,Ranst,Broddestraat,13,51.1806049854,4.59726527176
2520,Ranst,Zakstraat,45,51.1970173396,4.57654009768
2520,Ranst,Emblemseweg,75A,51.1722332779,4.60081020824
2520,Ranst,Liersesteenweg,165,51.1510331341,4.57960065402
2520,Ranst,Sparrenweg,5,51.1579147454,4.57667582633
2520,Ranst,Liersesteenweg,130,51.1515712844,4.57945059522
2520,Ranst,Kromstraat,43,51.1918559131,4.55382764979
2520,Ranst,Boomgaardweg,13,51.1780266112,4.59182811535
2520,Ranst,Oelegemsesteenweg,25B,51.1864162473,4.60295099162
2520,Ranst,Antwerpsesteenweg,52,51.1850962434,4.58373655931
2520,Ranst,Lothar Wyrtki-laan,9,51.1951058164,4.54370592369
2520,Ranst,Europalaan,19,51.2094097676,4.61051420005
2520,Ranst,Dullaard,42,51.1924743438,4.57066162928
2520,Ranst,Nieuwelaan,1,51.2140862602,4.59774367377
2520,Ranst,Torekenshoefstraat,17,51.1706909098,4.59420086731
2520,Ranst,Liersesteenweg,147,51.1517645737,4.58038388987
2520,Ranst,Vaartstraat,22A,51.1937259032,4.56394557646
2520,Ranst,Berkenlaan,81,51.1926923623,4.55389878434
2520,Ranst,Heidestraat,22,51.1691075854,4.58361593461
2520,Ranst,van Edinghenlaan,7,51.2186616567,4.58444527757
2520,Ranst,Zwetstraat,17,51.2127472072,4.55445510724
2520,Ranst,Vruntebaan,7,51.1565504557,4.5778392342
2520,Ranst,Hulstweg,1,51.1583808963,4.57591116977
2520,Ranst,Van den Nestlaan,109A,51.1752128934,4.57467015918
2520,Ranst,Alliers,24,51.1524196502,4.57249978028
2520,Ranst,Abelebaan,40,51.1809506299,4.5873990727
2520,Ranst,John Kennedylaan,43,51.2115742984,4.60608276051
2520,Ranst,Handboogweg,22,51.1579888077,4.56979828981
2520,Ranst,Rozenlaan,11,51.1904847573,4.56387704194
2520,Ranst,Burgemeester Louis Pittoorslaan,9,51.1816545759,4.56372701042
2520,Ranst,Dennenlaan,50,51.1930066392,4.55648533684
2520,Ranst,Pater Domstraat,54,51.186111275,4.60658047814
2520,Ranst,Kasteeldreef,7,51.1933940613,4.55966087004
2520,Ranst,Begonialaan,6,51.1903480839,4.56450155128
2520,Ranst,Veldstraat,10,51.1870935233,4.56552238312
2520,Ranst,Oelegemsesteenweg,29,51.1899205083,4.60413024814
2520,Ranst,Liersesteenweg,112,51.1527920621,4.58088593935
2520,Ranst,Doggenhoutstraat,3B,51.1884479459,4.55866192335
2520,Ranst,de Fraulalaan,30,51.2155094115,4.58992533677
2520,Ranst,Jozef Simonslaan,25,51.2156297146,4.58735180226
2520,Ranst,Oostmalsesteenweg,47,51.1674719934,4.61455345273
2520,Ranst,Dorpstraat,110,51.1608688091,4.59883059882
2520,Ranst,Nieuwelaan,11,51.2141330083,4.59685875191
2520,Ranst,Selsaetenstraat,3,51.1964537949,4.54293605256
2520,Ranst,Kerkstraat,12,51.2105139571,4.59904547778
2520,Ranst,Kriekenstraat,51,51.1932742524,4.54728196299
2520,Ranst,Zevenbergenlaan,34A,51.193502981,4.56313483876
2520,Ranst,Rundvoortstraat,38,51.2128465364,4.5905719703
2520,Ranst,Beukendreef,15,51.1551484448,4.58212489255
2520,Ranst,Spoorweglei,26D,51.1575339256,4.58533223427
2520,Ranst,Vlotstraat,9,51.2098324524,4.59789215481
2520,Ranst,Hooiveld,22,51.1846788255,4.56590833679
2520,Ranst,Molenstraat,67,51.1917084116,4.56536182198
2520,Ranst,Pater Domstraat,7,51.1821038363,4.6063919537
2520,Ranst,Van den Nestlaan,107,51.1758187274,4.57625493884
2520,Ranst,Knodbaan,30,51.2177755051,4.59493657996
2520,Ranst,Herentalsebaan,41,51.1834659511,4.55000168863
2520,Ranst,Oude Vaartstraat,2B,51.203275326,4.57427593737
2520,Ranst,Abelebaan,22,51.181069808,4.58962031176
2520,Ranst,Spoorweglei,31A,51.1576767295,4.58436705593
2520,Ranst,Massenhovensesteenweg,44B,51.1874291008,4.62309913234
2520,Ranst,Marreweg,7,51.1839914151,4.56887194537
2520,Ranst,Massenhovensesteenweg,59,51.1869036446,4.62664868084
2520,Ranst,Antwerpsesteenweg,18B,51.1827984086,4.59190362636
2520,Ranst,Molenstraat,49,51.1914974377,4.56450667645
2520,Ranst,Achterstraat,76,51.2107534766,4.59375259328
2520,Ranst,Hutveld,9,51.1574470347,4.58769703994
2520,Ranst,Kievitlaan,57,51.1861170505,4.55714475942
2520,Ranst,Streep,10,51.1820294384,4.60314829541
2520,Ranst,Broddestraat,31,51.1795010834,4.59782858718
2520,Ranst,Torenplein,16,51.2107307679,4.59710064688
2520,Ranst,Kromstraat,19A,51.1899848548,4.55661345458
2520,Ranst,Korenveld,19,51.1852670713,4.56454051789
2520,Ranst,Oostmalsesteenweg,20,51.1630833058,4.6018177509
2520,Ranst,Fazantenstraat,11,51.2161305966,4.60318324299
2520,Ranst,Schoolstraat,4,51.1913963047,4.56025072804
2520,Ranst,Muizenheuvelstraat,25,51.2138002772,4.59530979601
2520,Ranst,Mollentstraat,45,51.1808483351,4.62258336786
2520,Ranst,Oudstrijdersstraat,108,51.2134423935,4.58917605086
2520,Ranst,Vaartstraat,158,51.2053200922,4.59829016319
2520,Ranst,Schoolstraat,14,51.19173261,4.56005728769
2520,Ranst,Merellaan,26,51.1866542454,4.55565357867
2520,Ranst,Vaartstraat,97,51.2051805931,4.58365715251
2520,Ranst,Doggenhoutstraat,59,51.1877527766,4.5634472096
2520,Ranst,Schawijkstraat,54,51.1973088342,4.54374826661
2520,Ranst,Berkenlaan,17,51.190871181,4.55792443239
2520,Ranst,Keerbaan,13A,51.2148149176,4.5692541233
2520,Ranst,Achterstraat,58,51.2107407449,4.59565808167
2520,Ranst,Kloosterstraat,19,51.1632143868,4.60540933555
2520,Ranst,van Vrieselelaan,6,51.2173190612,4.5846378445
2520,Ranst,Kapelstraat,64,51.1839507733,4.60408016872
2520,Ranst,Grimmarastraat,4,51.1638564105,4.60954939399
2520,Ranst,Vlotstraat,28,51.2090480087,4.59850260512
2520,Ranst,Donkereweg,1,51.1899554253,4.56848594868
2520,Ranst,Doggenhoutstraat,5,51.1883823974,4.55917643323
2520,Ranst,Knodbaan,12,51.217876102,4.59276301318
2520,Ranst,Processieweg,2,51.1918991908,4.56624936058
2520,Ranst,van Steenbergenlaan,25,51.218302824,4.5886844193
2520,Ranst,Ranstsesteenweg,191,51.1866203554,4.56282158275
2520,Ranst,Spoorweglei,16,51.1570123635,4.5863292268
2520,Ranst,Schildesteenweg,61,51.2159048407,4.59938417787
2520,Ranst,Fruithoflaan,21,51.1553811478,4.5839586406
2520,Ranst,Hazenstraat,19,51.215310801,4.60496377067
2520,Ranst,Zandhovensteenweg,89,51.2113466661,4.61244801975
2520,Ranst,Pertendonckstraat,27,51.1817491379,4.5988822232
2520,Ranst,Maas en Moor,1,51.2031399024,4.59274882792
2520,Ranst,Ranstsebinnenweg,41,51.1531908651,4.57312845704
2520,Ranst,Broechemlei,65,51.1871536672,4.57056114839
2520,Ranst,Nierlenderstraat,18,51.1788006312,4.59110779556
2520,Ranst,Zavelstraat,8,51.2156860808,4.5610566883
2520,Ranst,John van den Eyndelaan,14,51.196167645,4.5472271288
2520,Ranst,Nierlenderstraat,4D,51.1791716255,4.59189667071
2520,Ranst,D'Enge,3,51.1605181622,4.58736955484
2520,Ranst,Schransken,5,51.2118173748,4.59858469357
2520,Ranst,Rundvoortstraat,2,51.2104116872,4.59160184455
2520,Ranst,Haegenbroekseweg,16,51.1538727362,4.57178306986
2520,Ranst,Spoorweglei,34,51.1579649612,4.58453277275
2520,Ranst,Van den Nestlaan,99,51.1763607148,4.57829834943
2520,Ranst,Profeetstraat,84,51.186885652,4.54722939186
2520,Ranst,Oostmalsesteenweg,55,51.1686550097,4.61677135496
2520,Ranst,Schaepsvonderlaan,7,51.1826335215,4.5640508986
2520,Ranst,Schawijkplasweg,26,51.202296165,4.54592506772
2520,Ranst,Profeetstraat,66,51.1877358675,4.54888767381
2520,Ranst,Keerbaan,10,51.2132367324,4.56524982895
2520,Ranst,Kapelstraat,82,51.1843214184,4.60687482088
2520,Ranst,Rozenlaan,1,51.1891770426,4.56461934601
2520,Ranst,Antwerpsesteenweg,5,51.1822127466,4.59410524721
2520,Ranst,Keerbaan,54,51.2174126505,4.55807128442
2520,Ranst,Ranstsesteenweg,120,51.176433465,4.56237453566
2520,Ranst,Hofstraat,7,51.1866601276,4.56748375528
2520,Ranst,Venusstraat,47,51.2153845659,4.60685528816
2520,Ranst,Venweg,8A,51.1687809603,4.61384206435
2520,Ranst,Schildesteenweg,43,51.2144611165,4.59869379152
2520,Ranst,Ranstsesteenweg,49,51.1575632938,4.57570455655
2520,Ranst,Hulstweg,11,51.1585549988,4.57683249281
2520,Ranst,Massenhovensesteenweg,37D,51.187423228,4.62030785143
2520,Ranst,Vaartstraat,123,51.2060146517,4.58784474995
2520,Ranst,Ranstsesteenweg,173,51.1853887434,4.5620034919
2520,Ranst,Kantonbaan,13,51.2258456608,4.63185426427
2520,Ranst,Kievitlaan,75,51.1855940397,4.55577174589
2520,Ranst,Broechemsesteenweg,40,51.1797267332,4.59380004146
2520,Ranst,Louis Ecranlaan,26,51.2140680938,4.58327477058
2520,Ranst,Achterstraat,94,51.2108014712,4.59257451988
2520,Ranst,van Gheldenakenlaan,10,51.2181912894,4.58434848918
2520,Ranst,Profeetstraat,31,51.1881127435,4.55244378184
2520,Ranst,Salvialaan,8,51.1885452007,4.56469635433
2520,Ranst,Bieslooklaan,20,51.1793208721,4.59685111227
2520,Ranst,Valkenlaan,10,51.1882569976,4.55598842633
2520,Ranst,Spruytershofstraat,12A,51.195167596,4.5456114959
2520,Ranst,Bremstraat,9,51.172426779,4.59829978722
2520,Ranst,Kievitlaan,22,51.1868565165,4.55777450823
2520,Ranst,Schawijkstraat,72,51.1975732007,4.54530334069
2520,Ranst,Ter Stratenweg,20,51.2077893448,4.58418391749
2520,Ranst,Vruntebaan,5B,51.1568125462,4.57815287179
2520,Ranst,Knodbaan,83,51.2225427113,4.6181492279
2520,Ranst,Ranstsebinnenweg,17A,51.1522400555,4.57363937576
2520,Ranst,Processieweg,38,51.1898503953,4.56755589313
2520,Ranst,Kanaalstraat,1A,51.1563776992,4.58926258681
2520,Ranst,Venweg,1,51.1677268718,4.6134930993
2520,Ranst,Dullaard,13,51.1897560344,4.57008425462
2520,Ranst,Torenplein,19,51.2107154616,4.5972994838
2520,Ranst,Ranstsesteenweg,165,51.1849297221,4.56166033138
2520,Ranst,Vaartstraat,83C,51.2038503831,4.57465106267
2520,Ranst,Gemeenteplein,17,51.1818777569,4.60094697765
2520,Ranst,Processieweg,24,51.1903488082,4.5671300497
2520,Ranst,Broddestraat,7,51.1808190911,4.59712731705
2520,Ranst,Kruizemuntlaan,4,51.1805055748,4.596242265
2520,Ranst,van Colenlaan,12,51.2169710467,4.58682512611
2520,Ranst,Van den Nestlaan,16,51.1804336591,4.59159153543
2520,Ranst,Liersesteenweg,127,51.1527683336,4.581731087
2520,Ranst,Vaartstraat,83A,51.2037986837,4.57404202459
2520,Ranst,Kapelstraat,9,51.1824068558,4.59567292113
2520,Ranst,Kloosterstraat,1,51.1634089699,4.60362407381
2520,Ranst,Oostmalsesteenweg,32A,51.1640018126,4.60468181719
2520,Ranst,Vaartstraat,144,51.2061574338,4.59802614896
2520,Ranst,Liersesteenweg,109,51.1538908062,4.5838729967
2520,Ranst,Kerkstraat,8,51.2104310714,4.59923553518
2520,Ranst,Van den Nestlaan,34,51.1794634518,4.58760330364
2520,Ranst,Rundvoortstraat,15,51.211420386,4.59178470124
2520,Ranst,Sparrenweg,21,51.1583451482,4.57903842992
2520,Ranst,Zevenbergenlaan,25,51.192756464,4.56254765681
2520,Ranst,Lievevrouwestraat,19,51.1895340623,4.56135302507
2520,Ranst,Ranstsesteenweg,147,51.1835741245,4.56080231547
2520,Ranst,Oudstrijdersstraat,68,51.2124087247,4.59232351927
2520,Ranst,Sintelweg,13,51.1830454548,4.59112179144
2520,Ranst,Oudstrijdersstraat,104,51.2132826061,4.58925758152
2520,Ranst,Zandhovensteenweg,2,51.2103067133,4.60109093853
2520,Ranst,Pertendonckstraat,26,51.1818933293,4.59786024437
2520,Ranst,Kloosterstraat,25,51.1632200599,4.60620792046
2520,Ranst,Lindenlaan,3,51.191369755,4.55910742156
2520,Ranst,Fazantenstraat,9,51.2162734924,4.60314832677
2520,Ranst,Ranstsesteenweg,41A,51.1563943937,4.57612287674
2520,Ranst,Veenmolstraat,18,51.2122361426,4.5885024521
2520,Ranst,Louis Ecranlaan,3,51.2148434116,4.58603617114
2520,Ranst,Oostmalsesteenweg,44,51.1643251787,4.60662513986
2520,Ranst,Muizenheuvelstraat,4,51.2127268449,4.59504525297
2520,Ranst,Broechemsesteenweg,59,51.1786541762,4.59302034458
2520,Ranst,Kastanjelaan,20,51.1937629462,4.55579903334
2520,Ranst,Veldstraat,81,51.1831739239,4.56684201119
2520,Ranst,Herentalsebaan,14,51.1796290994,4.55619879724
2520,Ranst,Emblemseweg,83,51.1660640585,4.59993066504
2520,Ranst,Beukendreef,5,51.1546416282,4.58293670009
2520,Ranst,Hazenstraat,34,51.2151481436,4.60543994955
2520,Ranst,Zandhovensteenweg,17,51.2103905952,4.60402636439
2520,Ranst,Veldstraat,63,51.184581269,4.56731726106
2520,Ranst,Hooiveld,11,51.1839385204,4.56375475046
2520,Ranst,Broechemlei,61,51.1872616775,4.56931725491
2520,Ranst,Schildesteenweg,74,51.2168433327,4.59896605385
2520,Ranst,Abelebaan,77,51.1813068965,4.58576855141
2520,Ranst,Bieslooklaan,9,51.1788050353,4.59446269866
2520,Ranst,Lostraat,30,51.1832594728,4.60222330132
2520,Ranst,Broechemsesteenweg,79A,51.1772335795,4.59275910114
2520,Ranst,Merellaan,27,51.1865612231,4.55621315903
2520,Ranst,Dorpstraat,32,51.1623172627,4.60543851188
2520,Ranst,Ter Stratenweg,9,51.2097025021,4.58400789901
2520,Ranst,Oostmalsesteenweg,2D,51.1607339578,4.59503906711
2520,Ranst,Broechemlei,43,51.1872307308,4.56774336192
2520,Ranst,Kanaalstraat,15,51.1556198911,4.59049336911
2520,Ranst,Ranstsesteenweg,39,51.1559853128,4.57633116745
2520,Ranst,Veldstraat,2,51.1876290749,4.56448896024
2520,Ranst,Kievitlaan,51,51.1862942526,4.55745770565
2520,Ranst,Veldstraat,45,51.1856423639,4.56646421313
2520,Ranst,Zakstraat,10,51.1956318611,4.56922203748
2520,Ranst,Selsaetenstraat,23,51.1975675483,4.54068142791
2520,Ranst,Hofstraat,10,51.1867944017,4.56807732611
2520,Ranst,Zandhovensteenweg,63,51.210935805,4.60823692205
2520,Ranst,Herentalsebaan,138,51.1900170165,4.53833283814
2520,Ranst,Profeetstraat,51,51.1880264327,4.55072118773
2520,Ranst,Schildesteenweg,21,51.2124466402,4.59753066866
2520,Ranst,van Steenbergenlaan,28,51.2187799981,4.58917731608
2520,Ranst,Oostmalsesteenweg,80,51.1676744263,4.615880572
2520,Ranst,Veldstraat,17,51.1865601989,4.56538167519
2520,Ranst,Juul Persijnstraat,6,51.1802981844,4.60159021518
2520,Ranst,Tulpenlaan,11,51.1885954164,4.56718321566
2520,Ranst,Dorpstraat,60,51.1621929822,4.60367197494
2520,Ranst,Dennenlaan,49,51.1929664117,4.55566865891
2520,Ranst,Vlotstraat,16,51.2097967197,4.5983327249
2520,Ranst,Oostmalsesteenweg,62,51.166000232,4.61423473229
2520,Ranst,Spoorweglei,19,51.1569895263,4.58555311237
2520,Ranst,Tarwelaan,7,51.1835573466,4.56417005167
2520,Ranst,Zandhovensteenweg,45,51.2107573753,4.60668777819
2520,Ranst,Burgemeester Louis Pittoorslaan,1,51.1811068037,4.56362431988
2520,Ranst,Knodbaan,3B,51.2172761292,4.59370401386
2520,Ranst,Hazenstraat,16,51.2164053355,4.6054512153
2520,Ranst,Abelebaan,7,51.1816518912,4.59276979172
2520,Ranst,Oude Vaartstraat,31,51.2027879943,4.57829298092
2520,Ranst,Hutveld,16,51.1588141404,4.58618126991
2520,Ranst,Rundvoortstraat,33,51.2135959522,4.59097568443
2520,Ranst,Mulderweg,20,51.1509865747,4.57374976503
2520,Ranst,Roggelaan,4,51.1836959461,4.56525243124
2520,Ranst,Lostraat,12,51.1825084005,4.60221724437
2520,Ranst,Dorpstraat,14,51.1634507041,4.60678864628
2520,Ranst,Hulstweg,9,51.1585872545,4.57668755057
2520,Ranst,Vaartstraat,162,51.205203403,4.59954229919
2520,Ranst,Lievevrouwestraat,37,51.1892226902,4.56207177897
2520,Ranst,Merellaan,3,51.1877060085,4.55587049481
2520,Ranst,Haverlaan,6,51.1812943183,4.56252720395
2520,Ranst,Laarstraat,20,51.1932622913,4.56991805145
2520,Ranst,Streep,28E,51.1811742225,4.60528344202
2520,Ranst,Schildesteenweg,56,51.2165606869,4.59880707899
2520,Ranst,Vorstjensweg,24,51.1782104751,4.60318768993
2520,Ranst,Jozef De Voghtstraat,8,51.1790471579,4.60358073619
2520,Ranst,Dorpstraat,42,51.1621752116,4.60469243016
2520,Ranst,Liersesteenweg,191,51.1498848258,4.57834651204
2520,Ranst,Breughellaan,43,51.1829650596,4.59510500546
2520,Ranst,Vincent Goossenslaan,23,51.2123949403,4.60030068701
2520,Ranst,Oude Vaartstraat,5,51.2025654378,4.57462348102
2520,Ranst,Vremderhoeven,3A,51.1691953344,4.56459225489
2520,Ranst,Knodbaan,69,51.2175521503,4.59846491131
2520,Ranst,Kreupelstraat,11,51.168350943,4.60970489433
2520,Ranst,Herentalsebaan,67,51.1851149686,4.54713205941
2520,Ranst,Hallebaan,15,51.2164719429,4.61873151387
2520,Ranst,Molenstraat,41,51.191448121,4.56416373791
2520,Ranst,Van den Nestlaan,62,51.17764263,4.58311152216
2520,Ranst,Sint Gummarusstraat,24,51.1637676256,4.5880061159
2520,Ranst,Zwaluwenlaan,27,51.1873065236,4.55292875813
2520,Ranst,Rundvoortstraat,43,51.2159028871,4.59147317053
2520,Ranst,Heesterbos,8,51.2115774864,4.62011221493
2520,Ranst,Broechemsesteenweg,131,51.1623678385,4.59125758573
2520,Ranst,Schawijkstraat,98,51.1996636391,4.54727989962
2520,Ranst,Berkenlaan,10,51.191182431,4.55827372038
2520,Ranst,Doggenhoutstraat,30,51.1885457712,4.56168391677
2520,Ranst,Juul Persijnstraat,23,51.1801922047,4.60195593003
2520,Ranst,Herentalsebaan,49,51.1839841766,4.54904189966
2520,Ranst,Massenhovensesteenweg,21,51.1827988265,4.61216179294
2520,Ranst,Fruithoflaan,8,51.1563774492,4.58489075644
2520,Ranst,Processieweg,52,51.1894280459,4.56807488424
2520,Ranst,Korenveld,30,51.1846693225,4.5634630465
2520,Ranst,Knodbaan,4B,51.2178494936,4.59403769124
2520,Ranst,Emblemseweg,37,51.1769558556,4.60404079188
2520,Ranst,Rubenslaan,69,51.1855332945,4.58723811324
2520,Ranst,Oudstrijdersstraat,157,51.213178436,4.58331374099
2520,Ranst,Abelebaan,59,51.1812814832,4.58798769159
2520,Ranst,Ranstsesteenweg,6,51.1526173349,4.58047981031
2520,Ranst,Schildesteenweg,4,51.2113957791,4.59684546643
2520,Ranst,Liersesteenweg,173,51.150693375,4.57919208396
2520,Ranst,Meir,37,51.211463207,4.58904173698
2520,Ranst,Massenhovensesteenweg,15E,51.1815725853,4.60897534325
2520,Ranst,Kardinaal Cardijnlaan,15,51.2153408585,4.60101033147
2520,Ranst,Pertendonckstraat,47,51.1815652728,4.59770817946
2520,Ranst,Marreweg,7A,51.1838736484,4.56893465332
2520,Ranst,Handboogweg,7,51.1576276951,4.57024155689
2520,Ranst,Melisselaan,11,51.179713512,4.59698045651
2520,Ranst,Gustaaf Peetersstraat,20,51.1805771934,4.60353540106
2520,Ranst,Alliers,5,51.1531708454,4.57249206374
2520,Ranst,Antwerpsesteenweg,12,51.1823184325,4.59270177969
2520,Ranst,Liersesteenweg,74,51.1552268855,4.58548644318
2520,Ranst,Zandhovensteenweg,81,51.2111475585,4.60987554725
2520,Ranst,Bredabaan,9,51.2178196378,4.58011974303
2520,Ranst,Kromstraat,30,51.1901963776,4.55558242554
2520,Ranst,Ranstsesteenweg,202,51.1867208955,4.56355430804
2520,Ranst,Bremstraat,34,51.1723533345,4.59995776059
2520,Ranst,Kardinaal Cardijnlaan,33,51.2155794784,4.60247732956
2520,Ranst,Hooiveld,3,51.1834238188,4.56224003006
2520,Ranst,Broechemsesteenweg,24,51.1805095831,4.59420454099
2520,Ranst,Valkenlaan,17,51.1876482108,4.55473702557
2520,Ranst,John Kennedylaan,21,51.2130084995,4.60661686585
2520,Ranst,Emblemseweg,19,51.177999617,4.60583016174
2520,Ranst,Liersesteenweg,21,51.1574596028,4.59025184699
2520,Ranst,Gasthuisstraat,24,51.189851227,4.55905629
2520,Ranst,Vaartstraat,10,51.1931099525,4.56457583492
2520,Ranst,Ranstsesteenweg,137,51.1830983918,4.5608383932
2520,Ranst,Sint Antoniusstraat,8,51.1863645464,4.54890781855
2520,Ranst,Notelaarweg,8,51.1572080707,4.58446022459
2520,Ranst,Maasweg,1,51.2045999233,4.59221700873
2520,Ranst,Oudstrijdersstraat,15,51.211481843,4.5954248603
2520,Ranst,Antwerpsesteenweg,30,51.1838758995,4.5889252572
2520,Ranst,Broechemsesteenweg,95,51.1698681456,4.59224024153
2520,Ranst,Ter Elst,4,51.1832671841,4.56793177567
2520,Ranst,Dorpstraat,11C,51.1637809509,4.60864665007
2520,Ranst,Creyboschlaan,10,51.2155695756,4.57845207297
2520,Ranst,Rubenslaan,16,51.1847335121,4.59498860809
2520,Ranst,Eksterlaan,21,51.1866405746,4.55492136255
2520,Ranst,Vaartstraat,91,51.2049637264,4.58265541716
2520,Ranst,Schildesteenweg,76A,51.2178941675,4.60248510135
2520,Ranst,Meir,19,51.2119145714,4.58766218874
2520,Ranst,Kantonbaan,7,51.2262742992,4.63061099658
2520,Ranst,Ranstsebinnenweg,32,51.1536983726,4.57327890144
2520,Ranst,Ranstsesteenweg,50,51.156211994,4.57684717357
2520,Ranst,de Fraulalaan,8,51.2170221607,4.59016768283
2520,Ranst,Oostmalsesteenweg,14A,51.1624007436,4.5998394218
2520,Ranst,Rozenlaan,9,51.1898148485,4.56430692027
2520,Ranst,Kromstraat,12,51.1896676479,4.5563328206
2520,Ranst,Van den Nestlaan,44,51.1791757698,4.58685388882
2520,Ranst,Schelkenshof,15,51.1798619477,4.59968345661
2520,Ranst,Massenhovensesteenweg,27A,51.1850014006,4.6164663071
2520,Ranst,Broechemsesteenweg,96C,51.1710425497,4.59283224506
2520,Ranst,Jozef Simonslaan,19,51.2169568996,4.58381164067
2520,Ranst,Europalaan,16,51.2098453987,4.61132125704
2520,Ranst,Kriekenstraat,38,51.1930626647,4.54804960307
2520,Ranst,Antwerpsesteenweg,65,51.1855370724,4.5866058177
2520,Ranst,Herentalsebaan,85,51.1862854011,4.54472025235
2520,Ranst,Pertendonckstraat,54,51.1820658682,4.59467101561
2520,Ranst,Liersesteenweg,56,51.156201893,4.58713502262
2520,Ranst,Haegenbroekseweg,8,51.1539062684,4.57089291776
2520,Ranst,Bolkerhoeveweg,1,51.2076626636,4.60313411603
2520,Ranst,Laarstraat,3,51.1921844951,4.56693962129
2520,Ranst,Mollentstraat,36,51.1823462281,4.61657087649
2520,Ranst,Profeetstraat,23,51.1884753085,4.55321158951
2520,Ranst,Vlotstraat,44,51.2083374858,4.59835614272
2520,Ranst,Sint Antoniusstraat,4A,51.1867393022,4.54924424356
2520,Ranst,Schaubroekweg,3,51.1861077131,4.54259320504
