PKANCODE,COMMUNE_NL,STREET_NL,HUISNR,LAT,LON
2820,Bonheiden,Oude Baan,173,51.0360673107,4.56254581874
2820,Bonheiden,Taboralaan,10,51.0115229895,4.60934068809
2820,Bonheiden,Putsesteenweg,40,51.0347437908,4.51957522582
2820,Bonheiden,Notelaarstraat,23,51.0368266436,4.52492336314
2820,Bonheiden,Korte Dreef,21,51.0036753679,4.58619024704
2820,Bonheiden,Zilverberklaan,58,51.0047041983,4.59469211963
2820,Bonheiden,Putsesteenweg,182,51.0354718503,4.53215705241
2820,Bonheiden,Brouwersdreef,23,51.0271737951,4.52672467288
2820,Bonheiden,Watermolenstraat,7,51.012569152,4.60185245073
2820,Bonheiden,Hoogstraat,50,51.0011641337,4.58976632076
2820,Bonheiden,Mechelsesteenweg,224,51.0260170189,4.53729489253
2820,Bonheiden,Kardinaal Cardijnlaan,42,51.0278919747,4.54736222428
2820,Bonheiden,Venneboslaan,7,51.0262345946,4.55890147115
2820,Bonheiden,Kruisstraat,15,51.0049970794,4.58858012939
2820,Bonheiden,Berlaarbaan,128,51.0465252461,4.52923799799
2820,Bonheiden,Krekelweg,20,51.0207130353,4.54600815
2820,Bonheiden,Sleestraat,29,51.0228227567,4.60002469332
2820,Bonheiden,Ravennestlaan,4,51.0366766558,4.53692040112
2820,Bonheiden,Rijmenamseweg,35,51.0211315759,4.55482277045
2820,Bonheiden,Vijverstein,14,51.0098158224,4.56482706642
2820,Bonheiden,Mechelsesteenweg,206,51.025663957,4.53827341162
2820,Bonheiden,Kerselaarstraat,52,51.0363408894,4.52798881899
2820,Bonheiden,Oude Booischotsebaan,56,51.0246947866,4.59747292023
2820,Bonheiden,Rijmenamseweg,17,51.0214637022,4.55335610117
2820,Bonheiden,Waversesteenweg,14,51.0238700964,4.5488895801
2820,Bonheiden,Hogenopstal,25,51.0022025093,4.58212184833
2820,Bonheiden,Guldensporenlaan,7,51.0254563127,4.53405331386
2820,Bonheiden,Kraaivenstraat,12,51.0044636627,4.59880227572
2820,Bonheiden,Korte Veldstraat,5,51.0164474314,4.56450563867
2820,Bonheiden,Putsesteenweg,201,51.0360431696,4.53320193956
2820,Bonheiden,Boslaan,5,51.0359274737,4.56017134242
2820,Bonheiden,Muizensteenweg,6,51.0234126893,4.54224123277
2820,Bonheiden,Kleinbeeklei,12,51.0234118011,4.60695213967
2820,Bonheiden,Kleine Heidelaan,2,51.0255999881,4.53504886817
2820,Bonheiden,Putsesteenweg,146,51.0352528622,4.5284494382
2820,Bonheiden,Kardinaal Cardijnlaan,60,51.0272944867,4.54688042717
2820,Bonheiden,Boeimeerstraat,42,51.0151867247,4.56717345283
2820,Bonheiden,Koningin Astridlaan,44,51.0164484482,4.55363025438
2820,Bonheiden,Olmenlaan,6,51.0209536552,4.54125809112
2820,Bonheiden,Berentrodedreef,49,51.0258555074,4.55606372389
2820,Bonheiden,Plaslei,22,51.0271606103,4.62189862272
2820,Bonheiden,Duinenweg,7,51.0112278627,4.60050333168
2820,Bonheiden,Oude Schrieksebaan,37,51.016950376,4.58252842704
2820,Bonheiden,Brughoevestraat,6,51.0022573133,4.60020252995
2820,Bonheiden,Weynesbaan,156,51.0321087776,4.60545605042
2820,Bonheiden,Oude Schrieksebaan,83,51.0153184094,4.59513251776
2820,Bonheiden,Witthemhof,5,51.0174889288,4.6025084793
2820,Bonheiden,Van Arteveldelaan,5A,51.0207117297,4.56186535896
2820,Bonheiden,Eksterveldlaan,38,51.0399279508,4.53936782004
2820,Bonheiden,Kardinaal Mercierlaan,6,51.0187245559,4.54802416943
2820,Bonheiden,Kleinbeeklei,30,51.0223847813,4.60824218384
2820,Bonheiden,Lange Dreef,122,51.0104060889,4.59738185178
2820,Bonheiden,Oude Schrieksebaan,19,51.0180810073,4.57945588265
2820,Bonheiden,Diedonken,8,51.0387204874,4.55036543387
2820,Bonheiden,Weynesbaan,103,51.0290214662,4.60528815749
2820,Bonheiden,Nachtegalenlaan,13,51.0315967573,4.52818601811
2820,Bonheiden,Lange Veldstraat,6,51.0176048294,4.56295882289
2820,Bonheiden,Hondshoek,32,51.017866021,4.5425838692
2820,Bonheiden,Hoogstraat,39,51.0012476985,4.5893068477
2820,Bonheiden,Berentrodedreef,67,51.0273188134,4.55925868026
2820,Bonheiden,Van den Reecklaan,43,51.0236579355,4.53182703051
2820,Bonheiden,Van Arteveldelaan,1,51.0201186686,4.56167862686
2820,Bonheiden,Schoolstraat,53,51.0201163321,4.5428946815
2820,Bonheiden,Oude Schrieksebaan,65,51.0158412696,4.59115512365
2820,Bonheiden,Zandbergstraat,23,51.0224390602,4.57756170595
2820,Bonheiden,Boeimeerstraat,60,51.0141802597,4.5652254529
2820,Bonheiden,Putsesteenweg,164,51.0353316012,4.53022507957
2820,Bonheiden,Zilverberklaan,23,51.0054242802,4.59452449057
2820,Bonheiden,Putsesteenweg,118,51.034847999,4.52638870994
2820,Bonheiden,Schoolstraat,71,51.0198725464,4.5389166427
2820,Bonheiden,Sint-Marcusweg,2,51.0019071887,4.58649059247
2820,Bonheiden,Kraaivenstraat,30,51.0053112735,4.60125174513
2820,Bonheiden,Boeimeerstraat,14,51.0174741041,4.56421808123
2820,Bonheiden,Spiekelei,12,51.0160428467,4.58247425132
2820,Bonheiden,Louterman,19,51.0230870148,4.6051789912
2820,Bonheiden,Sint-Marcusweg,26,51.0016690499,4.58732132732
2820,Bonheiden,Korte Dreef,56,51.0067964267,4.58815047591
2820,Bonheiden,Domis de Semerpontlaan,25,51.0197877092,4.55516330388
2820,Bonheiden,Esdoornlaan,2,51.0203717727,4.53912041524
2820,Bonheiden,Plasstraat,40,51.0242505775,4.60928582647
2820,Bonheiden,Mechelsesteenweg,187,51.0249615615,4.53938305321
2820,Bonheiden,Berentrodedreef,39,51.0256243087,4.55431059645
2820,Bonheiden,De Bergen,18,51.0164936436,4.57407115372
2820,Bonheiden,Gestellei,15,51.0440169265,4.52412327613
2820,Bonheiden,Mechelsbroekstraat,10,51.0275328688,4.52269964786
2820,Bonheiden,Waversesteenweg,49,51.0384230096,4.55142788706
2820,Bonheiden,Rijmenamseweg,81,51.0198062587,4.56322694075
2820,Bonheiden,Schallenberghlaan,8,51.0241912183,4.53460912229
2820,Bonheiden,Guido Gezellelaan,27,51.0202092846,4.54954357792
2820,Bonheiden,Oude Baan,127,51.03412008,4.53471886006
2820,Bonheiden,Vagevuurlaan,6,51.0186466394,4.56117331076
2820,Bonheiden,Oude Kasteellaan,22,51.0236183971,4.55836059686
2820,Bonheiden,Achterdiedonken,6,51.042073899,4.54822101914
2820,Bonheiden,Guldensporenlaan,42,51.0224710223,4.52961414463
2820,Bonheiden,Hazelaarlei,6,51.023662552,4.58285506099
2820,Bonheiden,Rijmenamseweg,224,51.0114047962,4.59001086182
2820,Bonheiden,Molenlei,58,51.0323358205,4.61991819297
2820,Bonheiden,Bareelveld,9,51.0335829473,4.51597096348
2820,Bonheiden,Zellaerdreef,21,51.0264142455,4.54475951078
2820,Bonheiden,Waversesteenweg,67,51.0408453506,4.55247480726
2820,Bonheiden,Boeimeerstraat,32,51.0159151019,4.56621947332
2820,Bonheiden,Tramweg,8,51.0323397163,4.52017331164
2820,Bonheiden,Rijmenamseweg,63,51.0201935348,4.56014998355
2820,Bonheiden,Mechelsesteenweg,259,51.0292379205,4.52661092984
2820,Bonheiden,Sint-Elooisweg,16,51.0034450482,4.58552014016
2820,Bonheiden,Mechelsesteenweg,169,51.0246916669,4.54021389087
2820,Bonheiden,Grote Heidestraat,13,51.022083638,4.55298114643
2820,Bonheiden,Kardinaal Cardijnlaan,7,51.0268036923,4.54893526104
2820,Bonheiden,Roggemansstraat,1,51.0273950326,4.53446129869
2820,Bonheiden,Rijmenamseweg,206,51.014632856,4.58096766733
2820,Bonheiden,Grote Doelstraat,6,51.0274623043,4.55173233928
2820,Bonheiden,Hondshoek,14,51.018715952,4.54031577088
2820,Bonheiden,Schranshoeflei,1,51.029644144,4.58191431007
2820,Bonheiden,Venlaan,13,51.0175641541,4.56855210166
2820,Bonheiden,Plasstraat,12,51.024497654,4.60572191638
2820,Bonheiden,Bleukstraat,24,51.0232459377,4.61113153823
2820,Bonheiden,Lange Dreef,51,51.0034220715,4.58767929297
2820,Bonheiden,Putsesteenweg,12,51.0347014888,4.51729421045
2820,Bonheiden,Gemeenteplein,1,51.0009447704,4.58466530619
2820,Bonheiden,Heitomme,2,51.0074104256,4.60242227621
2820,Bonheiden,Oude Baan,84,51.0335764317,4.53170091601
2820,Bonheiden,Putsesteenweg,30,51.034832504,4.5190217935
2820,Bonheiden,Grote-Paallaan,1A,51.0060818771,4.60410954053
2820,Bonheiden,Lijsterbeslaan,11A,51.0184882309,4.57949577218
2820,Bonheiden,Bruinbeekstraat,21,51.0317480397,4.52745936316
2820,Bonheiden,Oude Molenstraat,12,51.0171598296,4.56881330299
2820,Bonheiden,Oude Keerbergsebaan,5,51.002931171,4.59352827379
2820,Bonheiden,Gemeenteplein,25,51.0012843625,4.58443038855
2820,Bonheiden,Putsesteenweg,93,51.0355739909,4.5244759268
2820,Bonheiden,Peerlaarstraat,40,51.0185525922,4.59340253199
2820,Bonheiden,Pelgrimpad,12,51.0245986566,4.58623725314
2820,Bonheiden,Dijleweg,51,51.002141146,4.57537584949
2820,Bonheiden,Cassenbroek,5,51.0143237041,4.57178371449
2820,Bonheiden,Dennengeurlaan,5,51.0065530382,4.59009302399
2820,Bonheiden,de Selliers de Moranvillelaan,9,51.0191831309,4.55446668954
2820,Bonheiden,Doornlaarstraat,68,51.0146629933,4.62578621522
2820,Bonheiden,Jachthoornlaan,42,51.0095574835,4.60019596132
2820,Bonheiden,Jachthoornlaan,7,51.0064873521,4.60177964014
2820,Bonheiden,Eertberglei,19,51.0209184487,4.608390868
2820,Bonheiden,Berlaarbaan,22,51.0423944287,4.51703142289
2820,Bonheiden,Peulisbaan,41,51.0223750776,4.58150427487
2820,Bonheiden,Hollakenbaan,7,50.9967461497,4.58967162807
2820,Bonheiden,Koningin Astridlaan,62,51.01596036,4.55413094246
2820,Bonheiden,Krekelweg,3,51.0196902574,4.54713600115
2820,Bonheiden,Zellaerstraat,51,51.0246766804,4.54617942864
2820,Bonheiden,Muizensteenweg,41,51.0223032237,4.54098544141
2820,Bonheiden,Hairgracht,14,51.0371841327,4.51682094606
2820,Bonheiden,Oude Booischotsebaan,4,51.0272296359,4.60405607358
2820,Bonheiden,Putsesteenweg,289,51.0366221458,4.54442735758
2820,Bonheiden,Rijmenamseweg,170,51.0175100385,4.57407149164
2820,Bonheiden,Weynesbaan,50,51.0181329716,4.60166217858
2820,Bonheiden,Putsesteenweg,236,51.0365928757,4.55158225028
2820,Bonheiden,Eikendreef,14,51.0250296874,4.5230442967
2820,Bonheiden,Gestelhoflei,8,51.0398138436,4.53129241514
2820,Bonheiden,Rijmenamseweg,45,51.0208319585,4.55674690199
2820,Bonheiden,Canadadreef,4,51.0329806616,4.50940138823
2820,Bonheiden,Koningin Astridlaan,9,51.0170443382,4.55362762753
2820,Bonheiden,Waversesteenweg,32,51.0254786965,4.5498175714
2820,Bonheiden,Oude Booischotsebaan,28,51.0264348416,4.60192937616
2820,Bonheiden,Peter Benoitlaan,13,51.0266460596,4.52651634522
2820,Bonheiden,Mechelsesteenweg,342,51.0323569726,4.51672648984
2820,Bonheiden,Harentstraat,68,51.0254812967,4.57817924187
2820,Bonheiden,Louterman,12,51.0218311633,4.60423367728
2820,Bonheiden,Weynesbaan,32,51.0148556441,4.60088785518
2820,Bonheiden,Putsesteenweg,57,51.0353418892,4.52126628073
2820,Bonheiden,Nieuwstraat,15,51.0235167192,4.54690020865
2820,Bonheiden,Kleinbeeklei,5,51.0239109017,4.60746979431
2820,Bonheiden,Brouwersdreef,2A,51.0248099001,4.53077659448
2820,Bonheiden,Kardinaal Cardijnlaan,77,51.0261255405,4.5477730963
2820,Bonheiden,Plasstraat,57,51.0260359117,4.62807126274
2820,Bonheiden,Nieuwstraat,33,51.0241589318,4.54788071479
2820,Bonheiden,Korte Dreef,28,51.0043949522,4.58701053143
2820,Bonheiden,Reetlei,9,51.0173031027,4.6164571266
2820,Bonheiden,Rijmenamseweg,260,51.0095865193,4.60210187936
2820,Bonheiden,Kraaivenstraat,5,51.0035374985,4.59618140671
2820,Bonheiden,Kardinaal Cardijnlaan,59,51.0255276828,4.54718070276
2820,Bonheiden,Zellaerstraat,68,51.0254640972,4.54601693971
2820,Bonheiden,Broekstraat,33,51.0081464825,4.58122600316
2820,Bonheiden,Muizensteenweg,23,51.0230857208,4.54244810831
2820,Bonheiden,Lange Dreef,15,51.0023550794,4.58641403959
2820,Bonheiden,Putsesteenweg,75,51.0354225316,4.52242803002
2820,Bonheiden,Raambeeklaan,10,51.0123628743,4.60963171697
2820,Bonheiden,Waversesteenweg,7,51.0239090687,4.54856433212
2820,Bonheiden,Olmenlaan,23,51.020308209,4.54164578159
2820,Bonheiden,Hoghsteinlaan,6,51.0237977866,4.5366798342
2820,Bonheiden,Oude Molenstraat,5,51.01742375,4.57075358761
2820,Bonheiden,Rijmenamseweg,242,51.0107681882,4.59774142029
2820,Bonheiden,Brakelberglei,23,51.008592957,4.59036871177
2820,Bonheiden,Broekstraat,15,51.0072423218,4.58474058858
2820,Bonheiden,Pelgrimpad,5,51.024671315,4.58402874856
2820,Bonheiden,Eksterveldlaan,31,51.0394456399,4.53909358784
2820,Bonheiden,Kanonniersweg,47,51.0212179697,4.57513164148
2820,Bonheiden,Hoghsteinlaan,1A,51.0236267447,4.53754252359
2820,Bonheiden,Zilverberklaan,41,51.007556907,4.59806891358
2820,Bonheiden,Guldensporenlaan,24,51.0247979853,4.53139643221
2820,Bonheiden,Hoogstraat,49,51.0022655333,4.59145048823
2820,Bonheiden,Lange Veldstraat,23,51.0158120366,4.56122033608
2820,Bonheiden,Oude Kasteellaan,49,51.0216179166,4.56317192266
2820,Bonheiden,Rivierenlaan,1,51.0118639061,4.60417444463
2820,Bonheiden,Rivierenlaan,17,51.0133468614,4.60630458897
2820,Bonheiden,Boeimeerstraat,7,51.0182302913,4.56436418981
2820,Bonheiden,Oude Baan,31,51.0344968809,4.52109044381
2820,Bonheiden,Schoolstraat,1,51.0221216574,4.54770072104
2820,Bonheiden,Boeimeerstraat,59,51.0120372339,4.56427311515
2820,Bonheiden,Pruimelaarstraat,29,51.0374574945,4.52706648423
2820,Bonheiden,Berentrodedreef,14,51.023285598,4.55140823698
2820,Bonheiden,Bareelveld,26,51.0339438795,4.51829585625
2820,Bonheiden,Lijsterbeslaan,7,51.0182877932,4.58108090716
2820,Bonheiden,Mechelsesteenweg,180,51.0253915486,4.53935483644
2820,Bonheiden,Mechelsesteenweg,332,51.0321041141,4.51807112955
2820,Bonheiden,Krankhoefpad,14,51.0292900619,4.57872490029
2820,Bonheiden,Kruisstraat,8,51.0030154753,4.59193460783
2820,Bonheiden,Kleinbeeklei,19,51.0239485182,4.60824350522
2820,Bonheiden,Schoolstraat,17,51.0211154694,4.54601224456
2820,Bonheiden,Nachtegalenlaan,6,51.0306309914,4.5290320369
2820,Bonheiden,Bakestraat,62,51.0109047849,4.62975588233
2820,Bonheiden,Duinenweg,24,51.0112203991,4.60209237388
2820,Bonheiden,Ottershoekstraat,6,51.0232204304,4.62819858728
2820,Bonheiden,Harentstraat,86,51.0280064806,4.58024619623
2820,Bonheiden,Oude Baan,13,51.0343574402,4.51859613745
2820,Bonheiden,Kievitlaan,10,51.0304936646,4.52769272539
2820,Bonheiden,Brandheidestraat,6,51.0268280074,4.60057578202
2820,Bonheiden,Berentrodedreef,50,51.0264129112,4.55869565923
2820,Bonheiden,Schoolstraat,35,51.0208300719,4.54439581915
2820,Bonheiden,Bruinbeekstraat,13,51.0313512661,4.5264587113
2820,Bonheiden,Mechelsbroekstraat,3,51.0275469399,4.52463570049
2820,Bonheiden,Brugstraat,6,51.0004794818,4.5854512438
2820,Bonheiden,Oude Schrieksebaan,30,51.0164600097,4.58223859926
2820,Bonheiden,Kleinbeeklei,37,51.0228205607,4.6086878238
2820,Bonheiden,Oude straat,50,51.0379470533,4.51515597108
2820,Bonheiden,Mechelsesteenweg,124,51.0246166597,4.54164821184
2820,Bonheiden,Pelgrimstraat,30,51.025017437,4.57154003723
2820,Bonheiden,Spiekelei,5,51.0161009268,4.5807340732
2820,Bonheiden,Putsesteenweg,5,51.0351068091,4.51600728472
2820,Bonheiden,Oude straat,32,51.0361249435,4.51504274967
2820,Bonheiden,Zellaerdreef,28,51.028302175,4.54017356854
2820,Bonheiden,Van Uytvenlaan,15,51.0189343444,4.55048765118
2820,Bonheiden,Harentstraat,15,51.0192185614,4.57572636046
2820,Bonheiden,Zwarte Leeuwstraat,31,51.0379505088,4.5323942865
2820,Bonheiden,Mechelsesteenweg,144,51.0248139947,4.54089779018
2820,Bonheiden,Kanonniersweg,1,51.0196541319,4.5646506338
2820,Bonheiden,Mechelsesteenweg,260,51.0275948679,4.53279283922
2820,Bonheiden,de Selliers de Moranvillelaan,26,51.0184741561,4.55413009859
2820,Bonheiden,Sint-Jansstraat,16,51.0021120342,4.58804384586
2820,Bonheiden,Dorstveld,6,51.0267799684,4.52302528788
2820,Bonheiden,Kerkveldenweg,9,51.024253306,4.54492068496
2820,Bonheiden,Peulisbaan,76,51.0263545206,4.58190883648
2820,Bonheiden,Kerselaarstraat,16,51.0364500801,4.5299811686
2820,Bonheiden,Oude Kasteellaan,29,51.0233330191,4.56050222395
2820,Bonheiden,Putsesteenweg,379,51.0371858503,4.55446352172
2820,Bonheiden,Kanonniersweg,35,51.0214299245,4.57359702865
2820,Bonheiden,Guido Gezellelaan,20,51.0207455571,4.54955335225
2820,Bonheiden,Diedonken,78,51.0385784409,4.54815837835
2820,Bonheiden,Harentstraat,33,51.0206751319,4.57527803359
2820,Bonheiden,Hoogstraat,14,51.0001482517,4.58723372096
2820,Bonheiden,Kanonniersweg,17,51.0203389821,4.56834635235
2820,Bonheiden,Putsesteenweg,101,51.0355828995,4.52514416586
2820,Bonheiden,Sint-Jansstraat,34,51.0019410592,4.58948264646
2820,Bonheiden,Oude Baan,110,51.0356402625,4.54894003208
2820,Bonheiden,Populierenlaan,12,51.0217639662,4.54353962761
2820,Bonheiden,Grote Doelstraat,23,51.0263460404,4.55623217836
2820,Bonheiden,Putsesteenweg,136,51.0352538538,4.52798467795
2820,Bonheiden,Cupidolaan,4,51.022072711,4.58351350637
2820,Bonheiden,Zandstraat,6,51.0271710991,4.52504766985
2820,Bonheiden,Dijleweg,112,51.00475857,4.54872662317
2820,Bonheiden,Rijmenamseweg,196A,51.0157114481,4.57897520202
2820,Bonheiden,Weynesbaan,49,51.0213869311,4.6017974172
2820,Bonheiden,Boeimeerstraat,39,51.0139865584,4.56745862537
2820,Bonheiden,Mechelsesteenweg,242,51.0268353583,4.534536709
2820,Bonheiden,Zwarte Leeuwstraat,13,51.0371086373,4.53152663698
2820,Bonheiden,Zonnebloemstraat,6,51.0262334575,4.60356742002
2820,Bonheiden,Dorp,112,51.024405247,4.5427356643
2820,Bonheiden,Putsesteenweg,254,51.0366158676,4.55434306189
2820,Bonheiden,Waversesteenweg,50,51.027187302,4.55018754072
2820,Bonheiden,Lange Dreef,68,51.005453043,4.59146867976
2820,Bonheiden,Doornlaarstraat,51,51.0160848111,4.61487552838
2820,Bonheiden,Dijk,8,50.9987931342,4.58573516716
2820,Bonheiden,Mechelsesteenweg,162,51.0249684441,4.54039521425
2820,Bonheiden,Baxbos,9,51.0111252518,4.58562062914
2820,Bonheiden,Dorp,86,51.0237205133,4.54432902408
2820,Bonheiden,Weynesbaan,85,51.0265562939,4.60426591904
2820,Bonheiden,Peter Benoitlaan,38,51.0284759927,4.52535053377
2820,Bonheiden,Mechelsesteenweg,314,51.0315823871,4.52128576859
2820,Bonheiden,Zellaerstraat,33,51.0242088066,4.5467684441
2820,Bonheiden,Korte Dreef,127,51.011354373,4.58654861079
2820,Bonheiden,Oude Molenstraat,19,51.017051285,4.56947194795
2820,Bonheiden,Rijmenamseweg,195,51.0120503658,4.59427495563
2820,Bonheiden,Plasstraat,5,51.0246850798,4.60473838697
2820,Bonheiden,Kardinaal Cardijnlaan,24,51.0274297168,4.54844861831
2820,Bonheiden,Venlaan,6,51.0175508641,4.56594080054
2820,Bonheiden,Peter Benoitlaan,1A,51.0285193746,4.52651641269
2820,Bonheiden,Putsesteenweg,19,51.035207173,4.51746561769
2820,Bonheiden,Oude Keerbergsebaan,57,51.0054656578,4.604161716
2820,Bonheiden,Hairgracht,7,51.0375918256,4.51614601968
2820,Bonheiden,Waversesteenweg,39,51.0379172081,4.55153682826
2820,Bonheiden,Hondshoek,50,51.0177352868,4.54507435412
2820,Bonheiden,Korte Hondshoekstraat,4,51.0219725085,4.54141863691
2820,Bonheiden,Plasstraat,19,51.0247789076,4.60741522295
2820,Bonheiden,Rijmenamseweg,177,51.0120939331,4.58643735174
2820,Bonheiden,Dorstveld,38,51.0236859809,4.52435440656
2820,Bonheiden,Van den Reecklaan,25,51.0221331728,4.53378256576
2820,Bonheiden,Dijleweg,15,51.0005823776,4.57984804546
2820,Bonheiden,Gezonde Luchtlaan,6,51.0170693553,4.57327006992
2820,Bonheiden,Gestellei,8,51.03895724,4.52355064414
2820,Bonheiden,Rijmenamseweg,159,51.0148726829,4.58161387199
2820,Bonheiden,Reetlei,26,51.0182138898,4.62134506186
2820,Bonheiden,Grote Heidestraat,6,51.0218545789,4.553164099
2820,Bonheiden,Boslaan,22,51.0340466633,4.56123797211
2820,Bonheiden,Dijleweg,33,51.0015863948,4.57737443446
2820,Bonheiden,Bruinbeekstraat,28,51.0330852856,4.52895094811
2820,Bonheiden,Martstraat,1,51.0237737102,4.5997510409
2820,Bonheiden,Mechelsesteenweg,349,51.0331834511,4.51390045492
2820,Bonheiden,Oude Booischotsebaan,21,51.0214821803,4.59487593124
2820,Bonheiden,Eksterveldlaan,13,51.0379596665,4.53977365386
2820,Bonheiden,Eertberglei,30,51.021023331,4.60936754374
2820,Bonheiden,Martstraat,17,51.0243243955,4.60273896896
2820,Bonheiden,Koningin Astridlaan,26,51.0168713478,4.55313955898
2820,Bonheiden,Zellaerstraat,15,51.0232989404,4.54753291935
2820,Bonheiden,Gestelhoflei,25,51.0410820352,4.52957999191
2820,Bonheiden,Muizensteenweg,58,51.0208052827,4.53583231535
2820,Bonheiden,Dorp,68,51.0233935491,4.54530853885
2820,Bonheiden,Weynesbaan,14,51.0120286461,4.59961970285
2820,Bonheiden,Harentslei,8,51.029477161,4.5796066899
2820,Bonheiden,Weynesbaan,67,51.0240496847,4.60310190355
2820,Bonheiden,Oude Keerbergsebaan,22,51.0050620652,4.60464452116
2820,Bonheiden,Dorp,15,51.0216410706,4.54936327496
2820,Bonheiden,Putsesteenweg,272,51.0368790449,4.5581255094
2820,Bonheiden,Putsesteenweg,37,51.0352967514,4.51967880723
2820,Bonheiden,Van Rompaylaan,8,51.0248896043,4.53427209018
2820,Bonheiden,Aardestraat,8,51.026004927,4.52526782896
2820,Bonheiden,Kloosterstraat,31,51.0027373887,4.58250239925
2820,Bonheiden,Koning Albertlaan,5,51.0182496229,4.55559424935
2820,Bonheiden,Rijmenamseweg,124,51.0185265455,4.56609698621
2820,Bonheiden,Eikendreef,7,51.0251970933,4.52566264678
2820,Bonheiden,Lange Dreef,86,51.0069545009,4.59325826165
2820,Bonheiden,Plasstraat,37,51.0259033363,4.61683200926
2820,Bonheiden,Zellaerstraat,61,51.0252409154,4.54558934139
2820,Bonheiden,Kerkplein,6,51.023337264,4.54816062292
2820,Bonheiden,Plasstraat,50,51.0247058944,4.61755770192
2820,Bonheiden,Lange Dreef,6,51.0019489821,4.58625158947
2820,Bonheiden,Weynesbaan,148,51.0318625039,4.60717573305
2820,Bonheiden,Putsesteenweg,211,51.0360612511,4.53408735073
2820,Bonheiden,Oude Baan,41,51.034116386,4.52307580225
2820,Bonheiden,Berentrodedreef,57,51.026637463,4.55791346174
2820,Bonheiden,Korte Dreef,11,51.003267023,4.58602792629
2820,Bonheiden,Oude Schrieksebaan,5,51.0178648461,4.57651757483
2820,Bonheiden,Zellaerstraat,43,51.0244376252,4.54644092202
2820,Bonheiden,Berentrodedreef,75,51.0285642724,4.56318746833
2820,Bonheiden,Mechelsesteenweg,214,51.0258596357,4.53765936092
2820,Bonheiden,Oude Kasteellaan,40,51.020350147,4.56357624432
2820,Bonheiden,Boerenkrijglaan,7,51.0229397443,4.53845392736
2820,Bonheiden,Hendrik Consciencelaan,8,51.0191323518,4.55223353778
2820,Bonheiden,Harentstraat,61,51.0243702611,4.57650363161
2820,Bonheiden,Ravennestlaan,18,51.0370013543,4.53728541321
2820,Bonheiden,Eisenhowerlaan,2,51.021385035,4.5556347396
2820,Bonheiden,Schoolstraat,45,51.0206125619,4.54377774157
2820,Bonheiden,Eikendreef,22,51.0245484033,4.52140485805
2820,Bonheiden,Zwarte Leeuwstraat,76,51.0398540039,4.53521634485
2820,Bonheiden,Berlaarbaan,118,51.0462757335,4.52770405577
2820,Bonheiden,Oude Baan,165,51.0365905169,4.55564661859
2820,Bonheiden,Weynesbaan,29,51.0149452239,4.60008942258
2820,Bonheiden,Molenlei,31,51.0318545361,4.6182786373
2820,Bonheiden,Berlaarbaan,14,51.0420010942,4.51637156621
2820,Bonheiden,Mechelsesteenweg,350,51.0325660885,4.51555789884
2820,Bonheiden,Dijleweg,43,51.0015301523,4.57624302581
2820,Bonheiden,Kardinaal Cardijnlaan,70,51.0269165191,4.54704361774
2820,Bonheiden,Meiboomstraat,10,51.0182391461,4.6313029556
2820,Bonheiden,Dijleweg,6,51.0008036793,4.58218853972
2820,Bonheiden,Berlaarbaan,40,51.0434540864,4.51813616408
2820,Bonheiden,Oude Schrieksebaan,91,51.0142281606,4.59816765236
2820,Bonheiden,Dorp,6,51.0220721707,4.54931477498
2820,Bonheiden,Louterman,27,51.0233988031,4.60600211194
2820,Bonheiden,Krekelweg,12,51.0204041412,4.54691768172
2820,Bonheiden,Kruisstraat,1,51.0023673967,4.5919148425
2820,Bonheiden,Domis de Semerpontlaan,33,51.0195154994,4.55619162207
2820,Bonheiden,Kievitlaan,3,51.0299261869,4.52782549978
2820,Bonheiden,Gemeenteheide,8,51.0241146584,4.55670012316
2820,Bonheiden,Oude Schrieksebaan,55,51.0178565271,4.58766859729
2820,Bonheiden,Elststraat,11,51.0064667688,4.58008594335
2820,Bonheiden,Zilverberklaan,66,51.0050039404,4.5946689217
2820,Bonheiden,Weynesbaan,93,51.0280896336,4.60481019003
2820,Bonheiden,Sint-Marcusweg,36,51.0014470341,4.58822763486
2820,Bonheiden,Imeldalaan,16,51.0186380311,4.55689354696
2820,Bonheiden,Eksterveldlaan,4,51.0369432258,4.54079358353
2820,Bonheiden,Oude Schrieksebaan,73,51.0148119053,4.59197218156
2820,Bonheiden,Groothoeveweg,11,51.043042935,4.52435287705
2820,Bonheiden,Lange Dreef,114B,51.0095627629,4.59704202225
2820,Bonheiden,Lange Dreef,112,51.0090935071,4.59783850643
2820,Bonheiden,Schoolstraat,8,51.0217698825,4.54695496582
2820,Bonheiden,Edgar Tinellaan,26,51.0230727567,4.55064373567
2820,Bonheiden,Oude Kasteellaan,14,51.0243963197,4.55824331813
2820,Bonheiden,Befferdreef,3,51.0310483361,4.51730665815
2820,Bonheiden,Putsesteenweg,128,51.035209065,4.52727226823
2820,Bonheiden,Schoolstraat,63,51.0197470119,4.54116412715
2820,Bonheiden,Zellaerstraat,6,51.0233026356,4.54782112763
2820,Bonheiden,Putsesteenweg,389,51.0396899371,4.56424815149
2820,Bonheiden,Putsesteenweg,174,51.035494262,4.53168395347
2820,Bonheiden,Domis de Semerpontlaan,47,51.0189155962,4.5600719164
2820,Bonheiden,Oude Schrieksebaan,27,51.0174472792,4.580951104
2820,Bonheiden,Zwarte Leeuwstraat,58,51.038427208,4.53392450883
2820,Bonheiden,Dorsthoeveweg,13,51.0237542052,4.52816946357
2820,Bonheiden,Boeimeerstraat,70,51.0126197663,4.563979732
2820,Bonheiden,Brugstraat,23,50.9996187471,4.58696784029
2820,Bonheiden,Domis de Semerpontlaan,15,51.0201236777,4.554112709
2820,Bonheiden,Putsesteenweg,192,51.0356005849,4.53432751004
2820,Bonheiden,Guldensporenlaan,52,51.0217665497,4.52803468103
2820,Bonheiden,Berentrodedreef,7,51.0230175793,4.54935406629
2820,Bonheiden,Muizensteenweg,38,51.0214717504,4.53838573319
2820,Bonheiden,Hoogstraat,40,51.0008643456,4.58900188
2820,Bonheiden,Rijmenamseweg,232,51.0109620413,4.59582015448
2820,Bonheiden,Mechelsesteenweg,197,51.0250688317,4.53905262292
2820,Bonheiden,Nieuwstraat,43,51.0244899492,4.54803064766
2820,Bonheiden,Weynesbaan,113,51.0305478342,4.60589888429
2820,Bonheiden,Kanonniersweg,45,51.021368766,4.57459171667
2820,Bonheiden,Van Uytvenlaan,6,51.0193803941,4.54925746903
2820,Bonheiden,Putsesteenweg,50,51.0348806157,4.52040197169
2820,Bonheiden,Louterman,5,51.0224774194,4.60394903189
2820,Bonheiden,Oude Booischotsebaan,120,51.0207101389,4.57744023949
2820,Bonheiden,Harentstraat,6,51.0187701101,4.5769380347
2820,Bonheiden,Heidijkstraat,2,51.0065273704,4.56916867295
2820,Bonheiden,Kleinbeeklei,20,51.0230731003,4.60756784687
2820,Bonheiden,Mechelsbroekstraat,17,51.0265425698,4.52192723709
2820,Bonheiden,Broekstraat,43,51.0074227409,4.57889627869
2820,Bonheiden,Schoolstraat,81,51.0204737674,4.53827364542
2820,Bonheiden,Krankhoeflei,5,51.028513555,4.57555419389
2820,Bonheiden,Mechelsesteenweg,339,51.0329512083,4.51416360722
2820,Bonheiden,Rijmenamseweg,214,51.0118400452,4.58494952242
2820,Bonheiden,Pretersberg,7,51.0258564159,4.58339992384
2820,Bonheiden,Eksterveldlaan,41,51.0410677504,4.53869058565
2820,Bonheiden,Rijmenamseweg,53,51.020567658,4.5582130904
2820,Bonheiden,Boerenkrijglaan,29,51.023610576,4.5347006995
2820,Bonheiden,Zwarte Leeuwstraat,4,51.0362689066,4.53163975579
2820,Bonheiden,Mechelsesteenweg,267,51.0295022972,4.52620299736
2820,Bonheiden,Berentrodedreef,29,51.0242741653,4.5521308975
2820,Bonheiden,Pruimelaarstraat,14,51.0374439683,4.52762974106
2820,Bonheiden,Tuytgenlaan,1,51.0229692646,4.53997481049
2820,Bonheiden,Oude Molenstraat,20,51.0160457788,4.56893863702
2820,Bonheiden,Guido Gezellelaan,19,51.0204411378,4.54981854339
2820,Bonheiden,Boeimeerstraat,22,51.0167883513,4.56522602901
2820,Bonheiden,Oude Kasteellaan,32,51.0207945344,4.56321637955
2820,Bonheiden,Peerlaarstraat,50,51.0195275123,4.59295116537
2820,Bonheiden,Venlaan,23,51.0164605243,4.56751761082
2820,Bonheiden,De Bergen,28,51.016583963,4.57139480605
2820,Bonheiden,Koning Albertlaan,20,51.0163737219,4.55019437133
2820,Bonheiden,Plaslei,14,51.0295037705,4.61761847709
2820,Bonheiden,Amerstraat,14,51.0001116695,4.58509780623
2820,Bonheiden,Koningin Astridlaan,54,51.0162642689,4.55391083514
2820,Bonheiden,Mechelsesteenweg,179,51.0248097589,4.53979955169
2820,Bonheiden,Lange Dreef,61,51.0036366475,4.58801325034
2820,Bonheiden,Mechelsesteenweg,249,51.028275692,4.52843437669
2820,Bonheiden,Weynesbaan,7,51.01229516,4.59898577315
2820,Bonheiden,Martstraat,8,51.0235447551,4.60148207831
2820,Bonheiden,Doornlaarstraat,25,51.0157564456,4.60813537242
2820,Bonheiden,Berlaarbaan,32,51.0429535815,4.51756919424
2820,Bonheiden,Waversesteenweg,22,51.0240828989,4.54898604056
2820,Bonheiden,Kerselaarstraat,60,51.0361419102,4.52729782385
2820,Bonheiden,Voordiedonkenlaan,7,51.0374152008,4.54161425955
2820,Bonheiden,Domis de Semerpontlaan,45,51.0188823493,4.55973316245
2820,Bonheiden,Boeimeerstraat,52,51.0144745192,4.56669475195
2820,Bonheiden,Putsesteenweg,301,51.0367476886,4.54641939309
2820,Bonheiden,Gestellei,1,51.0377778787,4.52211743066
2820,Bonheiden,Boortmeerbeeksebaan,32,50.9920655739,4.58269684144
2820,Bonheiden,Eertberglei,27,51.0210735257,4.60745685693
2820,Bonheiden,Korte Dreef,99,51.0105100437,4.58663615145
2820,Bonheiden,Beukenlaan,9,51.0195099726,4.57771249858
2820,Bonheiden,Kerselaarstraat,42,51.0362483262,4.52843417212
2820,Bonheiden,Waversesteenweg,57,51.0393246559,4.55185801232
2820,Bonheiden,Rijmenamseweg,142,51.0180171027,4.56961134652
2820,Bonheiden,Sint-Maartensberg,16,51.000996427,4.5828676801
2820,Bonheiden,Rijmenamseweg,10,51.0212912451,4.55154950813
2820,Bonheiden,Vredesteinlaan,14,51.0381203792,4.53835719727
2820,Bonheiden,Mechelsesteenweg,285,51.0300807966,4.52400469551
2820,Bonheiden,Schommen,10,51.0210286628,4.54747462119
2820,Bonheiden,Weyneshoflei,14,51.0304953055,4.60927338062
2820,Bonheiden,Kardinaal Cardijnlaan,52,51.0276898102,4.54683076409
2820,Bonheiden,Van Rompaylaan,1,51.0248402994,4.53525611148
2820,Bonheiden,Mechelsesteenweg,232,51.0262514399,4.53661483494
2820,Bonheiden,Populierenlaan,5,51.0225954072,4.54314837076
2820,Bonheiden,Poverstraat,12,51.0251570296,4.54440498621
2820,Bonheiden,Bleukstraat,16,51.0210935894,4.61260873304
2820,Bonheiden,Harentslei,1,51.0293898268,4.57923424524
2820,Bonheiden,Notelaarstraat,13,51.0364405914,4.52524113935
2820,Bonheiden,Dorp,61,51.0225281883,4.54619163814
2820,Bonheiden,Taboralaan,3,51.012222904,4.60801053225
2820,Bonheiden,Kapelweg,15,51.0373813868,4.53376140797
2820,Bonheiden,Sint-Jansstraat,42,51.0021927436,4.58991821245
2820,Bonheiden,Nieuwstraat,6,51.0232276125,4.54708995089
2820,Bonheiden,Oude Booischotsebaan,18,51.0271483675,4.60243967396
2820,Bonheiden,Putsesteenweg,20,51.0347061303,4.51781572371
2820,Bonheiden,Oude Keerbergsebaan,39,51.0038071815,4.59944585709
2820,Bonheiden,Scherpstuklei,3,51.0314316323,4.58091276334
2820,Bonheiden,Weynesbaan,40,51.016594818,4.60104243016
2820,Bonheiden,Broekstraat,6,51.0075284333,4.58610987624
2820,Bonheiden,Rijmenamseweg,160,51.0176055263,4.57199280372
2820,Bonheiden,Putsesteenweg,299,51.0367560194,4.54614155553
2820,Bonheiden,Sint-Elooisweg,24,51.0031477042,4.58463389055
2820,Bonheiden,Vijverstein,22,51.0089945868,4.56449903421
2820,Bonheiden,Venneboslaan,16,51.0252144765,4.55914817553
2820,Bonheiden,Matadilaan,1,51.020518503,4.55953477139
2820,Bonheiden,Boslaan,14,51.034722536,4.56003609453
2820,Bonheiden,Peulisbaan,13,51.0167966333,4.5832341432
2820,Bonheiden,Zellaerstraat,78,51.025816174,4.5456757616
2820,Bonheiden,Brakelberglei,31,51.00829749,4.59103128411
2820,Bonheiden,Watermolenstraat,16,51.010948646,4.60372041149
2820,Bonheiden,Donkerstraat,15,51.0187669674,4.6220225805
2820,Bonheiden,Muizensteenweg,13,51.0231997803,4.54281967831
2820,Bonheiden,Berentrodedreef,40,51.0252193848,4.55604335308
2820,Bonheiden,Donkerstraat,33,51.0197541299,4.6256312381
2820,Bonheiden,Ravennestlaan,11,51.0370647287,4.53609132431
2820,Bonheiden,Bruinbeekstraat,58,51.0351695674,4.53078394451
2820,Bonheiden,Dorsthoeveweg,38,51.0245547124,4.52621664839
2820,Bonheiden,Peulisbaan,31,51.0195784895,4.58249229118
2820,Bonheiden,Putsesteenweg,199,51.036042894,4.53307790446
2820,Bonheiden,Martstraat,10,51.0237605511,4.60204144757
2820,Bonheiden,Weynesbaan,141,51.0325552402,4.5982692723
2820,Bonheiden,Weynesbaan,136,51.0311575406,4.6071963669
2820,Bonheiden,Pastorijstraat,7,51.024943966,4.55119166403
2820,Bonheiden,Rijmenamseweg,250,51.0100190771,4.60042238417
2820,Bonheiden,Notelaarstraat,6,51.0365133267,4.5255668694
2820,Bonheiden,Nieuwstraat,25,51.0237319961,4.54714390283
2820,Bonheiden,Muizensteenweg,31,51.0229790343,4.54213528914
2820,Bonheiden,Krimeestraat,1,51.0118081366,4.59626329415
2820,Bonheiden,Oude Baan,58,51.0336995643,4.52618652417
2820,Bonheiden,Molenberg,14,51.0211179348,4.54928699542
2820,Bonheiden,Plasstraat,49,51.0265168456,4.62704323031
2820,Bonheiden,Brouwersdreef,6,51.0273305609,4.52871565232
2820,Bonheiden,Zandbergstraat,38,51.0233830531,4.57692582857
2820,Bonheiden,Broekstraat,25,51.0073186296,4.58243887945
2820,Bonheiden,Peerlaarstraat,14,51.0173544036,4.59020408494
2820,Bonheiden,Oude Kasteellaan,57,51.0208900349,4.56411409585
2820,Bonheiden,Eikendreef,29,51.024486139,4.52309808552
2820,Bonheiden,Lange Veldstraat,13,51.0166410481,4.56223499917
2820,Bonheiden,Weynesbaan,22,51.012879874,4.6004156288
2820,Bonheiden,Rijmenamseweg,132,51.0182692272,4.56729914396
2820,Bonheiden,Bakestraat,54,51.0113608194,4.62587890608
2820,Bonheiden,Putsesteenweg,218,51.0363342444,4.54862777863
2820,Bonheiden,Lange Dreef,25,51.0025593297,4.58664678425
2820,Bonheiden,Krekelweg,19,51.019608308,4.5461081331
2820,Bonheiden,Olmenlaan,13,51.0205597648,4.54167835363
2820,Bonheiden,Hairgracht,29,51.0378853541,4.5211777971
2820,Bonheiden,Boortmeerbeeksebaan,7,50.9938247076,4.58565710556
2820,Bonheiden,Guldensporenlaan,34,51.0237087105,4.52975538621
2820,Bonheiden,Kardinaal Cardijnlaan,87,51.0263540538,4.54817721479
2820,Bonheiden,Korte Schommenstraat,7,51.0202166574,4.54415621398
2820,Bonheiden,Oude Baan,94,51.0335819485,4.53290143694
2820,Bonheiden,Korte Hondshoekstraat,11,51.0212310073,4.54250975535
2820,Bonheiden,Putsesteenweg,85,51.0354701802,4.52317537644
2820,Bonheiden,Mechelsesteenweg,304,51.0310851669,4.52248415102
2820,Bonheiden,Zilverberklaan,38,51.0045537081,4.59678929842
2820,Bonheiden,Oude Keerbergsebaan,14,51.0040233132,4.60174925372
2820,Bonheiden,Van Arteveldelaan,8,51.0204616581,4.5624624833
2820,Bonheiden,Oude Schrieksebaan,20,51.01676428,4.58065742256
2820,Bonheiden,Molenlei,38,51.0293171284,4.61584461376
2820,Bonheiden,Pelgrimstraat,20,51.0254662371,4.56851438169
2820,Bonheiden,Zwarte Leeuwstraat,41,51.0383523343,4.53302516564
2820,Bonheiden,Lange Dreef,129,51.0103310217,4.59544005771
2820,Bonheiden,Rivierenlaan,7A,51.0125770297,4.60537244845
2820,Bonheiden,Putsesteenweg,49,51.0353337816,4.52065664305
2820,Bonheiden,Hoogstraat,7,51.0004385619,4.58720630212
2820,Bonheiden,Groothoeveweg,4,51.0407973967,4.52134188152
2820,Bonheiden,Kraaivenstraat,27,51.0055646939,4.59859683496
2820,Bonheiden,Louterman,20,51.0225338055,4.60442977511
2820,Bonheiden,Dobbelhuizen,6,51.0227524569,4.57309814273
2820,Bonheiden,Oude Kasteellaan,7,51.0249527088,4.55826396474
2820,Bonheiden,Mechelsesteenweg,114,51.0244625268,4.54223701336
2820,Bonheiden,Bakestraat,90,51.0141155012,4.63149595492
2820,Bonheiden,Huurstraat,14,51.0087653103,4.57766270046
2820,Bonheiden,Dorstveld,13,51.0245872019,4.52457306699
2820,Bonheiden,Dorsthoeveweg,6,51.0246169806,4.52915304158
2820,Bonheiden,Venneboslaan,34,51.0268413539,4.55967722389
2820,Bonheiden,Groothoeveweg,18,51.0428249122,4.5251261199
2820,Bonheiden,Kleinbeeklei,27,51.0233328013,4.60862275432
2820,Bonheiden,Oude Baan,76,51.0336204263,4.53017852286
2820,Bonheiden,Mechelsesteenweg,322,51.031848596,4.51944482744
2820,Bonheiden,Putsesteenweg,67,51.0353980671,4.5220270539
2820,Bonheiden,Domis de Semerpontlaan,8,51.021003349,4.5508987637
2820,Bonheiden,Zandbergstraat,6,51.0218182406,4.5800915957
2820,Bonheiden,Oude straat,40,51.0366025723,4.51479218619
2820,Bonheiden,Lange Veldstraat,31,51.0151591557,4.56204260225
2820,Bonheiden,Korte Dreef,46,51.0059298614,4.58772510144
2820,Bonheiden,De Bergen,2,51.0158079094,4.57670066135
2820,Bonheiden,Muizensteenweg,66,51.0210153289,4.53382150925
2820,Bonheiden,Grote Doelstraat,13,51.0269883514,4.55524609867
2820,Bonheiden,Zellaerstraat,25,51.0235717382,4.54736905758
2820,Bonheiden,Oude Molenstraat,27,51.0165388024,4.56927051685
2820,Bonheiden,Van den Reecklaan,1,51.0212109512,4.53671840779
2820,Bonheiden,Rijmenamseweg,185,51.0119694867,4.58972726516
2820,Bonheiden,Halmenhoek,1,51.0203315801,4.55131386777
2820,Bonheiden,Mechelsesteenweg,132,51.0247385167,4.54142759397
2820,Bonheiden,Diedonken,68,51.0400720605,4.54909246501
2820,Bonheiden,Imeldalaan,9,51.0174568798,4.55944601101
2820,Bonheiden,Weynesbaan,57,51.0223644618,4.60212996504
2820,Bonheiden,Rijmenamseweg,88,51.0195449188,4.56023853463
2820,Bonheiden,Mechelsesteenweg,250,51.0270718754,4.53408013693
2820,Bonheiden,Mechelsesteenweg,190,51.0255040145,4.53885095583
2820,Bonheiden,Jachthoornlaan,16,51.0067478035,4.60307037596
2820,Bonheiden,Putsesteenweg,246,51.0366068405,4.55317010448
2820,Bonheiden,Dorp,104,51.024117025,4.5432418595
2820,Bonheiden,Schallenberghlaan,1,51.0245201511,4.53661387699
2820,Bonheiden,Garsgoed,6,51.022394354,4.60627365286
2820,Bonheiden,Weyneshoflei,7,51.0310296434,4.60978547562
2820,Bonheiden,Rattenbergstraat,6,51.0035850799,4.60274962592
2820,Bonheiden,Poverstraat,19,51.0257500848,4.54443316127
2820,Bonheiden,Eksterveldlaan,58,51.0411696726,4.54274646268
2820,Bonheiden,Kievitlaan,17,51.030712387,4.52607893052
2820,Bonheiden,Harentstraat,25,51.0206829368,4.57533792711
2820,Bonheiden,Oude Kasteellaan,39,51.0225989137,4.56157999068
2820,Bonheiden,Pruimelaarstraat,7,51.0365297597,4.52731724938
2820,Bonheiden,Oude Baan,102,51.0357261612,4.54778956263
2820,Bonheiden,Guido Gezellelaan,30,51.0204174716,4.54919321426
2820,Bonheiden,Gemeenteplein,8,51.0010993045,4.5852932803
2820,Bonheiden,Schoolstraat,10,51.021907014,4.54531844772
2820,Bonheiden,Gemeenteheide,10,51.0240864601,4.55640226093
2820,Bonheiden,Hollakenbaan,16,50.9975931283,4.58658415723
2820,Bonheiden,Oude straat,22,51.0358149245,4.51532106548
2820,Bonheiden,De Bergen,21,51.015474369,4.57586238293
2820,Bonheiden,Boeimeerstraat,29,51.0162351963,4.56686325286
2820,Bonheiden,Roggemansstraat,8,51.0279812588,4.53588211665
2820,Bonheiden,Kardinaal Cardijnlaan,34,51.0276190571,4.54784054923
2820,Bonheiden,Lange Dreef,78,51.0063506665,4.59228807649
2820,Bonheiden,Peulisbaan,66,51.0249307609,4.58204771961
2820,Bonheiden,Zwarte Leeuwstraat,23,51.0374902575,4.53182366459
2820,Bonheiden,Zellaerdreef,18,51.0341115199,4.53643941143
2820,Bonheiden,Heidestraat,8,51.0062203493,4.59396712
2820,Bonheiden,Tramweg,1,51.0322527274,4.51945654074
2820,Bonheiden,Weynesbaan,75,51.0252688718,4.60350697999
2820,Bonheiden,Dorstveld,36A,51.024202074,4.52426262816
2820,Bonheiden,Lijsterbeslaan,16,51.0189849073,4.57967929516
2820,Bonheiden,Koningin Astridlaan,36,51.0166156115,4.55336627765
2820,Bonheiden,Doornlaarstraat,61,51.0153359057,4.61731825662
2820,Bonheiden,Kerselaarstraat,24,51.0364262573,4.52952429477
2820,Bonheiden,Nieuwe Dreef,4,51.0120973383,4.60364354334
2820,Bonheiden,Dorp,96,51.0240127684,4.54383397243
2820,Bonheiden,Poverstraat,5,51.0249816358,4.54254639074
2820,Bonheiden,Peerlaarstraat,32,51.0195431274,4.59230506361
2820,Bonheiden,Eertberglei,20,51.0203893059,4.6088090162
2820,Bonheiden,Oude Booischotsebaan,11,51.0259970783,4.6019725168
2820,Bonheiden,Rijmenamseweg,149,51.0163400427,4.57893186008
2820,Bonheiden,Oude Baan,4,51.0340382558,4.52012323109
2820,Bonheiden,Tramweg,15,51.0336021503,4.51918319652
2820,Bonheiden,Waversesteenweg,40,51.0262175838,4.55000017998
2820,Bonheiden,Oude Booischotsebaan,46,51.025631711,4.59931395187
2820,Bonheiden,Mechelsesteenweg,239,51.0270074829,4.53250084552
2820,Bonheiden,Bruinbeekstraat,4,51.0306227939,4.52565596317
2820,Bonheiden,Van den Reecklaan,15,51.0220844209,4.53514023339
2820,Bonheiden,Waversesteenweg,29,51.0321421563,4.55105245786
2820,Bonheiden,Guido Gezellelaan,12,51.020956322,4.54974671642
2820,Bonheiden,Kardinaal Cardijnlaan,69,51.0257114038,4.54772161911
2820,Bonheiden,Van den Reecklaan,33,51.0230610055,4.53302688528
2820,Bonheiden,Sint-Maartensberg,9,51.0012690644,4.58404794883
2820,Bonheiden,Peter Benoitlaan,17A,51.0263243012,4.5266133228
2820,Bonheiden,Rijmenamseweg,167,51.013242617,4.58450857073
2820,Bonheiden,Dijleweg,25,51.0010537071,4.57898087468
2820,Bonheiden,Kapelweg,8,51.0375386581,4.53429746701
2820,Bonheiden,Kardinaal Cardijnlaan,16,51.027265176,4.54900275519
2820,Bonheiden,Rijmenamseweg,114,51.0187879716,4.56495739692
2820,Bonheiden,Sleestraat,14,51.0227760216,4.60170258551
2820,Bonheiden,Putsesteenweg,27,51.0352186534,4.51833344984
2820,Bonheiden,Dorp,25,51.0218606957,4.54870551787
2820,Bonheiden,Putsesteenweg,282,51.0368627116,4.5588317377
2820,Bonheiden,Bruinbeekstraat,18,51.0314852855,4.52786104129
2820,Bonheiden,Hendrik Consciencelaan,10,51.0190110707,4.55201543861
2820,Bonheiden,Plasstraat,27,51.0247547595,4.6083700772
2820,Bonheiden,Eksterveldlaan,23,51.038796805,4.5395939416
2820,Bonheiden,Mechelsesteenweg,154,51.0249570158,4.54064902567
2820,Bonheiden,Brugstraat,11,51.0003078812,4.58622727914
2820,Bonheiden,Duinenweg,9,51.0113746958,4.60084647154
2820,Bonheiden,Korte Dreef,125,51.0112593069,4.5868181912
2820,Bonheiden,Oude Schrieksebaan,39,51.0171365587,4.58266608983
2820,Bonheiden,Rijmenamseweg,139,51.0170194911,4.57754259388
2820,Bonheiden,Grote Doelstraat,8,51.02766649,4.55262360346
2820,Bonheiden,Pelgrimpad,14,51.0251687817,4.58577923598
2820,Bonheiden,Nachtegalenlaan,11,51.0314399705,4.52846360461
2820,Bonheiden,Weynesbaan,158,51.0323153229,4.60519978233
2820,Bonheiden,Dorp,71,51.0228077798,4.54575414384
2820,Bonheiden,Oude Baan,18,51.0339404145,4.52154054493
2820,Bonheiden,Hoogstraat,37,51.0012449317,4.58910496549
2820,Bonheiden,Ottershoekstraat,11,51.0217913991,4.63185069391
2820,Bonheiden,Jachthoornlaan,44,51.0097903557,4.59998609003
2820,Bonheiden,Tramweg,6,51.0321174225,4.52037829768
2820,Bonheiden,Brandheidestraat,11,51.0292912681,4.59700322368
2820,Bonheiden,Oude Keerbergsebaan,55,51.0053464221,4.60377800005
2820,Bonheiden,Hondshoek,30,51.0177195897,4.54209764189
2820,Bonheiden,Oude Booischotsebaan,94,51.0225055042,4.58441241993
2820,Bonheiden,Amerstraat,20,50.9997678428,4.58523981102
2820,Bonheiden,Kardinaal Cardijnlaan,80,51.0265483095,4.54717391647
2820,Bonheiden,Van den Reecklaan,6,51.0218548348,4.53646902794
2820,Bonheiden,Hazelaarlei,8,51.0233766602,4.58307367291
2820,Bonheiden,Guido Gezellelaan,5,51.0208991821,4.55036660767
2820,Bonheiden,Dorstveld,28,51.0252508167,4.5237264887
2820,Bonheiden,Varenweg,8,51.0206778014,4.58652968367
2820,Bonheiden,Zandbergstraat,21,51.0220199144,4.57760415628
2820,Bonheiden,Zellaerstraat,53,51.0248940695,4.54585969639
2820,Bonheiden,Korte Dreef,58,51.0070704668,4.58821887151
2820,Bonheiden,Kanonniersweg,3A,51.0199836979,4.5666165022
2820,Bonheiden,Pelgrimstraat,1B,51.0247358487,4.55912398716
2820,Bonheiden,Eksterveldlaan,46,51.0404921051,4.54084161121
2820,Bonheiden,Donkerstraat,45,51.0204704197,4.62896090673
2820,Bonheiden,Zilverberklaan,21,51.0053125994,4.59421592029
2820,Bonheiden,Dorp,53,51.0223122111,4.54676505474
2820,Bonheiden,Doornlaarstraat,88,51.0149383017,4.62861629665
2820,Bonheiden,Koning Albertlaan,14,51.0183869788,4.5528640827
2820,Bonheiden,Schallenberghlaan,6,51.0242830375,4.5351512136
2820,Bonheiden,Kraaivenstraat,32,51.0056143773,4.60084791051
2820,Bonheiden,Kerselaarstraat,72,51.0363461739,4.52654005231
2820,Bonheiden,Eikendreef,12,51.0249132407,4.52355076233
2820,Bonheiden,Rattenbergstraat,1,51.0044714548,4.60371589638
2820,Bonheiden,Putsesteenweg,287,51.0365826398,4.54415661155
2820,Bonheiden,Hairgracht,12,51.03718963,4.51652484276
2820,Bonheiden,Zilverberklaan,8,51.0037678251,4.59360339287
2820,Bonheiden,Lange Dreef,71,51.0039861158,4.58850912186
2820,Bonheiden,Gestelhoflei,6,51.0397620075,4.53224052918
2820,Bonheiden,Koningin Astridlaan,64B,51.0129630407,4.56099811794
2820,Bonheiden,Berlaarbaan,108,51.0457548206,4.52516461374
2820,Bonheiden,Stuyvenbergstraat,5,51.012985584,4.61889802457
2820,Bonheiden,Kruisstraat,17,51.0051978355,4.58827660667
2820,Bonheiden,Notelaarstraat,21,51.036704389,4.52512868193
2820,Bonheiden,Oude Baan,171,51.0366996836,4.5568030141
2820,Bonheiden,Brouwersdreef,21,51.0269689358,4.52705723796
2820,Bonheiden,Weynesbaan,65,51.0235489762,4.6022986553
2820,Bonheiden,Weynesbaan,19,51.0135372342,4.59978376817
2820,Bonheiden,Kapelweg,10,51.0377139704,4.53434228719
2820,Bonheiden,Boeimeerstraat,80,51.0117840914,4.56002686585
2820,Bonheiden,Broekstraat,53,51.0048502786,4.57527884614
2820,Bonheiden,Korte Dreef,23,51.0037177487,4.58621608894
2820,Bonheiden,Watermolenstraat,9,51.0122680542,4.60215033186
2820,Bonheiden,Guldensporenlaan,44,51.0224242184,4.52926507834
2820,Bonheiden,Rijmenamseweg,222,51.0114736325,4.58810662045
2820,Bonheiden,Zilverberklaan,56,51.0046702317,4.59473241759
2820,Bonheiden,Venneboslaan,9,51.0262125521,4.55935650563
2820,Bonheiden,Cupidolaan,2,51.0219777782,4.58356708673
2820,Bonheiden,Edgar Tinellaan,16,51.0226490865,4.55140588744
2820,Bonheiden,Sleestraat,27,51.0230237402,4.59989399238
2820,Bonheiden,Ravennestlaan,6,51.0366817288,4.5373314485
2820,Bonheiden,Rijmenamseweg,61,51.0202775536,4.55989208177
2820,Bonheiden,Van den Reecklaan,45,51.0237237528,4.53162044901
2820,Bonheiden,Oude Baan,100,51.0350933661,4.54847415474
2820,Bonheiden,Boslaan,3,51.0359274737,4.56017134242
2820,Bonheiden,Guldensporenlaan,9,51.0253694014,4.53359731989
2820,Bonheiden,Rijmenamseweg,204,51.0147410651,4.58048094026
2820,Bonheiden,Kerselaarstraat,54,51.0361608983,4.52787928194
2820,Bonheiden,Putsesteenweg,306,51.0370840719,4.56199273162
2820,Bonheiden,Weynesbaan,83,51.0263278365,4.60415401402
2820,Bonheiden,Mechelsesteenweg,329,51.0319040094,4.5161609603
2820,Bonheiden,Rijmenamseweg,15,51.0214462225,4.55315350595
2820,Bonheiden,Muizensteenweg,74,51.0197220028,4.5349526598
2820,Bonheiden,Oude Booischotsebaan,58,51.02476272,4.59730064444
2820,Bonheiden,Hondshoek,12,51.0187293428,4.54013340056
2820,Bonheiden,Plasstraat,14,51.0244966175,4.60592359557
2820,Bonheiden,Gemeenteplein,10,51.0012518142,4.58541009424
2820,Bonheiden,Kathoefweg,3,51.031756695,4.54470269327
2820,Bonheiden,Putsesteenweg,144,51.0352760846,4.52836084195
2820,Bonheiden,Domis de Semerpontlaan,51,51.0186003722,4.56060833308
2820,Bonheiden,Schommen,15,51.0202440345,4.54892560362
2820,Bonheiden,Putsesteenweg,14,51.0346499005,4.51742919635
2820,Bonheiden,Lange Dreef,53,51.0034517328,4.58772901124
2820,Bonheiden,Putsesteenweg,32,51.0348170896,4.51912553051
2820,Bonheiden,Brouwersdreef,1,51.0248201177,4.52988522373
2820,Bonheiden,Oude Baan,82,51.0336154451,4.53137644197
2820,Bonheiden,Oude Keerbergsebaan,3,51.0028501216,4.5932765715
2820,Bonheiden,Roggemansstraat,10,51.0284928461,4.53693607477
2820,Bonheiden,Bruinbeekstraat,23,51.0318883644,4.52765400119
2820,Bonheiden,Putsesteenweg,91,51.0356485251,4.52419346601
2820,Bonheiden,Cassenbroek,3,51.0138934253,4.57041198359
2820,Bonheiden,Lange Dreef,124,51.0106438639,4.59774394549
2820,Bonheiden,Meiboomstraat,15,51.0193438514,4.63060298998
2820,Bonheiden,Dennengeurlaan,3,51.0068113991,4.59060931114
2820,Bonheiden,Eksterveldlaan,18,51.0381728276,4.54055160921
2820,Bonheiden,Van Arteveldelaan,10,51.0206094736,4.56249559171
2820,Bonheiden,Schoolstraat,51,51.0202114805,4.54298596435
2820,Bonheiden,Heidestraat,10,51.0060296375,4.59422850036
2820,Bonheiden,de Selliers de Moranvillelaan,7,51.0194320643,4.55416611334
2820,Bonheiden,Lange Dreef,106,51.0092235684,4.59599508209
2820,Bonheiden,Matadilaan,6,51.0208357053,4.56103454239
2820,Bonheiden,Jachthoornlaan,9,51.0067492388,4.60153631
2820,Bonheiden,Boeimeerstraat,62,51.0137119101,4.56512886133
2820,Bonheiden,Berlaarbaan,20,51.0424378573,4.51695099924
2820,Bonheiden,Hollakenbaan,9,50.9964078108,4.58889995592
2820,Bonheiden,Oude Keerbergsebaan,27,51.0031657417,4.59745896127
2820,Bonheiden,Oude Baan,46,51.0335632839,4.5243738364
2820,Bonheiden,Esdoornlaan,11,51.0213045351,4.54025246292
2820,Bonheiden,Mechelsesteenweg,139,51.0242993779,4.54126048826
2820,Bonheiden,Notelaarstraat,1,51.0356014728,4.52543891331
2820,Bonheiden,Spiekelei,14,51.0162028304,4.58278223055
2820,Bonheiden,Boeimeerstraat,12,51.0180098395,4.56379421056
2820,Bonheiden,Putsesteenweg,234,51.0364845073,4.55126845796
2820,Bonheiden,Bruinbeekstraat,46,51.0345355918,4.53018311748
2820,Bonheiden,De Bergen,38,51.0157239298,4.56922511933
2820,Bonheiden,Peter Benoitlaan,11,51.0268018541,4.52643876062
2820,Bonheiden,Rijmenamseweg,43,51.0209313266,4.55610452785
2820,Bonheiden,Krimeestraat,6,51.0132714424,4.5963715977
2820,Bonheiden,Mechelsesteenweg,189,51.0250131097,4.53935487745
2820,Bonheiden,Mechelsesteenweg,340,51.032312252,4.51697567922
2820,Bonheiden,Koningin Astridlaan,7,51.017235886,4.55340535706
2820,Bonheiden,Bleukstraat,26,51.0235358474,4.61108215973
2820,Bonheiden,Dorsthoeveweg,1,51.0244176303,4.52985461368
2820,Bonheiden,Grote Doelstraat,28,51.0264291617,4.55512113743
2820,Bonheiden,Berentrodedreef,37,51.0252570569,4.55490892394
2820,Bonheiden,Molenlei,56,51.0323242765,4.61993595051
2820,Bonheiden,Mechelsesteenweg,275,51.0297600332,4.5249782333
2820,Bonheiden,Harentstraat,53,51.0235334041,4.5761847726
2820,Bonheiden,Huurstraat,3,51.0087845997,4.5789415916
2820,Bonheiden,Putsesteenweg,180,51.0353749368,4.53210111201
2820,Bonheiden,Oude Kasteellaan,20,51.0240290179,4.55869350873
2820,Bonheiden,Plasstraat,55,51.028018794,4.62615878421
2820,Bonheiden,Kardinaal Cardijnlaan,44,51.0278567925,4.54726715586
2820,Bonheiden,Zandbergstraat,1,51.021678495,4.57821747906
2820,Bonheiden,Mechelsesteenweg,222,51.0259786756,4.5373296756
2820,Bonheiden,Putsesteenweg,55,51.0353595369,4.52110552422
2820,Bonheiden,Zwarte Leeuwstraat,18,51.0368119731,4.53219225982
2820,Bonheiden,Domis de Semerpontlaan,10,51.0207447385,4.55130037719
2820,Bonheiden,Bareelveld,7,51.0335549428,4.51565153991
2820,Bonheiden,Zellaerdreef,23,51.0261645761,4.54526700146
2820,Bonheiden,Zilverberklaan,1,51.0039992272,4.59142384971
2820,Bonheiden,Gestellei,17,51.0420050537,4.52564395077
2820,Bonheiden,Putsesteenweg,269,51.036365074,4.54028789676
2820,Bonheiden,Boeimeerstraat,30,51.0161064748,4.56611539753
2820,Bonheiden,Vijverstein,12,51.0090889869,4.56449031096
2820,Bonheiden,Gezonde Luchtlaan,11,51.0166659398,4.57367388346
2820,Bonheiden,Rijmenamseweg,150,51.0177491241,4.57103218249
2820,Bonheiden,Mechelsesteenweg,204,51.0256538497,4.53836288771
2820,Bonheiden,Putsesteenweg,73,51.0354195614,4.52229372304
2820,Bonheiden,Boerenkrijglaan,19,51.0227996701,4.53647199816
2820,Bonheiden,Kardinaal Cardijnlaan,9,51.0268595191,4.5488736143
2820,Bonheiden,Diedonken,6,51.0387868325,4.55059352932
2820,Bonheiden,Waversesteenweg,12,51.0237805829,4.54881967946
2820,Bonheiden,Grote Heidestraat,11,51.0220229168,4.55272350584
2820,Bonheiden,Putsesteenweg,216,51.0363670555,4.54821616587
2820,Bonheiden,Kraaivenstraat,14,51.004805167,4.59875266738
2820,Bonheiden,Kardinaal Mercierlaan,8,51.0185293839,4.54850654435
2820,Bonheiden,Bruinbeekstraat,48,51.0346702819,4.53028851082
2820,Bonheiden,Kleine Heidelaan,11,51.0247013494,4.53756765035
2820,Bonheiden,Venlaan,11,51.017774724,4.56847248351
2820,Bonheiden,Donkerstraat,6,51.0190327082,4.61409624885
2820,Bonheiden,Brughoevestraat,8,51.0022974456,4.60063710646
2820,Bonheiden,Koningin Astridlaan,42,51.0165120314,4.55361098263
2820,Bonheiden,Oude Baan,48,51.0336429737,4.52460904235
2820,Bonheiden,Boeimeerstraat,44,51.0150472833,4.56734500513
2820,Bonheiden,Brakelberglei,8,51.0076791319,4.58969713228
2820,Bonheiden,Olmenlaan,8,51.0208222114,4.54109085466
2820,Bonheiden,Kardinaal Cardijnlaan,62,51.0272249665,4.54690339589
2820,Bonheiden,Venlaan,8,51.0176421496,4.56618046404
2820,Bonheiden,Schoolstraat,15,51.0211117864,4.54612952663
2820,Bonheiden,Kraaivenstraat,39,51.0067732676,4.59979390881
2820,Bonheiden,Boeimeerstraat,9,51.0179896642,4.56435790825
2820,Bonheiden,Heitomme,4,51.0080423559,4.60292070899
2820,Bonheiden,Hondshoek,19,51.01825683,4.54357522678
2820,Bonheiden,Pretersberg,12,51.0256946754,4.58380769024
2820,Bonheiden,Dorsthoeveweg,28,51.0243438632,4.52632525856
2820,Bonheiden,Dorp,88,51.0237912488,4.54415440516
2820,Bonheiden,Bareelveld,24,51.0337644132,4.5183316334
2820,Bonheiden,Lijsterbeslaan,9,51.0183672308,4.58039862457
2820,Bonheiden,Pruimelaarstraat,27,51.037356204,4.5271880392
2820,Bonheiden,Venneboslaan,26,51.0263213315,4.56023242138
2820,Bonheiden,Zonnebloemstraat,8,51.0263824741,4.60339869073
2820,Bonheiden,Mechelsesteenweg,330,51.032045154,4.51834692853
2820,Bonheiden,Rivierenlaan,15,51.0130295541,4.60598947878
2820,Bonheiden,Lange Dreef,47,51.0033033398,4.58747871047
2820,Bonheiden,Waversesteenweg,65,51.0406643742,4.55237770879
2820,Bonheiden,Zandstraat,8,51.0270778671,4.52478950128
2820,Bonheiden,Ottershoekstraat,18,51.0225415207,4.62935954971
2820,Bonheiden,Hoogstraat,30,51.0005746141,4.58809660307
2820,Bonheiden,Weynesbaan,126,51.0291894538,4.60914734117
2820,Bonheiden,Peter Benoitlaan,46,51.0264838613,4.52607492377
2820,Bonheiden,Duinenweg,26,51.0110544172,4.60292626426
2820,Bonheiden,Oude Baan,11,51.0343957537,4.51886128505
2820,Bonheiden,Dorp,47,51.0223530455,4.54698598387
2820,Bonheiden,Bruinbeekstraat,11,51.0312563976,4.52621676242
2820,Bonheiden,Nachtegalenlaan,18,51.0316779033,4.52906129607
2820,Bonheiden,Krekelweg,1,51.0195555109,4.54719534341
2820,Bonheiden,Mechelsbroekstraat,5,51.0275139241,4.52438471625
2820,Bonheiden,Dijleweg,47,51.0019644504,4.57591899693
2820,Bonheiden,Schoolstraat,33,51.0208503363,4.54448981729
2820,Bonheiden,Dorstveld,8,51.0266020743,4.52309440081
2820,Bonheiden,Oude Baan,125,51.0342993821,4.5332720597
2820,Bonheiden,Oude Booischotsebaan,2,51.0272909396,4.60423627015
2820,Bonheiden,Weynesbaan,12,51.0118302722,4.59942891937
2820,Bonheiden,Oude Schrieksebaan,32,51.0161643947,4.58330306247
2820,Bonheiden,Zilverberklaan,28,51.0036160222,4.59555264332
2820,Bonheiden,Doornlaarstraat,71,51.0165524978,4.63323559084
2820,Bonheiden,Putsesteenweg,270,51.0368534092,4.55791311779
2820,Bonheiden,Brugstraat,18,51.0001578651,4.58588083254
2820,Bonheiden,Canadadreef,2,51.0335687847,4.50942483288
2820,Bonheiden,Rijmenamseweg,122,51.0181737596,4.56580861437
2820,Bonheiden,Spiekelei,3,51.0161235117,4.58032332647
2820,Bonheiden,Putsesteenweg,169,51.0358054608,4.52933866972
2820,Bonheiden,Zandbergstraat,28,51.0229588399,4.57945481232
2820,Bonheiden,Louterman,10,51.0215031263,4.60442557064
2820,Bonheiden,Rijmenamseweg,96,51.0194335081,4.56168691062
2820,Bonheiden,Aardestraat,6,51.0260313023,4.52544167065
2820,Bonheiden,Zwarte Leeuwstraat,99,51.0434177561,4.53687271107
2820,Bonheiden,Rijmenamseweg,229,51.0097546234,4.6041683723
2820,Bonheiden,Eikendreef,19,51.0249196619,4.52447141112
2820,Bonheiden,Nieuwstraat,1,51.0232241603,4.54658110919
2820,Bonheiden,Lange Dreef,35,51.0029100315,4.5869176839
2820,Bonheiden,Harentslei,6,51.0294259787,4.57962598774
2820,Bonheiden,Hairgracht,19,51.037498053,4.5175117085
2820,Bonheiden,Putsesteenweg,377,51.0372709908,4.55411327668
2820,Bonheiden,Nieuwstraat,35,51.0241763528,4.54795119244
2820,Bonheiden,Reetlei,7,51.0171929894,4.61675367808
2820,Bonheiden,Nieuwstraat,17,51.023548396,4.54693610464
2820,Bonheiden,Kraaivenstraat,3,51.0036372747,4.59581175636
2820,Bonheiden,Populierenlaan,14,51.0217399658,4.54408127316
2820,Bonheiden,Broekstraat,1,51.0058667135,4.58644479745
2820,Bonheiden,Hoogstraat,12,51.000107793,4.58714121834
2820,Bonheiden,Gestelhoflei,10,51.0404744472,4.53142061808
2820,Bonheiden,Kerkplein,17,51.0224749266,4.54875848423
2820,Bonheiden,Rijmenamseweg,78,51.0200905815,4.55795119775
2820,Bonheiden,Waversesteenweg,9,51.0241048132,4.54852988131
2820,Bonheiden,Muizensteenweg,21,51.0231111654,4.54250507198
2820,Bonheiden,Grote Heidestraat,8,51.0218965378,4.55329111208
2820,Bonheiden,Doornlaarstraat,53,51.0159360733,4.61558813557
2820,Bonheiden,Broekstraat,47,51.0071714735,4.57770073537
2820,Bonheiden,Gestellei,6,51.037217629,4.52270797156
2820,Bonheiden,Vijverstein,9,51.0105015435,4.56480757589
2820,Bonheiden,Broekstraat,17,51.0073518118,4.58454375898
2820,Bonheiden,Olmenlaan,21,51.0203060561,4.54176463537
2820,Bonheiden,Gezonde Luchtlaan,8,51.0169745875,4.57312842718
2820,Bonheiden,Oude Molenstraat,3,51.0173732862,4.57082619249
2820,Bonheiden,Mechelsesteenweg,312,51.0315101541,4.52153215081
2820,Bonheiden,Nieuwstraat,47,51.0245150841,4.54858163404
2820,Bonheiden,Pelgrimpad,3,51.02454354,4.58365842815
2820,Bonheiden,Oude Booischotsebaan,41,51.0216994502,4.58781189737
2820,Bonheiden,Sleestraat,20,51.022813119,4.60085430123
2820,Bonheiden,Putsesteenweg,359,51.0370135497,4.55228078642
2820,Bonheiden,Dennenlaan,3,51.0118950318,4.60670345737
2820,Bonheiden,Guldensporenlaan,26,51.0245949041,4.53128027205
2820,Bonheiden,Peter Benoitlaan,18,51.0285224664,4.52595465318
2820,Bonheiden,Sint-Marcusweg,42,51.0013637023,4.58861303226
2820,Bonheiden,Oude Baan,99,51.0341278156,4.52869962971
2820,Bonheiden,Hairgracht,9,51.0375797915,4.51642285755
2820,Bonheiden,Oude Schrieksebaan,85,51.0181044727,4.59773521413
2820,Bonheiden,Schoolstraat,68,51.0199330767,4.54037354967
2820,Bonheiden,Tramweg,10,51.0324931753,4.52002127412
2820,Bonheiden,Esdoornlaan,18,51.0213497288,4.54124744145
2820,Bonheiden,Oude Booischotsebaan,100,51.0216407091,4.58385001423
2820,Bonheiden,Dijleweg,17,51.0008209014,4.57982462038
2820,Bonheiden,Berentrodedreef,12,51.0229290766,4.55020205097
2820,Bonheiden,Vijverstein,19,51.0095913881,4.56695232373
2820,Bonheiden,Reetlei,24,51.0178967802,4.62116591798
2820,Bonheiden,Rijmenamseweg,157,51.0152190849,4.58108889614
2820,Bonheiden,Dorp,1,51.0214718245,4.55045734408
2820,Bonheiden,Mechelsesteenweg,182,51.0259095712,4.53930413519
2820,Bonheiden,Dijleweg,35,51.0016645903,4.57717775671
2820,Bonheiden,Boerenkrijglaan,12,51.0230182467,4.53718770628
2820,Bonheiden,Eksterveldlaan,11,51.037792583,4.53988168188
2820,Bonheiden,Donkerstraat,10,51.0188107056,4.61489872993
2820,Bonheiden,Bakestraat,60,51.010943153,4.62956059753
2820,Bonheiden,Oude Booischotsebaan,23,51.021644858,4.59022187141
2820,Bonheiden,Weynesbaan,67A,51.0241037679,4.60307238582
2820,Bonheiden,Kerkplein,1,51.0226562996,4.54742356102
2820,Bonheiden,Sint-Marcusweg,4,51.0018635447,4.58656418545
2820,Bonheiden,Muizensteenweg,56,51.0203487454,4.53619838196
2820,Bonheiden,Waversesteenweg,19,51.0257881163,4.54928183624
2820,Bonheiden,Koningin Astridlaan,24,51.0168856153,4.55304114114
2820,Bonheiden,Grote-Paallaan,11,51.0077554886,4.6048172766
2820,Bonheiden,Oude straat,12,51.0354271473,4.51567312433
2820,Bonheiden,Mechelsesteenweg,122,51.0245454257,4.54179774995
2820,Bonheiden,Oude Keerbergsebaan,20,51.004837231,4.60362185174
2820,Bonheiden,Diedonken,10,51.0387145967,4.5501639508
2820,Bonheiden,Peter Benoitlaan,8,51.0289532957,4.5263006405
2820,Bonheiden,Kerselaarstraat,36,51.0362608382,4.52868527829
2820,Bonheiden,Plasstraat,39,51.0262119975,4.61900336983
2820,Bonheiden,Korte Dreef,51A,51.0055755082,4.5870509555
2820,Bonheiden,Eikendreef,9,51.0251727284,4.5255317178
2820,Bonheiden,Koning Albertlaan,3,51.0183765031,4.55601731226
2820,Bonheiden,Hondshoek,9,51.0181064597,4.54446608462
2820,Bonheiden,Kardinaal Cardijnlaan,26,51.0274056973,4.54834347252
2820,Bonheiden,Uyerenboslaan,1,51.0300167354,4.56105199651
2820,Bonheiden,Oude straat,30,51.036085295,4.51519232161
2820,Bonheiden,Kanonniersweg,15,51.0203052057,4.56806872105
2820,Bonheiden,Weynesbaan,127A,51.0318236405,4.60438572366
2820,Bonheiden,Putsesteenweg,3,51.0349712899,4.51590777405
2820,Bonheiden,Oude Schrieksebaan,49,51.0174353097,4.58664837695
2820,Bonheiden,Kleine Heidelaan,18,51.0237779299,4.53891806385
2820,Bonheiden,Venlaan,18,51.0177348648,4.56780706509
2820,Bonheiden,Mechelsesteenweg,146,51.0248285475,4.54084296836
2820,Bonheiden,de Selliers de Moranvillelaan,24,51.0185537652,4.55375317816
2820,Bonheiden,Kardinaal Cardijnlaan,79,51.0263214209,4.54770828038
2820,Bonheiden,Putsesteenweg,187,51.0359602297,4.53189430114
2820,Bonheiden,Acacialaan,1,51.0206034046,4.58230543553
2820,Bonheiden,Mechelsesteenweg,229,51.0266169908,4.53378888437
2820,Bonheiden,Boeimeerstraat,19,51.0172057954,4.56566016402
2820,Bonheiden,Brugstraat,8,51.0004319505,4.58558564783
2820,Bonheiden,Zellaerstraat,17,51.023331866,4.54751608455
2820,Bonheiden,Kanonniersweg,33,51.02088853,4.57379304321
2820,Bonheiden,Oude Kasteellaan,27,51.0234571455,4.56028979456
2820,Bonheiden,Harentstraat,1,51.0182392717,4.57604295969
2820,Bonheiden,Harentstraat,35,51.0216312096,4.57543105941
2820,Bonheiden,Zwarte Leeuwstraat,64,51.0386296275,4.53425243758
2820,Bonheiden,Harentstraat,17,51.0193371489,4.57576508093
2820,Bonheiden,Guido Gezellelaan,22,51.020712003,4.54951117841
2820,Bonheiden,Brandheidestraat,8,51.0271351506,4.60017234767
2820,Bonheiden,Sint-Jansstraat,36,51.0018196992,4.58967724872
2820,Bonheiden,Grote Doelstraat,21,51.0264780421,4.55603671777
2820,Bonheiden,Korte Dreef,41,51.0044584928,4.58658198735
2820,Bonheiden,Putsesteenweg,134,51.0352180805,4.52778382363
2820,Bonheiden,Eertberglei,10,51.0201007677,4.61020593748
2820,Bonheiden,Dertien Eikenlaan,14,51.0179287112,4.55621503327
2820,Bonheiden,Oude Schrieksebaan,67,51.014902718,4.59096554062
2820,Bonheiden,Kruisstraat,6,51.002911334,4.5920539253
2820,Bonheiden,Nachtegalenlaan,8,51.0308004212,4.5291733182
2820,Bonheiden,Zwarte Leeuwstraat,11,51.0370553905,4.53148482032
2820,Bonheiden,Berentrodedreef,65,51.0271129456,4.55899314122
2820,Bonheiden,Boeimeerstraat,37,51.0145093588,4.56804439908
2820,Bonheiden,Berlaarbaan,126,51.0464749997,4.52897358768
2820,Bonheiden,Mechelsesteenweg,240,51.0268576446,4.53498578923
2820,Bonheiden,Oude Schrieksebaan,14,51.0168741694,4.57958581987
2820,Bonheiden,Zwarte Leeuwstraat,46,51.0377661114,4.53293228078
2820,Bonheiden,Baxbos,7,51.0112379988,4.58575367104
2820,Bonheiden,Zellaerstraat,1,51.0230031242,4.54752394659
2820,Bonheiden,Mechelsesteenweg,164,51.0250216035,4.54037189171
2820,Bonheiden,Kleinbeeklei,7,51.023746047,4.60746738365
2820,Bonheiden,Zavelstraat,11,51.0261355564,4.52444382911
2820,Bonheiden,Zellaerstraat,35,51.0242348642,4.54671623427
2820,Bonheiden,Berentrodedreef,30,51.0243703208,4.55420654884
2820,Bonheiden,Plasstraat,3,51.0246439488,4.60449530179
2820,Bonheiden,De Bergen,13,51.0139167606,4.57676505526
2820,Bonheiden,Zonnebloemstraat,1,51.025446484,4.6036477009
2820,Bonheiden,Zwarte Leeuwstraat,56,51.0383702652,4.5337630547
2820,Bonheiden,Oude Baan,145,51.0361243113,4.55161876435
2820,Bonheiden,Krekelweg,10,51.0204286448,4.54729630972
2820,Bonheiden,Kerselaarstraat,62,51.0361306987,4.52721295764
2820,Bonheiden,Kraaivenstraat,22,51.0050767521,4.59938174545
2820,Bonheiden,Zandbergstraat,11,51.0219369706,4.57839651049
2820,Bonheiden,Oude Baan,2,51.0339747196,4.51990176912
2820,Bonheiden,Sint-Marcusweg,34,51.0015964018,4.58781177377
2820,Bonheiden,Kievitlaan,5,51.0300361351,4.52761746736
2820,Bonheiden,Kleinhoflaan,1,51.0282470157,4.5640194606
2820,Bonheiden,Mechelsesteenweg,319,51.031543784,4.51824695683
2820,Bonheiden,Putsesteenweg,154,51.0353041446,4.52914091492
2820,Bonheiden,Domis de Semerpontlaan,35,51.0194522188,4.55647112984
2820,Bonheiden,Hoogstraat,27,51.001185891,4.58861632663
2820,Bonheiden,Dijleweg,81,51.0044454285,4.56344304842
2820,Bonheiden,Vredesteinlaan,12,51.0377769545,4.53876057092
2820,Bonheiden,Dobbelhuizen,11,51.0240377843,4.57424117271
2820,Bonheiden,Bruinbeekstraat,2,51.0305639979,4.52532561659
2820,Bonheiden,Edgar Tinellaan,24,51.0229485377,4.55075328311
2820,Bonheiden,Kerselaarstraat,44,51.0362361891,4.528369547
2820,Bonheiden,Muizensteenweg,68B,51.0201637797,4.53586293928
2820,Bonheiden,Dorp,81,51.0228437615,4.54526013639
2820,Bonheiden,Weyneshoflei,12,51.0305893695,4.60885932472
2820,Bonheiden,Dorstveld,18,51.0253972282,4.52106740546
2820,Bonheiden,Dorsthoeveweg,11,51.0238743161,4.52842101367
2820,Bonheiden,Brugstraat,21,50.9996347948,4.58670080757
2820,Bonheiden,Rijmenamseweg,129,51.0179390693,4.57520863775
2820,Bonheiden,Poverstraat,14,51.0253058342,4.54396040879
2820,Bonheiden,Putsesteenweg,190,51.035599488,4.53395797348
2820,Bonheiden,Dijleweg,63,51.0032276864,4.56835426435
2820,Bonheiden,Mechelsbroekstraat,15,51.0269022071,4.52214422453
2820,Bonheiden,Oude Baan,28,51.0337415678,4.52278430723
2820,Bonheiden,Dertien Eikenlaan,3,51.0167356068,4.55552918829
2820,Bonheiden,Gestellei,10,51.0396893257,4.524213787
2820,Bonheiden,Berentrodedreef,9,51.023103554,4.54962021504
2820,Bonheiden,Peulisbaan,82,51.0286597957,4.58089873758
2820,Bonheiden,Rijmenamseweg,230,51.0112582748,4.59355724125
2820,Bonheiden,Dorp,63,51.0225991954,4.54619589899
2820,Bonheiden,Nieuwstraat,45,51.0244744489,4.54829128059
2820,Bonheiden,Kanonniersweg,43,51.0211676109,4.57432374169
2820,Bonheiden,Krekelweg,8,51.0202595516,4.54747922829
2820,Bonheiden,Zilverberklaan,11,51.0045875865,4.5930173607
2820,Bonheiden,Sint-Jansstraat,44,51.0020783861,4.59021243077
2820,Bonheiden,Krankhoeflei,3,51.0283940435,4.57573384102
2820,Bonheiden,Broekstraat,45,51.0071479716,4.57832797069
2820,Bonheiden,Domis de Semerpontlaan,17,51.0201530865,4.55433088094
2820,Bonheiden,Mechelsesteenweg,337,51.0327539236,4.51385392613
2820,Bonheiden,Muizensteenweg,64,51.0205188215,4.53378725715
2820,Bonheiden,Broekstraat,8,51.0101115707,4.58252390361
2820,Bonheiden,Harentslei,10,51.0329295375,4.57817560325
2820,Bonheiden,Rijmenamseweg,212,51.014187768,4.58168328257
2820,Bonheiden,Brakelberglei,18,51.0081006684,4.59181542977
2820,Bonheiden,De Bergen,4,51.0158513418,4.57638762509
2820,Bonheiden,Olmenlaan,18,51.0202190864,4.54081812368
2820,Bonheiden,Rijmenamseweg,51,51.0206325882,4.55774930514
2820,Bonheiden,Peulisbaan,46,51.0226727473,4.58256945682
2820,Bonheiden,Nieuwstraat,8,51.0232932015,4.54716944788
2820,Bonheiden,Pruimelaarstraat,12,51.0372132189,4.52796228672
2820,Bonheiden,Weynesbaan,55,51.0221025917,4.60200351843
2820,Bonheiden,Sleestraat,19,51.0217034842,4.60036548418
2820,Bonheiden,Zellaerstraat,45,51.0244749168,4.54639017986
2820,Bonheiden,Van Rompaylaan,10,51.0247790237,4.53396425256
2820,Bonheiden,Lange Dreef,81,51.0049504319,4.58962979789
2820,Bonheiden,Korte Dreef,13,51.0036346194,4.58581692944
2820,Bonheiden,Brouwersdreef,11,51.0257813668,4.52997919898
2820,Bonheiden,Kruisstraat,7A,51.0031894175,4.59122338259
2820,Bonheiden,Boerenkrijglaan,9,51.0228239655,4.53814293815
2820,Bonheiden,Brughoevestraat,18,51.0018232183,4.60211338801
2820,Bonheiden,Pelgrimstraat,3,51.0248431461,4.56167464304
2820,Bonheiden,Sint-Marcusweg,16,51.001413888,4.58701041894
2820,Bonheiden,Weyneshoflei,30,51.0294013717,4.61399335883
2820,Bonheiden,Eisenhowerlaan,41,51.0233356324,4.5580074002
2820,Bonheiden,Korte Dreef,31,51.0039596528,4.58630939385
2820,Bonheiden,Plaslei,12,51.0292089938,4.61788475293
2820,Bonheiden,Rijmenamseweg,25,51.0211886798,4.55406990752
2820,Bonheiden,Eikendreef,20,51.0247152713,4.5217943782
2820,Bonheiden,Schoolstraat,43,51.0206403937,4.54386093581
2820,Bonheiden,Gezonde Luchtlaan,1,51.0172889232,4.57380530594
2820,Bonheiden,Oude Baan,163,51.0366709233,4.55494007885
2820,Bonheiden,Muizensteenweg,18,51.0226507517,4.54073288372
2820,Bonheiden,Lange Dreef,63,51.0037787389,4.58817177426
2820,Bonheiden,Grote Heidestraat,1,51.0216621857,4.55209212615
2820,Bonheiden,Weynesbaan,27,51.014716865,4.59997072602
2820,Bonheiden,Amerstraat,12,51.0001869818,4.58505812409
2820,Bonheiden,Dijleweg,45,51.0020169325,4.57597806766
2820,Bonheiden,Peulisbaan,18,51.0145674466,4.58523148235
2820,Bonheiden,Peulisbaan,64,51.0245681767,4.58217705079
2820,Bonheiden,Oude Schrieksebaan,93,51.0141261309,4.59826134465
2820,Bonheiden,Rijmenamseweg,193,51.0120165989,4.59100737924
2820,Bonheiden,Oude Keerbergsebaan,19,51.0036268531,4.59473791212
2820,Bonheiden,Dijk,10,50.9989882108,4.58572852331
2820,Bonheiden,Voordiedonkenlaan,9,51.0375567982,4.5414783425
2820,Bonheiden,Waversesteenweg,20,51.0240236193,4.54895473967
2820,Bonheiden,Dijleweg,8,51.0007602853,4.58192849283
2820,Bonheiden,Berlaarbaan,30,51.042776298,4.51737285412
2820,Bonheiden,Rijmenamseweg,140,51.0180798583,4.56913134626
2820,Bonheiden,Meiboomstraat,25,51.0226964805,4.63246509887
2820,Bonheiden,Gemeenteplein,17,51.0016447023,4.5852298485
2820,Bonheiden,Hoghsteinlaan,1,51.0237490635,4.53780750299
2820,Bonheiden,Boeimeerstraat,54,51.0143537117,4.56647806394
2820,Bonheiden,Louterman,7,51.0226614068,4.60395851032
2820,Bonheiden,Boortmeerbeeksebaan,30,50.9923678344,4.5829184309
2820,Bonheiden,Oude Kasteellaan,12,51.0246493278,4.55781859845
2820,Bonheiden,Beukenlaan,7,51.019140967,4.57801740018
2820,Bonheiden,Lange Dreef,114,51.0094741667,4.59776143563
2820,Bonheiden,Groothoeveweg,2,51.0404364563,4.52004891317
2820,Bonheiden,Peerlaarstraat,19,51.0207819785,4.59056467609
2820,Bonheiden,Putsesteenweg,387,51.0413343686,4.56490522748
2820,Bonheiden,Boeimeerstraat,72,51.0124064371,4.56372035167
2820,Bonheiden,Pelgrimstraat,40,51.0257630087,4.57483103206
2820,Bonheiden,Kleinbeeklei,17,51.0237467611,4.60813200896
2820,Bonheiden,Populierenlaan,3,51.022661104,4.54297587334
2820,Bonheiden,Peter Benoitlaan,1,51.027497755,4.52605995732
2820,Bonheiden,Eksterveldlaan,28,51.0391894614,4.53995239462
2820,Bonheiden,Mechelsesteenweg,230,51.0261947949,4.5368756181
2820,Bonheiden,Kardinaal Cardijnlaan,54,51.0275023792,4.54671858065
2820,Bonheiden,Mechelsesteenweg,129,51.0241667558,4.5420149889
2820,Bonheiden,Kleinbeeklei,35,51.0227985948,4.60923088527
2820,Bonheiden,Mechelsesteenweg,199,51.0248653629,4.53877507901
2820,Bonheiden,Notelaarstraat,11,51.036320047,4.52524244546
2820,Bonheiden,Weynesbaan,115,51.0308544244,4.60604541761
2820,Bonheiden,Taboralaan,5,51.0121898289,4.60844867974
2820,Bonheiden,Oude Baan,74,51.0336918215,4.52996621194
2820,Bonheiden,Harentstraat,45,51.0226101131,4.57568937775
2820,Bonheiden,Kruisstraat,10,51.003206876,4.59192298524
2820,Bonheiden,Putsesteenweg,22,51.0347373393,4.5180846991
2820,Bonheiden,Oude Keerbergsebaan,37,51.0037193512,4.59908312227
2820,Bonheiden,Kerkplein,8,51.0232571532,4.54864206319
2820,Bonheiden,Weynesbaan,9,51.0125340663,4.59927279944
2820,Bonheiden,Harentstraat,81,51.0284844822,4.58001672642
2820,Bonheiden,Ottershoekstraat,1,51.0246005259,4.62836047541
2820,Bonheiden,Putsesteenweg,226,51.0363984558,4.54960234361
2820,Bonheiden,Zellaerstraat,63,51.025309976,4.5455133468
2820,Bonheiden,Brugstraat,1,51.0009056252,4.58551690129
2820,Bonheiden,Putsesteenweg,279,51.0365680698,4.54313689893
2820,Bonheiden,Harentstraat,8,51.0190040393,4.57681779666
2820,Bonheiden,Zellaerstraat,47,51.024526633,4.54631155608
2820,Bonheiden,Kanonniersweg,19A,51.0204402296,4.56896147683
2820,Bonheiden,Putsesteenweg,65,51.0354097585,4.521953956
2820,Bonheiden,Van Uytvenlaan,8,51.0192538247,4.54937640852
2820,Bonheiden,Acacialaan,8,51.0200980999,4.5809835344
2820,Bonheiden,Boerenkrijglaan,27,51.0233628376,4.53533464371
2820,Bonheiden,Uyerenboslaan,8,51.0320917325,4.56140026066
2820,Bonheiden,Harentstraat,63,51.0239707261,4.5761824403
2820,Bonheiden,Berentrodedreef,27,51.0239951945,4.55163863785
2820,Bonheiden,Kardinaal Cardijnlaan,90,51.0266885687,4.54815598027
2820,Bonheiden,Oude Molenstraat,22,51.015922696,4.56905695987
2820,Bonheiden,Mechelsesteenweg,212,51.0258414778,4.53772172633
2820,Bonheiden,Boeimeerstraat,20,51.0169331886,4.56510479274
2820,Bonheiden,Rivierenlaan,6,51.0126836945,4.60645782033
2820,Bonheiden,Oude Booischotsebaan,38,51.0260781385,4.60094023412
2820,Bonheiden,Kerselaarstraat,7,51.0360547316,4.53044671138
2820,Bonheiden,Zellaerstraat,8,51.0233504253,4.54784212037
2820,Bonheiden,Kerselaarstraat,80,51.0359705536,4.52611606752
2820,Bonheiden,Schoolstraat,6,51.0219658669,4.54705819008
2820,Bonheiden,Hazelaarlei,18,51.023131246,4.58533291195
2820,Bonheiden,Kleine Heidelaan,21,51.0242402184,4.5391783037
2820,Bonheiden,Venlaan,21,51.0166011249,4.56772299494
2820,Bonheiden,Oude Kasteellaan,55,51.0209656407,4.56389336043
2820,Bonheiden,Berlaarbaan,12,51.0419042617,4.51624549878
2820,Bonheiden,Oude Baan,92,51.033663248,4.53287378128
2820,Bonheiden,Harentstraat,47,51.0229780271,4.5758979602
2820,Bonheiden,Kardinaal Cardijnlaan,72,51.0268404339,4.5470685565
2820,Bonheiden,Gemeenteheide,6,51.0242457165,4.55692585191
2820,Bonheiden,Grote Doelstraat,18,51.0272408342,4.554067294
2820,Bonheiden,Koningin Astridlaan,52,51.0162927558,4.5538592178
2820,Bonheiden,Nachtegalenlaan,1,51.0306922929,4.5283097959
2820,Bonheiden,Oude Kasteellaan,30,51.0209716239,4.56277914675
2820,Bonheiden,Putsesteenweg,83,51.0354436828,4.52309174492
2820,Bonheiden,Mechelsesteenweg,247,51.0282436337,4.52841046201
2820,Bonheiden,Dorp,8,51.0220811145,4.54934416985
2820,Bonheiden,Brugstraat,28,50.9999148031,4.58616974761
2820,Bonheiden,Doornlaarstraat,63,51.0152330207,4.6176386305
2820,Bonheiden,Heidestraat,6,51.0064118284,4.59396148938
2820,Bonheiden,Oude Schrieksebaan,22,51.0166292247,4.58137477035
2820,Bonheiden,Hoogstraat,20,51.0003473375,4.58768026593
2820,Bonheiden,Roggemansstraat,6,51.0277559668,4.5357115408
2820,Bonheiden,Grote Doelstraat,1,51.0280771911,4.55377227221
2820,Bonheiden,Rattenbergstraat,10,51.0023689527,4.6026982298
2820,Bonheiden,Pelgrimstraat,22,51.0254543552,4.56910385927
2820,Bonheiden,Waversesteenweg,55,51.0391399278,4.55180296502
2820,Bonheiden,Waversesteenweg,73,51.0418442462,4.5531956635
2820,Bonheiden,Dorp,98,51.0239985658,4.54365318938
2820,Bonheiden,Schoolstraat,25,51.0209883226,4.54490635937
2820,Bonheiden,Mechelsesteenweg,283,51.030013365,4.52381145882
2820,Bonheiden,Gemeenteplein,6,51.0010086974,4.58534015744
2820,Bonheiden,Dijleweg,98,51.0046285804,4.55719867341
2820,Bonheiden,Guido Gezellelaan,14,51.0208917555,4.54970470701
2820,Bonheiden,Harentstraat,10,51.0192045062,4.57671051989
2820,Bonheiden,Putsesteenweg,179,51.0357642704,4.53066112278
2820,Bonheiden,Dorsthoeveweg,18,51.0240344454,4.52766799862
2820,Bonheiden,Van Uytvenlaan,10,51.0189100827,4.54978452584
2820,Bonheiden,Brakelberglei,47,51.009117116,4.59367346192
2820,Bonheiden,Eertberglei,17,51.0206789709,4.6082188982
2820,Bonheiden,Pruimelaarstraat,19,51.0370177946,4.5269018897
2820,Bonheiden,Vagevuurlaan,1,51.0189268874,4.56261174007
2820,Bonheiden,Rijmenamseweg,112,51.0188818418,4.56456630048
2820,Bonheiden,Sleestraat,12,51.0226521373,4.60148347271
2820,Bonheiden,Putsesteenweg,280,51.036898595,4.55876558856
2820,Bonheiden,Muizensteenweg,47,51.0219221875,4.54030419014
2820,Bonheiden,Mechelsesteenweg,320,51.0318022558,4.51983028886
2820,Bonheiden,Mechelsesteenweg,265,51.0294765234,4.52625151915
2820,Bonheiden,Molenlei,46,51.0305539284,4.617507182
2820,Bonheiden,Varenweg,1,51.0209389849,4.5902488801
2820,Bonheiden,Rijmenamseweg,86,51.0197735849,4.5597520595
2820,Bonheiden,Zwarte Leeuwstraat,48,51.0387949993,4.53458893453
2820,Bonheiden,Peulisbaan,47,51.0229666091,4.58187255632
2820,Bonheiden,Rijmenamseweg,219,51.011086701,4.60165496683
2820,Bonheiden,Uyerenboslaan,10,51.031828344,4.55975679397
2820,Bonheiden,Oude Baan,21,51.0343724595,4.51929174972
2820,Bonheiden,Peulisbaan,11,51.0166042632,4.58328527521
2820,Bonheiden,Oude Baan,56,51.033691799,4.52560884171
2820,Bonheiden,Zwarte Leeuwstraat,2,51.0362105302,4.53160219888
2820,Bonheiden,Muizensteenweg,11,51.0232993041,4.54305165968
2820,Bonheiden,Zellaerstraat,10,51.0234148597,4.5477944778
2820,Bonheiden,Hendrik Consciencelaan,25,51.0177059305,4.54924429271
2820,Bonheiden,Bruinbeekstraat,56,51.0350723496,4.5306875178
2820,Bonheiden,Dijleweg,106,51.004647675,4.55235910165
2820,Bonheiden,Donkerstraat,35,51.0199454445,4.62648042361
2820,Bonheiden,Dorp,10,51.0222560358,4.54940627572
2820,Bonheiden,Pastorijstraat,9,51.0248876775,4.5514336093
2820,Bonheiden,Donkerstraat,17,51.0201582558,4.6219592927
2820,Bonheiden,Kapelweg,6,51.0366410478,4.53459282083
2820,Bonheiden,Dorp,106,51.0242035798,4.54318802115
2820,Bonheiden,Weynesbaan,134,51.0302801152,4.60918189481
2820,Bonheiden,Oude Kasteellaan,9,51.0248252731,4.55846841091
2820,Bonheiden,Kleine Heidelaan,9,51.0248512295,4.5372949554
2820,Bonheiden,Weyneshoflei,19,51.0312928471,4.61152870061
2820,Bonheiden,Oude Baan,117,51.0340921043,4.53197914615
2820,Bonheiden,Witthemhof,12,51.0168227289,4.60359833724
2820,Bonheiden,Lange Veldstraat,11,51.0166955808,4.56252608653
2820,Bonheiden,Dijleweg,10,51.0008390164,4.58158950995
2820,Bonheiden,Olmenlaan,11,51.020736775,4.54178960646
2820,Bonheiden,Eikendreef,27,51.0245880318,4.52333531279
2820,Bonheiden,Rijmenamseweg,130,51.018414242,4.56702100259
2820,Bonheiden,Korte Schommenstraat,9,51.0202216342,4.54389371114
2820,Bonheiden,Waterleliestraat,7,51.0096716445,4.59381919069
2820,Bonheiden,Guldensporenlaan,36,51.0230356592,4.53024278967
2820,Bonheiden,Eksterveldlaan,48,51.0406096162,4.54119194093
2820,Bonheiden,Boortmeerbeeksebaan,9,50.9936385982,4.58543232691
2820,Bonheiden,Hairgracht,27,51.0377712311,4.52121819976
2820,Bonheiden,Brughoevestraat,11,51.0011522864,4.60430893955
2820,Bonheiden,Mechelsesteenweg,302,51.0310400024,4.52278820949
2820,Bonheiden,Korte Hondshoekstraat,13,51.0211887595,4.54256988511
2820,Bonheiden,Koningin Astridlaan,34,51.0166449364,4.55329613673
2820,Bonheiden,Van den Reecklaan,17,51.0222295394,4.5347984039
2820,Bonheiden,Kloosterstraat,21,51.0023729212,4.5828738488
2820,Bonheiden,Putsesteenweg,369,51.0370834567,4.55321547326
2820,Bonheiden,Gestelhoflei,35,51.0409288693,4.52779560975
2820,Bonheiden,Oude Booischotsebaan,13,51.0261819842,4.60242414654
2820,Bonheiden,Poverstraat,3,51.0249046366,4.54252144543
2820,Bonheiden,Peerlaarstraat,30,51.0196918846,4.59207532351
2820,Bonheiden,Eksterveldlaan,2,51.0367832289,4.54078843095
2820,Bonheiden,Zilverberklaan,64,51.0049355679,4.59455746157
2820,Bonheiden,Bruinbeekstraat,35A,51.0331328953,4.52838130308
2820,Bonheiden,Tramweg,17,51.0337811074,4.51926432114
2820,Bonheiden,Berlaarbaan,116,51.0461713349,4.52739910868
2820,Bonheiden,Muizensteenweg,1,51.0234516205,4.54368762612
2820,Bonheiden,Kraaivenstraat,40,51.0065068481,4.60083239839
2820,Bonheiden,Broekstraat,10,51.0076898909,4.58527639608
2820,Bonheiden,Oude Schrieksebaan,57,51.0180690455,4.5877560995
2820,Bonheiden,Molenlei,18,51.0275921139,4.61123762957
2820,Bonheiden,de Selliers de Moranvillelaan,16,51.0198645385,4.55313328794
2820,Bonheiden,Mechelsesteenweg,237,51.0269431936,4.53277073353
2820,Bonheiden,Olmenlaan,1,51.0209084483,4.54222750057
2820,Bonheiden,Lange Dreef,10,51.0022515817,4.58662540327
2820,Bonheiden,Brakelberglei,1,51.0073307914,4.58662744406
2820,Bonheiden,Rijmenamseweg,5,51.0216824094,4.55174786686
2820,Bonheiden,Kerkplein,10,51.0231007518,4.5486953359
2820,Bonheiden,Esdoornlaan,9,51.021187262,4.5400446611
2820,Bonheiden,Zilverberklaan,46,51.0053986477,4.59639235659
2820,Bonheiden,Mechelsesteenweg,219,51.0257940819,4.53636032843
2820,Bonheiden,Gestelhoflei,17,51.0404579019,4.52920612872
2820,Bonheiden,Huurstraat,12,51.0086026535,4.57819144566
2820,Bonheiden,Van den Reecklaan,35,51.0231955147,4.53261787375
2820,Bonheiden,Notelaarstraat,8,51.0365890765,4.52565466198
2820,Bonheiden,Putsesteenweg,126,51.035196564,4.5271439169
2820,Bonheiden,Peter Benoitlaan,28,51.0283631473,4.52577835852
2820,Bonheiden,Bleukstraat,7,51.018508608,4.60814933772
2820,Bonheiden,Putsesteenweg,29,51.0352882697,4.51844188059
2820,Bonheiden,Heidijkstraat,4,51.0069417511,4.57007106522
2820,Bonheiden,Louterman,17,51.0230689473,4.60491080298
2820,Bonheiden,Hogenopstal,38,51.0014408869,4.58269947471
2820,Bonheiden,Eksterveldlaan,21,51.0386402636,4.53962330895
2820,Bonheiden,Jachthoornlaan,36,51.0086905712,4.60137899333
2820,Bonheiden,Amerstraat,9,50.9999239778,4.58558385928
2820,Bonheiden,Berentrodedreef,20,51.0237383198,4.55265273367
2820,Bonheiden,Grote Doelstraat,11,51.0271423431,4.55507053364
2820,Bonheiden,Bruinbeekstraat,38,51.0341405373,4.52984701354
2820,Bonheiden,Zandbergstraat,8,51.0220506234,4.57988327775
2820,Bonheiden,Oude Molenstraat,29,51.0163524096,4.56945697186
2820,Bonheiden,Mechelsesteenweg,174,51.0252665168,4.5400291406
2820,Bonheiden,Imeldalaan,7,51.0192861817,4.55765249835
2820,Bonheiden,Domis de Semerpontlaan,6,51.0209985977,4.55083261483
2820,Bonheiden,Mechelsesteenweg,130,51.0246820766,4.54148112011
2820,Bonheiden,Befferdreef,15,51.0289548453,4.51747702783
2820,Bonheiden,Oude Baan,38,51.033026811,4.523905308
2820,Bonheiden,Weynesbaan,143,51.0326177757,4.59796165481
2820,Bonheiden,Putsesteenweg,244,51.036623935,4.55298868069
2820,Bonheiden,Mechelsesteenweg,192,51.025517758,4.53879570201
2820,Bonheiden,Krankhoefpad,20,51.0287015903,4.57749236732
2820,Bonheiden,Garsgoed,4,51.0225891157,4.60624485535
2820,Bonheiden,Putsesteenweg,197,51.0359628572,4.53297426076
2820,Bonheiden,Dorsthoeveweg,8,51.0246589727,4.52874867658
2820,Bonheiden,Weyneshoflei,9,51.0307154926,4.60990872943
2820,Bonheiden,Berentrodedreef,73,51.028617804,4.56294208554
2820,Bonheiden,Kanonniersweg,25,51.0208420772,4.57295652077
2820,Bonheiden,Peerlaarstraat,12,51.0172262246,4.59181499102
2820,Bonheiden,Dobbelhuizen,8,51.0236089301,4.57454102118
2820,Bonheiden,Brughoevestraat,1,51.003173263,4.60013312749
2820,Bonheiden,Pruimelaarstraat,9,51.0365842907,4.52727466401
2820,Bonheiden,Sint-Jansstraat,26,51.0020530475,4.58901304187
2820,Bonheiden,Zilverberklaan,47,51.007127157,4.59851832357
2820,Bonheiden,Kardinaal Mercierlaan,1,51.0194665323,4.54807063097
2820,Bonheiden,Oude Kasteellaan,19,51.0240021734,4.55961486509
2820,Bonheiden,Oude Booischotsebaan,84,51.0219711711,4.58642098444
2820,Bonheiden,Zwarte Leeuwstraat,74,51.0395408323,4.53508590778
2820,Bonheiden,Lange Veldstraat,1,51.0176173207,4.56371960399
2820,Bonheiden,Venlaan,28,51.0168566988,4.56739631211
2820,Bonheiden,De Bergen,23,51.0155428802,4.57549744462
2820,Bonheiden,Louterman,35,51.0238429737,4.60643638088
2820,Bonheiden,Kardinaal Cardijnlaan,89,51.0263490883,4.54830875874
2820,Bonheiden,Kardinaal Cardijnlaan,36,51.0276966785,4.54781048568
2820,Bonheiden,Koningin Astridlaan,16,51.0170745015,4.55291035014
2820,Bonheiden,Van Arteveldelaan,6,51.0204029592,4.5624626672
2820,Bonheiden,Putsesteenweg,262,51.0367997494,4.55751954851
2820,Bonheiden,Zwarte Leeuwstraat,21,51.0373949545,4.53177300327
2820,Bonheiden,Uyerenboslaan,3,51.0333016787,4.55812852166
2820,Bonheiden,Gestellei,11,51.0415064604,4.52589293598
2820,Bonheiden,Mechelsbroekstraat,14,51.0275132999,4.52226768114
2820,Bonheiden,Putsesteenweg,1,51.0350219296,4.51581098992
2820,Bonheiden,Peulisbaan,81,51.026552681,4.58104281744
2820,Bonheiden,Dorstveld,2,51.0271912558,4.52285902082
2820,Bonheiden,Hazelaarlei,10,51.0233369734,4.58354084499
2820,Bonheiden,Achterdiedonken,10,51.0432922861,4.54156275878
2820,Bonheiden,Bleukstraat,11,51.0195739387,4.61080663574
2820,Bonheiden,Oude Kasteellaan,26,51.0219674274,4.56141875057
2820,Bonheiden,Kanonniersweg,5,51.0200017918,4.56692071506
2820,Bonheiden,Waversesteenweg,48,51.0269884182,4.55015925686
2820,Bonheiden,Acacialaan,3,51.019740993,4.58151350509
2820,Bonheiden,Dorp,100,51.0240651246,4.5433851946
2820,Bonheiden,Harentstraat,3,51.0184487624,4.57617001543
2820,Bonheiden,Zilverberklaan,10,51.0039693154,4.59343966682
2820,Bonheiden,Lange Dreef,91,51.0064185082,4.5913088643
2820,Bonheiden,Zandstraat,2,51.0272741409,4.52556558251
2820,Bonheiden,Peulisbaan,63,51.0235115846,4.58169189346
2820,Bonheiden,Koningin Astridlaan,38,51.0165730068,4.55342111748
2820,Bonheiden,Boeimeerstraat,36,51.0156274512,4.56669949899
2820,Bonheiden,Harentstraat,27,51.0200270451,4.57577369891
2820,Bonheiden,Domis de Semerpontlaan,40,51.019051417,4.55662657043
2820,Bonheiden,Putsesteenweg,267,51.0363595367,4.5400788703
2820,Bonheiden,Mechelsesteenweg,156,51.0249175157,4.54055238449
2820,Bonheiden,Kanonniersweg,29,51.0211969943,4.57335286219
2820,Bonheiden,Sint-Jansstraat,37,51.0024960836,4.5911771977
2820,Bonheiden,Kardinaal Cardijnlaan,100C,51.0262929479,4.54615521599
2820,Bonheiden,Rijmenamseweg,211,51.0106597003,4.60007346664
2820,Bonheiden,Venlaan,17,51.0168499506,4.56819476523
2820,Bonheiden,Oude Baan,1,51.0342201228,4.51687140436
2820,Bonheiden,Kievitlaan,6,51.0300183766,4.52851432889
2820,Bonheiden,Weynesbaan,90,51.0238832246,4.60349801773
2820,Bonheiden,Muizensteenweg,72,51.0198106722,4.53517986532
2820,Bonheiden,Dobbelhuizen,10,51.0232821936,4.57473684108
2820,Bonheiden,Bruinbeekstraat,1,51.030981401,4.52455139035
2820,Bonheiden,Mechelsesteenweg,327,51.0318631152,4.51658450489
2820,Bonheiden,Zellaerstraat,3,51.0230728643,4.54753376326
2820,Bonheiden,Plasstraat,16,51.0244400941,4.60591475648
2820,Bonheiden,Kardinaal Cardijnlaan,18,51.0273196023,4.54891658537
2820,Bonheiden,Dorp,82,51.0236029329,4.54451144766
2820,Bonheiden,Hondshoek,10,51.0187798808,4.53999705645
2820,Bonheiden,Venlaan,2,51.0173062197,4.56532882193
2820,Bonheiden,Gemeenteplein,21,51.001549416,4.5848894895
2820,Bonheiden,Pastorijstraat,2,51.0246731737,4.55017562453
2820,Bonheiden,Oude Molenstraat,16,51.0164588087,4.56842196252
2820,Bonheiden,Dorp,18,51.0222629618,4.54893596647
2820,Bonheiden,Dijleweg,55,51.0023155617,4.57484978378
2820,Bonheiden,Dorp,64,51.0234637115,4.54545589509
2820,Bonheiden,Jachthoornlaan,18,51.0064317566,4.60261442749
2820,Bonheiden,Hellewelweg,5,51.0123512627,4.58886169795
2820,Bonheiden,Peerlaarstraat,44,51.0190048945,4.59355819842
2820,Bonheiden,Zellaerdreef,1,51.0333585664,4.53777747846
2820,Bonheiden,Grote Heidestraat,17,51.0225984456,4.55269213891
2820,Bonheiden,Tramweg,19,51.0339704294,4.51925395533
2820,Bonheiden,Kardinaal Cardijnlaan,100,51.0264086896,4.54677299124
2820,Bonheiden,Krekelweg,7,51.0201111243,4.54701846412
2820,Bonheiden,Van den Reecklaan,28,51.0239239393,4.53265221789
2820,Bonheiden,Van Rompaylaan,20,51.0236366988,4.53313053733
2820,Bonheiden,Peter Benoitlaan,26,51.0283949247,4.52581110828
2820,Bonheiden,Grote Heidestraat,2,51.021574325,4.55269023916
2820,Bonheiden,Putsesteenweg,25,51.0352048905,4.51791782768
2820,Bonheiden,Dijleweg,3,51.0004270615,4.58237130394
2820,Bonheiden,Dijleweg,73,51.0020738751,4.56314452475
2820,Bonheiden,Hollakenbaan,3,50.9974510992,4.58745401168
2820,Bonheiden,Rijmenamseweg,192,51.0163923873,4.57740526117
2820,Bonheiden,Oude Keerbergsebaan,53,51.0050847762,4.60254926912
2820,Bonheiden,Martstraat,5,51.0237983784,4.60073448449
2820,Bonheiden,Zavelstraat,9,51.0262464442,4.52487708764
2820,Bonheiden,Dijleweg,27,51.0013023084,4.57875120466
2820,Bonheiden,Berlaarbaan,2,51.0417011564,4.51599447635
2820,Bonheiden,Dorp,46,51.0229842786,4.54631993812
2820,Bonheiden,Korte Schommenstraat,2,51.0203720867,4.544750538
2820,Bonheiden,Gestelhoflei,19,51.040427433,4.53018584251
2820,Bonheiden,Van den Reecklaan,4,51.0217234376,4.5368297122
2820,Bonheiden,Dennengeurlaan,9,51.0073192989,4.59007799084
2820,Bonheiden,Harentslei,11,51.0306593915,4.5784073262
2820,Bonheiden,Rijmenamseweg,50,51.0206183903,4.5548227192
2820,Bonheiden,Berlaarbaan,88,51.0449959145,4.52248826412
2820,Bonheiden,Muizensteenweg,54,51.0205283297,4.53658753825
2820,Bonheiden,Eksterveldlaan,44,51.0403699073,4.54056041786
2820,Bonheiden,Zellaerstraat,55,51.0249771686,4.54589250974
2820,Bonheiden,Peulisbaan,45,51.0228762024,4.58190920085
2820,Bonheiden,Sint-Jansstraat,19,51.0025060312,4.58962322388
2820,Bonheiden,Putsesteenweg,232,51.0363450586,4.55082438021
2820,Bonheiden,Rijmenamseweg,174,51.0175177928,4.57451972524
2820,Bonheiden,Peerlaarstraat,62,51.0199304087,4.59337125145
2820,Bonheiden,Schallenberghlaan,4,51.0244619979,4.53547568649
2820,Bonheiden,Kerselaarstraat,28,51.0363545075,4.52927455175
2820,Bonheiden,Kerselaarstraat,4,51.0365470631,4.53083492496
2820,Bonheiden,Kerselaarstraat,74,51.0359698433,4.5265108351
2820,Bonheiden,Rijmenamseweg,128,51.0184518781,4.56666501857
2820,Bonheiden,Hendrik Consciencelaan,5,51.0188454521,4.55267264053
2820,Bonheiden,Taboralaan,14,51.0112078112,4.61013844905
2820,Bonheiden,Donkerstraat,28,51.0177569626,4.61726501574
2820,Bonheiden,Rijmenamseweg,22,51.0211040256,4.55205330447
2820,Bonheiden,Molenlei,10,51.0263928686,4.61137493839
2820,Bonheiden,Domis de Semerpontlaan,12,51.0207156414,4.55134045437
2820,Bonheiden,Harentstraat,55,51.0241975534,4.57616363644
2820,Bonheiden,Achterdiedonken,7A,51.041093548,4.54484685966
2820,Bonheiden,Lange Dreef,27,51.0026122818,4.58669190825
2820,Bonheiden,Oude Schrieksebaan,8,51.0171553718,4.57887097367
2820,Bonheiden,Eksterveldlaan,9,51.0374643967,4.53994164088
2820,Bonheiden,Taboralaan,6,51.0116743693,4.60876835624
2820,Bonheiden,Broekstraat,18,51.0081359041,4.57936569365
2820,Bonheiden,Korte Dreef,25,51.0037683676,4.58621062585
2820,Bonheiden,Kardinaal Cardijnlaan,46,51.0278239021,4.54714273249
2820,Bonheiden,Kardinaal Cardijnlaan,48,51.0277853481,4.54701857273
2820,Bonheiden,Kruisstraat,11,51.0048496581,4.58891552999
2820,Bonheiden,Hoogstraat,54,51.0012671603,4.59023707674
2820,Bonheiden,Kraaivenstraat,1,51.0033447706,4.59571772969
2820,Bonheiden,Mechelsesteenweg,220,51.0259507372,4.53738003279
2820,Bonheiden,Putsesteenweg,53,51.035342233,4.52093253537
2820,Bonheiden,Krekelweg,24,51.020448883,4.54550775432
2820,Bonheiden,Mechelsesteenweg,202,51.025626145,4.53843776102
2820,Bonheiden,Putsesteenweg,71,51.0354254747,4.52217127829
2820,Bonheiden,Oude Baan,142,51.0360186914,4.56139252663
2820,Bonheiden,Hogenopstal,21,51.0020594193,4.58191476308
2820,Bonheiden,Sleestraat,9,51.0207703575,4.60080566604
2820,Bonheiden,Putsesteenweg,214,51.0363501509,4.54792554528
2820,Bonheiden,Boeimeerstraat,55,51.0126088703,4.56592576496
2820,Bonheiden,Pelgrimpad,1,51.024240551,4.58354257977
2820,Bonheiden,Donkerstraat,4,51.0192083348,4.61371850345
2820,Bonheiden,Putsesteenweg,304,51.0370987199,4.56166744458
2820,Bonheiden,Hendrik Consciencelaan,29,51.017521797,4.5487422244
2820,Bonheiden,Guldensporenlaan,18,51.0251236686,4.5317774232
2820,Bonheiden,Groothoeveweg,16,51.0427584053,4.52498245284
2820,Bonheiden,Schommen,13,51.0205943406,4.54874852021
2820,Bonheiden,Stuyvenbergstraat,7,51.0129625437,4.61857357536
2820,Bonheiden,Dennenlaan,1,51.0114858414,4.60675081793
2820,Bonheiden,Putsesteenweg,142,51.0352596329,4.52823005301
2820,Bonheiden,Kardinaal Cardijnlaan,64,51.027141613,4.54691989737
2820,Bonheiden,Weyneshoflei,2,51.0311802196,4.60793462496
2820,Bonheiden,Watermolenstraat,27,51.0110878778,4.60799645341
2820,Bonheiden,Roggemansstraat,12,51.0285599557,4.53683753299
2820,Bonheiden,Korte Dreef,1,51.0019478607,4.58530291337
2820,Bonheiden,Dorsthoeveweg,36,51.0246048962,4.52726529143
2820,Bonheiden,Schoolstraat,5,51.0214561221,4.54786777121
2820,Bonheiden,Lange Dreef,126,51.0105268707,4.59767483384
2820,Bonheiden,Kerkveldenweg,12,51.0245078519,4.54571284643
2820,Bonheiden,Oude Baan,71,51.0341963601,4.52620673518
2820,Bonheiden,Schoolstraat,40,51.0212311887,4.54443923123
2820,Bonheiden,Oude Kasteellaan,24A,51.0237242416,4.55922162659
2820,Bonheiden,Witthemhof,13A,51.0171640591,4.60408487574
2820,Bonheiden,Gemeenteheide,5,51.0239499077,4.55741639169
2820,Bonheiden,Nachtegalenlaan,2,51.0303081246,4.5286889483
2820,Bonheiden,Guido Gezellelaan,7,51.0208779175,4.55028300708
2820,Bonheiden,Heidestraat,12,51.00578176,4.59444016306
2820,Bonheiden,Amerstraat,2,51.0007328463,4.58513159775
2820,Bonheiden,Venneboslaan,18,51.0257128496,4.56007512945
2820,Bonheiden,Matadilaan,4,51.0207585339,4.56078780462
2820,Bonheiden,Kardinaal Cardijnlaan,82,51.0267111485,4.54861418943
2820,Bonheiden,Putsesteenweg,160,51.0353228812,4.52970254588
2820,Bonheiden,Oude Baan,53,51.0340796243,4.52443301278
2820,Bonheiden,Brandheidestraat,2,51.0259938557,4.60069536279
2820,Bonheiden,Kraaivenstraat,25,51.0053656084,4.59826331876
2820,Bonheiden,Schoolstraat,29,51.0209592518,4.54469089871
2820,Bonheiden,Bruinbeekstraat,53,51.0347600853,4.52943571879
2820,Bonheiden,Louterman,8,51.0215247656,4.6041240988
2820,Bonheiden,Mechelsesteenweg,137,51.0242058016,4.54119956608
2820,Bonheiden,Sint-Marcusweg,22,51.0016955972,4.5871607525
2820,Bonheiden,Witthemhof,9,51.0173856159,4.60310864821
2820,Bonheiden,Kardinaal Cardijnlaan,102A,51.0262662248,4.5459343226
2820,Bonheiden,Plasstraat,44,51.0243606376,4.61477861013
2820,Bonheiden,Zandbergstraat,36,51.0232424882,4.57726670159
2820,Bonheiden,Spiekelei,1,51.0160396672,4.57991095789
2820,Bonheiden,Brugstraat,26,50.9999248302,4.58609471876
2820,Bonheiden,Mechelsesteenweg,273,51.0295665184,4.52543544961
2820,Bonheiden,Oude straat,36,51.0363467868,4.51490301588
2820,Bonheiden,Van Uytvenlaan,11,51.0193089634,4.54993600158
2820,Bonheiden,De Bergen,33,51.0158199744,4.57326331335
2820,Bonheiden,Dorstveld,10,51.0264238805,4.52318617587
2820,Bonheiden,Dorsthoeveweg,3,51.0242800426,4.52937081184
2820,Bonheiden,Dorp,107,51.0234013969,4.54397178416
2820,Bonheiden,Aardestraat,4,51.0260726466,4.52564720625
2820,Bonheiden,Weynesbaan,89,51.0277260605,4.60461420819
2820,Bonheiden,Sint-Maartensberg,18,51.000580156,4.58325269374
2820,Bonheiden,Kardinaal Cardijnlaan,11,51.0269038141,4.54877015861
2820,Bonheiden,Baxbos,5,51.0113455809,4.58600595624
2820,Bonheiden,Rijmenamseweg,85,51.0192340244,4.56467951147
2820,Bonheiden,Zandbergstraat,3,51.021570229,4.5779362207
2820,Bonheiden,Achterdiedonken,2,51.0419032147,4.54973162994
2820,Bonheiden,Kapelweg,28,51.0381158956,4.5346414099
2820,Bonheiden,Rijmenamseweg,218,51.0117261947,4.58672475806
2820,Bonheiden,Korte Dreef,43,51.0047686145,4.58663201721
2820,Bonheiden,Lange Dreef,108,51.0093045425,4.59609706926
2820,Bonheiden,Gestelhoflei,12,51.040971853,4.531193936
2820,Bonheiden,Putsesteenweg,250,51.0365869675,4.55346044039
2820,Bonheiden,Rijmenamseweg,199,51.011745933,4.59565924265
2820,Bonheiden,Zellaerstraat,20,51.0241717565,4.54731063651
2820,Bonheiden,Kleinbeeklei,43,51.0222656739,4.60877134363
2820,Bonheiden,Gestellei,4,51.0370961416,4.52274292789
2820,Bonheiden,Krekelweg,42,51.0188295009,4.54574745812
2820,Bonheiden,Oude Booischotsebaan,16,51.0268869078,4.60282963876
2820,Bonheiden,Eksterveldlaan,79,51.0410214434,4.54122511754
2820,Bonheiden,Doornlaarstraat,55,51.0159323017,4.63012157289
2820,Bonheiden,Kraaivenstraat,43,51.0079104563,4.60401388741
2820,Bonheiden,Tramweg,12,51.0326796449,4.5199923699
2820,Bonheiden,Bleukstraat,18,51.0222666234,4.61163128373
2820,Bonheiden,de Selliers de Moranvillelaan,13,51.0187056811,4.55471903647
2820,Bonheiden,Mechelsesteenweg,310,51.0313904739,4.52176668709
2820,Bonheiden,Uyerenboslaan,20,51.0360179299,4.55827213754
2820,Bonheiden,Waversesteenweg,45,51.0382030008,4.55151627701
2820,Bonheiden,Zwarte Leeuwstraat,17,51.0372510152,4.53166186432
2820,Bonheiden,Lijsterbeslaan,11,51.0184000612,4.57998833172
2820,Bonheiden,Harentstraat,20,51.020985178,4.57593344041
2820,Bonheiden,Berentrodedreef,36,51.0249030924,4.55534623167
2820,Bonheiden,Putsesteenweg,357,51.0370051499,4.55213390527
2820,Bonheiden,Gestellei,18,51.040763084,4.52668575367
2820,Bonheiden,Sint-Maartensberg,4,51.0006695004,4.58394389539
2820,Bonheiden,Oude Keerbergsebaan,17,51.00339184,4.59508368682
2820,Bonheiden,Kardinaal Mercierlaan,10,51.0183227911,4.54863942658
2820,Bonheiden,Brouwersdreef,3,51.0248288618,4.53019398217
2820,Bonheiden,Sint-Elooisweg,28,51.0027184825,4.58438458403
2820,Bonheiden,Koning Albertlaan,9,51.0178112927,4.55379441326
2820,Bonheiden,Boerenkrijglaan,2,51.0236103622,4.53867828691
2820,Bonheiden,Dijleweg,20,51.0018449841,4.57829775993
2820,Bonheiden,Putsesteenweg,239,51.0361672685,4.53602637108
2820,Bonheiden,Hollakenbaan,20,50.9970757897,4.5869781819
2820,Bonheiden,Van den Reecklaan,21,51.0220615614,4.53414304413
2820,Bonheiden,Pretersberg,10,51.0254059044,4.58368363643
2820,Bonheiden,Cassenbroek,1,51.0148590758,4.56933854284
2820,Bonheiden,Dijk,4,50.9988071265,4.58584891119
2820,Bonheiden,Kloosterstraat,47,51.0026041718,4.58475860052
2820,Bonheiden,Olmenlaan,10,51.020686225,4.5408949556
2820,Bonheiden,Groenstraat,1,51.029619902,4.56053775635
2820,Bonheiden,Peulisbaan,48,51.0233059275,4.58242669214
2820,Bonheiden,Zwarte Leeuwstraat,47,51.0385623993,4.53335140605
2820,Bonheiden,Rijmenamseweg,67,51.02015337,4.56085486384
2820,Bonheiden,Brughoevestraat,10,51.0022424088,4.60096706815
2820,Bonheiden,Eksterveldlaan,26,51.0390492299,4.54020067683
2820,Bonheiden,Meiboomstraat,6,51.0174154877,4.63141775101
2820,Bonheiden,Waversesteenweg,63,51.0403520078,4.5520893204
2820,Bonheiden,Reetlei,13,51.0172628381,4.61602766921
2820,Bonheiden,Peter Benoitlaan,44,51.0269608164,4.52601039458
2820,Bonheiden,Zwarte Leeuwstraat,1,51.0361151501,4.53089344445
2820,Bonheiden,Oude Keerbergsebaan,35,51.0033226447,4.59881645915
2820,Bonheiden,Koningin Astridlaan,66,51.0127292303,4.56116515897
2820,Bonheiden,Dorp,11,51.0215825928,4.54974487039
2820,Bonheiden,Stationsplein,3,51.0028863856,4.58850936092
2820,Bonheiden,Zwarte Leeuwstraat,35,51.0381517358,4.53274244664
2820,Bonheiden,Kloosterstraat,1,51.0013100048,4.58299519713
2820,Bonheiden,Oude Booischotsebaan,70,51.0214701702,4.59152014791
2820,Bonheiden,Weynesbaan,133,51.0317594153,4.60229297311
2820,Bonheiden,Notelaarstraat,3,51.0359468031,4.52532487952
2820,Bonheiden,Oude Booischotsebaan,34,51.0262280333,4.60132512065
2820,Bonheiden,Jachthoornlaan,11,51.007201126,4.60130760124
2820,Bonheiden,Doornlaarstraat,27,51.0158401,4.60881228126
2820,Bonheiden,Peerlaarstraat,26,51.0199221356,4.59158102821
2820,Bonheiden,Hairgracht,3,51.0375812538,4.51554490026
2820,Bonheiden,Nieuwstraat,11,51.0234366407,4.54683177366
2820,Bonheiden,Zilverberklaan,48,51.0041739193,4.59562915254
2820,Bonheiden,Louterman,16,51.0221917418,4.60431003693
2820,Bonheiden,Zwarte Leeuwstraat,71,51.0403553487,4.53456183425
2820,Bonheiden,Kleine-Paalstraat,3,51.0106408956,4.60513451143
2820,Bonheiden,Mechelsesteenweg,227,51.0265121807,4.53429751999
2820,Bonheiden,Guldensporenlaan,11,51.0251661705,4.53326919892
2820,Bonheiden,Oude Baan,167,51.0366374613,4.55608392593
2820,Bonheiden,Voordiedonkenlaan,2,51.0365542618,4.54244681063
2820,Bonheiden,Oude Molenstraat,9,51.0174330695,4.57030015639
2820,Bonheiden,Rijmenamseweg,264,51.009276105,4.60296935576
2820,Bonheiden,Donkerstraat,21,51.0201730305,4.62319160186
2820,Bonheiden,Oude straat,72,51.0395235548,4.5160801283
2820,Bonheiden,Putsesteenweg,149,51.0356874034,4.52804389852
2820,Bonheiden,Zwarte Leeuwstraat,53,51.0388401296,4.53382046526
2820,Bonheiden,Heiken,49,51.045360152,4.53122006765
2820,Bonheiden,Kruisstraat,4,51.0027658194,4.59213813991
2820,Bonheiden,Putsesteenweg,88,51.0348177113,4.52321056651
2820,Bonheiden,Kloosterstraat,53,51.0026231179,4.58520888234
2820,Bonheiden,Hendrik Consciencelaan,22,51.0184850168,4.55040637783
2820,Bonheiden,Boslaan,1,51.0366408118,4.56013492036
2820,Bonheiden,Kerselaarstraat,56,51.0361512839,4.52774395184
2820,Bonheiden,Oude straat,90,51.040492349,4.51646887444
2820,Bonheiden,Hogenopstal,28,51.0012541609,4.58197092165
2820,Bonheiden,Putsesteenweg,185,51.035949431,4.53164419966
2820,Bonheiden,Kleinbeeklei,9,51.0235794006,4.60746197072
2820,Bonheiden,Broekstraat,11,51.0068579488,4.58615106648
2820,Bonheiden,Eisenhowerlaan,39,51.0230527443,4.55845407739
2820,Bonheiden,Oude Baan,149,51.0361581714,4.55301578226
2820,Bonheiden,Olmenlaan,2,51.0211875965,4.54171502918
2820,Bonheiden,Muizensteenweg,36,51.0215321431,4.53839521689
2820,Bonheiden,Rijmenamseweg,6,51.0213600654,4.55128397175
2820,Bonheiden,Oude Baan,88,51.0336350378,4.53228376611
2820,Bonheiden,Groothoeveweg,9,51.0431033951,4.52370101748
2820,Bonheiden,Zilverberklaan,45,51.0073516401,4.59823004907
2820,Bonheiden,Sint-Marcusweg,40,51.0014013391,4.5884838532
2820,Bonheiden,Kardinaal Mercierlaan,2,51.0191677643,4.54763993742
2820,Bonheiden,Domis de Semerpontlaan,37,51.0190592006,4.55849228356
2820,Bonheiden,Rivierenlaan,13,51.012979309,4.60594305415
2820,Bonheiden,Krankhoefpad,10,51.0297194427,4.57974178053
2820,Bonheiden,Van Arteveldelaan,5,51.0205559849,4.56178903582
2820,Bonheiden,Watermolenstraat,20,51.0110161393,4.60484757901
2820,Bonheiden,Schoolstraat,57,51.0200640758,4.54212616457
2820,Bonheiden,Kievitlaan,14,51.0309096908,4.52668458836
2820,Bonheiden,Oude Schrieksebaan,25,51.0172681568,4.58068578931
2820,Bonheiden,Mechelsesteenweg,184,51.0254445122,4.53909504503
2820,Bonheiden,Oude Baan,132,51.0362144865,4.55929173135
2820,Bonheiden,Domis de Semerpontlaan,5,51.0207998108,4.55195419691
2820,Bonheiden,Sint-Marcusweg,6,51.0018294351,4.58663454611
2820,Bonheiden,Berentrodedreef,54,51.0291774912,4.56572864691
2820,Bonheiden,Putsesteenweg,339,51.0369257245,4.55049231874
2820,Bonheiden,Mechelsesteenweg,120,51.0245190061,4.54191395879
2820,Bonheiden,Bruinbeekstraat,17,51.0315143332,4.52698785373
2820,Bonheiden,Oude straat,54,51.0382669469,4.51539165411
2820,Bonheiden,Schoolstraat,22,51.0212959767,4.54499374763
2820,Bonheiden,Garsgoed,3,51.0226036226,4.60676045083
2820,Bonheiden,Weynesbaan,144,51.0320287066,4.60660193815
2820,Bonheiden,Berlaarbaan,106,51.0457235981,4.52505285517
2820,Bonheiden,Putsesteenweg,167,51.0358095832,4.5292165038
2820,Bonheiden,Boeimeerstraat,3,51.0184876635,4.56392347312
2820,Bonheiden,Oude Baan,17,51.0343825756,4.51904386561
2820,Bonheiden,Venneboslaan,11,51.0259743008,4.55938204428
2820,Bonheiden,Diedonken,12,51.0386828615,4.54999202318
2820,Bonheiden,Domis de Semerpontlaan,19,51.0200250216,4.55453944739
2820,Bonheiden,Bareelveld,13,51.0336165527,4.51655314418
2820,Bonheiden,Peulisbaan,53,51.0232199707,4.58164709175
2820,Bonheiden,Halmenhoek,5,51.0198593507,4.55168171367
2820,Bonheiden,Lijsterbeslaan,2,51.0186835632,4.58262586353
2820,Bonheiden,Muizensteenweg,62,51.020156419,4.534398809
2820,Bonheiden,De Bergen,6,51.015965502,4.57608331028
2820,Bonheiden,Putsesteenweg,277,51.0365202082,4.54274009172
2820,Bonheiden,Harentstraat,37,51.0219755185,4.57561943476
2820,Bonheiden,Zellaerstraat,19,51.0233837727,4.54748991551
2820,Bonheiden,Kanonniersweg,39,51.0209345472,4.57410536889
2820,Bonheiden,Donkerstraat,46,51.0188000936,4.62337252873
