PKANCODE,COMMUNE_NL,STREET_NL,HUISNR,LAT,LON
2840,Rumst,Morenhoekstraat,5,51.0860296054,4.44849932734
2840,Rumst,Quinten Matsijslaan,10,51.1023300633,4.3995043652
2840,Rumst,Beekvelden,42,51.1028173859,4.4155079244
2840,Rumst,Pierstraat,325,51.1099226623,4.36703449958
2840,Rumst,Dalialaan,4,51.1088629644,4.39207227118
2840,Rumst,David Tenierslaan,18,51.1018380665,4.40577398849
2840,Rumst,Dennenlaan,39,51.1035214627,4.41254723264
2840,Rumst,Antoon Van Dycklaan,5,51.1031697113,4.40329967594
2840,Rumst,Pieter Pauwel Rubenslaan,9,51.1006525304,4.40255954253
2840,Rumst,Nieuwstraat,128,51.0797280379,4.4004765168
2840,Rumst,Leliënlaan,34,51.1101606547,4.3893538605
2840,Rumst,Steenbakkerijstraat,15,51.0794856698,4.40368966837
2840,Rumst,Tuinwijklaan,55,51.0776311872,4.4036591461
2840,Rumst,Priester Daensstraat,13,51.0874658124,4.43872702822
2840,Rumst,Clemenshoek,15,51.1028171972,4.3969193909
2840,Rumst,Bussestraat,14,51.084857393,4.44899153837
2840,Rumst,Predikherenhoevestraat,99,51.1108770461,4.3822710833
2840,Rumst,Eikenstraat,168,51.1102751883,4.40799210478
2840,Rumst,Wilgenveld,23,51.1064172033,4.41300589231
2840,Rumst,Eikenstraat,186,51.1121038911,4.40709702825
2840,Rumst,Molenbergstraat,41,51.0783115432,4.42290114158
2840,Rumst,Antwerpsesteenweg,67,51.0925878809,4.45131331137
2840,Rumst,Molenstraat,66,51.1003873377,4.40614072061
2840,Rumst,Molenstraat,209,51.1011582269,4.39422165623
2840,Rumst,Zonnebloemlaan,27,51.1115282058,4.39301453556
2840,Rumst,Lage Vosbergstraat,62A,51.0844703169,4.46038982764
2840,Rumst,Rumstsestraat,52,51.0997361179,4.41437926269
2840,Rumst,Ontvoogdingstraat,19,51.076925605,4.40038767507
2840,Rumst,Leliënlaan,16,51.1094205462,4.38764730863
2840,Rumst,Beekvelden,60,51.1032122255,4.41735294564
2840,Rumst,Hazeweg,11,51.1031334161,4.39078366435
2840,Rumst,Kamiel Huysmansstraat,19,51.0808620928,4.39940231175
2840,Rumst,Tuinwijk,1,51.080102375,4.42255419241
2840,Rumst,Clemenshoek,139,51.1095417274,4.40712087652
2840,Rumst,'s Herenbaan,282,51.1072696772,4.36240618697
2840,Rumst,Hoveniersstraat,29,51.0845468165,4.46530339086
2840,Rumst,Vorft,1,51.0829991906,4.39031292598
2840,Rumst,Seringenlaan,11,51.1077989084,4.38956625039
2840,Rumst,Hollebeekstraat,12,51.0808538413,4.42197212115
2840,Rumst,Beukendreef,6,51.1008876311,4.40784331968
2840,Rumst,Olmenlaan,30,51.1041019151,4.41360217986
2840,Rumst,Kerkstraat,128,51.0812709247,4.43286074766
2840,Rumst,Eikenstraat,62,51.1037289681,4.41242964151
2840,Rumst,Bussestraat,32,51.0850000702,4.45038455988
2840,Rumst,Putstraat,8,51.0805029964,4.40289501601
2840,Rumst,Varenlaan,1,51.1105340308,4.39267472427
2840,Rumst,Nieuwstraat,22,51.0813168754,4.41454125832
2840,Rumst,Pierstraat,163,51.110568993,4.38076907259
2840,Rumst,Doelhaagstraat,34,51.0800195066,4.42843925661
2840,Rumst,Keelhoevestraat,5,51.0961425404,4.42530728103
2840,Rumst,Pierstraat,28,51.1165726051,4.39973830765
2840,Rumst,Monnikenhofstraat,22,51.1037604374,4.3944131449
2840,Rumst,Albert Servaeslaan,23,51.108267902,4.36571289112
2840,Rumst,Antwerpsesteenweg,103,51.0972384545,4.45088633461
2840,Rumst,Slijkenhoefstraat,30,51.0939276634,4.45054730492
2840,Rumst,Kerkstraat,50,51.0783506724,4.42923791572
2840,Rumst,Jacob Jordaenslaan,16,51.1028621042,4.40211272819
2840,Rumst,Laarstraat,1,51.1013015371,4.4129297335
2840,Rumst,Eikenstraat,223,51.1129537813,4.4059837379
2840,Rumst,Tuinwijk,53,51.0805991727,4.42505978786
2840,Rumst,Salvialaan,30,51.1076975853,4.3891779682
2840,Rumst,Kamiel Huysmansstraat,37,51.0812693816,4.40038625358
2840,Rumst,Veerstraat,98,51.0756357322,4.42054293372
2840,Rumst,Slijkenhoefstraat,12,51.0935642185,4.44361291894
2840,Rumst,Vissersstraat,47,51.075702353,4.4230763005
2840,Rumst,Korte Veerstraat,1,51.0805832762,4.39496476309
2840,Rumst,Steenweg op Waarloos,32,51.1007999863,4.42209106082
2840,Rumst,Hollebeekstraat,65,51.0819807786,4.42116969054
2840,Rumst,Zonnebloemlaan,3,51.1106817283,4.39082331849
2840,Rumst,Oude Baan,20,51.078344774,4.40003177183
2840,Rumst,Molenstraat,227,51.1006343779,4.39112165834
2840,Rumst,Hollebeekstraat,30,51.0813041346,4.42227360634
2840,Rumst,Molenstraat,31,51.0982691222,4.41136748435
2840,Rumst,Eugeen Roelandtsstraat,5,51.1052042693,4.40928420233
2840,Rumst,Doelhaagstraat,16,51.0797023591,4.42777386177
2840,Rumst,Jan Van Eycklei,6,51.1010256522,4.40436594791
2840,Rumst,Mechelsesteenweg,97,51.0767241934,4.45306501224
2840,Rumst,Steenweg op Waarloos,14,51.1006431887,4.41893178358
2840,Rumst,Ekkersgatstraat,16,51.0814379285,4.43088492856
2840,Rumst,Abdon Braeckmansstraat,12,51.0771936503,4.42220505833
2840,Rumst,1 meistraat,18,51.0774630574,4.39652161346
2840,Rumst,Nieuwstraat,50,51.080938313,4.40985118463
2840,Rumst,Kerkstraat,22,51.077590118,4.42695638081
2840,Rumst,Oude Baan,55,51.0787546722,4.40194063524
2840,Rumst,Molenstraat,84,51.1001208941,4.402997861
2840,Rumst,Schransstraat,17,51.0793805402,4.40473143897
2840,Rumst,Hollebeekstraat,83,51.0833298852,4.42143452583
2840,Rumst,Salvialaan,12,51.1066546916,4.38824640928
2840,Rumst,Jeroen Boschlaan,16,51.1026609368,4.40083835241
2840,Rumst,Korte Nieuwstraat,35,51.0806769847,4.40114788177
2840,Rumst,Nijverheidsstraat,40,51.0772507245,4.41960996236
2840,Rumst,Beemdstraat,14,51.0789663619,4.40065821484
2840,Rumst,Kerkhofstraat,32,51.0823627017,4.43205452821
2840,Rumst,Pierstraat,117,51.1116531135,4.38317023418
2840,Rumst,Tulpenlaan,10,51.1048137427,4.38953589323
2840,Rumst,Molenbergstraat,6,51.0774282579,4.42375227328
2840,Rumst,Kapelstraat,56,51.0822745882,4.39306086236
2840,Rumst,Antwerpsesteenweg,14,51.0864901718,4.45251516046
2840,Rumst,Morenhoekstraat,40,51.0909434975,4.44559769772
2840,Rumst,Varenstraat,3,51.0790609325,4.4530746816
2840,Rumst,Beekvelden,7,51.1014434234,4.41667622062
2840,Rumst,Eikenstraat,133,51.1069214503,4.40912508494
2840,Rumst,Veldstraat,17,51.080891016,4.39702416353
2840,Rumst,Veerstraat,10,51.0771350921,4.42402403957
2840,Rumst,'s Herenbaan,236,51.1063014926,4.36463341599
2840,Rumst,Populierenlaan,21,51.0763147425,4.39862474149
2840,Rumst,Sint Jozefstraat,11,51.1110817789,4.38324216171
2840,Rumst,Vissersstraat,35,51.0757077667,4.42341690441
2840,Rumst,Molenveld,21,51.0774349174,4.42179908834
2840,Rumst,Kerkhofstraat,14,51.0818799752,4.43126826355
2840,Rumst,Uitbreidingstraat,17,51.0777726361,4.39760842282
2840,Rumst,Hoogstraat,3,51.0799923219,4.4004344603
2840,Rumst,Eikenstraat,115,51.1061030133,4.40966450763
2840,Rumst,Markt,10,51.0766731639,4.42475620769
2840,Rumst,Antwerpsesteenweg,121,51.0981660713,4.4509260941
2840,Rumst,Philip de Pillecijnlaan,15,51.1090263688,4.36546496922
2840,Rumst,Netestraat,39,51.0770137691,4.44995555381
2840,Rumst,Tiburstraat,21,51.0830034313,4.43805725111
2840,Rumst,Mechelsesteenweg,9,51.0842274447,4.45259213618
2840,Rumst,Bussestraat,42,51.0850448145,4.45105426718
2840,Rumst,Netestraat,49,51.0769642637,4.45095088947
2840,Rumst,Antwerpsesteenweg,32,51.0872201951,4.45245967482
2840,Rumst,Rozenlaan,20,51.1058046744,4.38948566145
2840,Rumst,Sint Janstraat,4,51.1115192504,4.38332912489
2840,Rumst,Kromhoutstraat,17,51.0875637724,4.4363171263
2840,Rumst,Sint Janstraat,28,51.1111087913,4.38357859922
2840,Rumst,Kapelstraat,74,51.0826911613,4.39248967494
2840,Rumst,Molenstraat,13,51.1007399898,4.41104626791
2840,Rumst,Processieweg,3,51.1032238231,4.41040678942
2840,Rumst,Clemenshoek,61,51.1068337674,4.39895011067
2840,Rumst,Hoveniersstraat,5,51.0868040594,4.46501949975
2840,Rumst,Pierstraat,235,51.1099143919,4.37466678166
2840,Rumst,Nieuwstraat,75,51.0798420269,4.40415329041
2840,Rumst,Lage Vosbergstraat,5A,51.0860910367,4.4549078587
2840,Rumst,Hoogstraat,27,51.0805262596,4.40043554339
2840,Rumst,Hoveniersstraat,40,51.0824564011,4.46449844575
2840,Rumst,Kapelstraat,110,51.0830297161,4.39050560015
2840,Rumst,Molenstraat,102,51.0998849282,4.4008416883
2840,Rumst,Abel Fransplein,7,51.0796606143,4.42456575619
2840,Rumst,Pieter Breughellaan,1,51.103722671,4.40399525952
2840,Rumst,Kloosterstraat,6,51.0801498524,4.39604219975
2840,Rumst,Potaardestraat,4,51.0943817837,4.45344427114
2840,Rumst,Mechelsesteenweg,72,51.0777565825,4.45178477529
2840,Rumst,Hoge Vosbergstraat,28,51.0876398185,4.45813617753
2840,Rumst,Kerremansstraat,12,51.0977303961,4.40054353124
2840,Rumst,Keulshaagweg,19,51.1116980452,4.40844256416
2840,Rumst,Molleveld,4,51.0829439619,4.38954397507
2840,Rumst,Hoge Meentochtstraat,21,51.0901709909,4.42732677444
2840,Rumst,Boereweg,8,51.0805052523,4.4040627576
2840,Rumst,Slijkenhoefstraat,35B,51.0944476484,4.45005760502
2840,Rumst,Schensbossen,3,51.1057228173,4.40199459126
2840,Rumst,Clemenshoek,43,51.1050407293,4.39878730107
2840,Rumst,Hoge Vosbergstraat,4,51.0862971269,4.45395900467
2840,Rumst,'s Herenbaan,22,51.0956060976,4.39911470574
2840,Rumst,Overwinningstraat,38,51.0774116086,4.39738744759
2840,Rumst,Lage Vosbergstraat,78,51.0875446295,4.46249766188
2840,Rumst,Krokuslaan,10,51.1068606199,4.39210536787
2840,Rumst,Frans Van Lindenstraat,9,51.0858704943,4.43763395458
2840,Rumst,Rupelstraat,26,51.0799797891,4.39524924823
2840,Rumst,Kerremansstraat,30,51.0964976388,4.40000635565
2840,Rumst,Varenstraat,27,51.0790099548,4.45432676977
2840,Rumst,Nijverheidsstraat,5,51.0759473673,4.42015816504
2840,Rumst,Pierstraat,353,51.1098485599,4.36500755847
2840,Rumst,Antoine De Winterstraat,14,51.0797031035,4.42592075098
2840,Rumst,Tuinwijklaan,27,51.0780751448,4.40276249857
2840,Rumst,Nijverheidsstraat,29,51.0781139521,4.41850901618
2840,Rumst,Tuinwijklaan,3,51.0782789527,4.40172795847
2840,Rumst,Mechelsesteenweg,54,51.0781789038,4.44852321239
2840,Rumst,Kardinaal Cardijnstraat,34,51.0801525384,4.39791787741
2840,Rumst,Molenstraat,155,51.0992684811,4.40082569518
2840,Rumst,Crequilei,21,51.0812908095,4.4042868392
2840,Rumst,Kamiel Huysmansstraat,12,51.0800750157,4.39978679389
2840,Rumst,Beekvelden,59,51.1032702149,4.41732502334
2840,Rumst,Hazeweg,4,51.1022825706,4.39198137344
2840,Rumst,Begijnenbossen,85,51.1050905215,4.41354917284
2840,Rumst,Molenveld,84,51.077297571,4.41998643914
2840,Rumst,Rozenlaan,65,51.10977275,4.39053686243
2840,Rumst,Hollebeekstraat,37,51.081386781,4.42120112485
2840,Rumst,Beukendreef,23,51.1022498398,4.40716303993
2840,Rumst,Kerremansstraat,5,51.0976966361,4.40169097749
2840,Rumst,Kerkhofstraat,50,51.082877091,4.43295459318
2840,Rumst,Lazarusstraat,8,51.078299739,4.45309741377
2840,Rumst,Nijverheidsstraat,22,51.0765376474,4.42020105904
2840,Rumst,Veerstraat,55,51.0763273982,4.42277781382
2840,Rumst,Nieuwstraat,111,51.079350034,4.4005580217
2840,Rumst,Predikherenhoevestraat,100,51.1106618394,4.38312336249
2840,Rumst,Vissersstraat,71,51.0753464563,4.42255450201
2840,Rumst,Steenberghoekstraat,33,51.0797327648,4.41742680687
2840,Rumst,Kerkelei,5,51.1008152122,4.41205868481
2840,Rumst,Veerstraat,63,51.0763060712,4.42243989809
2840,Rumst,Morenhoekstraat,22,51.0886952478,4.4464941567
2840,Rumst,Slijkenhoefstraat,37,51.0944898583,4.4502406793
2840,Rumst,Pieter Pauwel Rubenslaan,2,51.101090991,4.40380921128
2840,Rumst,Begijnenbossen,67,51.1043687905,4.41383816305
2840,Rumst,Eikenstraat,161,51.1083643267,4.40808142843
2840,Rumst,Molenbergstraat,76,51.0797397488,4.42278194856
2840,Rumst,Keulshaagweg,30,51.1124437995,4.40830454904
2840,Rumst,Seringenlaan,4,51.1082654625,4.38936213557
2840,Rumst,Priester Daensstraat,6,51.0870493878,4.43746915054
2840,Rumst,Korte Vissersstraat,1,51.0757475712,4.42248647875
2840,Rumst,Molenstraat,202,51.1017101183,4.39176607211
2840,Rumst,Veerstraat,81,51.0756587747,4.42167233817
2840,Rumst,Weivelden,15,51.0865498694,4.43794038963
2840,Rumst,Romeins Veld,7,51.0795904427,4.42121306855
2840,Rumst,Kamiel Huysmansstraat,30,51.0806728097,4.39998955319
2840,Rumst,Salvialaan,37,51.1082272965,4.38865160619
2840,Rumst,'s Herenbaan,164,51.1048695606,4.37420089952
2840,Rumst,Louis Paul Boonstraat,7,51.0883068355,4.43639271439
2840,Rumst,Markt,3,51.0772793615,4.42459313052
2840,Rumst,Ontvoogdingstraat,12,51.0764891631,4.40017776051
2840,Rumst,Dennenlaan,14,51.1024619533,4.41349421844
2840,Rumst,Schransstraat,10,51.0796405331,4.40461848131
2840,Rumst,Lage Vosbergstraat,43,51.0866107782,4.45718737855
2840,Rumst,Molenbergstraat,94,51.0804414,4.42204342534
2840,Rumst,Netestraat,32,51.0764533682,4.44857061398
2840,Rumst,Molenstraat,38,51.1004054286,4.40823750877
2840,Rumst,Antwerpsesteenweg,39,51.0899680085,4.45129822756
2840,Rumst,James Ensorlaan,14,51.1024103168,4.40625729836
2840,Rumst,Pierstraat,207,51.109505158,4.37913696004
2840,Rumst,Guido Gezellestraat,1,51.084239368,4.44034125007
2840,Rumst,Netestraat,14,51.0767874768,4.4471212969
2840,Rumst,Salvialaan,19,51.106838503,4.38776773547
2840,Rumst,Overwinningstraat,13,51.0766818877,4.39847073189
2840,Rumst,Pierstraat,253,51.1098898967,4.37382515713
2840,Rumst,Clemenshoek,8,51.1028647021,4.39782687527
2840,Rumst,Eikenstraat,143,51.1078201098,4.40871507753
2840,Rumst,Netestraat,50,51.0765148647,4.45063132128
2840,Rumst,Quinten Matsijslaan,3,51.1019447411,4.39871887875
2840,Rumst,Lode Zielenslaan,16,51.1082503067,4.36766194605
2840,Rumst,Weivelden,33,51.0865608952,4.43993479888
2840,Rumst,Steenberghoekstraat,15,51.0800079705,4.42102360714
2840,Rumst,Hollebeekstraat,19,51.0809936873,4.42122579424
2840,Rumst,James Ensorlaan,32,51.102869218,4.40447731366
2840,Rumst,Pierstraat,135,51.111387623,4.38287555726
2840,Rumst,Vissersstraat,53,51.0755243108,4.42301773171
2840,Rumst,Beekvelden,103,51.1023837826,4.41613481548
2840,Rumst,Hans Memlinclaan,10,51.1019988456,4.40325482056
2840,Rumst,Pierstraat,21,51.1159402323,4.40078097311
2840,Rumst,Ontvoogdingstraat,30,51.0765828107,4.40121090899
2840,Rumst,'s Herenbaan,146,51.10443944,4.37711119314
2840,Rumst,Zonnebloemlaan,20,51.111054055,4.39340754374
2840,Rumst,'s Herenbaan,318,51.1087467754,4.36036197862
2840,Rumst,Eikenstraat,97,51.1055624327,4.41015875801
2840,Rumst,Steenweg op Waarloos,7,51.1011963885,4.4178089573
2840,Rumst,Slijkenhoefstraat,19,51.0942564996,4.44921550141
2840,Rumst,Oude Brouwerijstraat,6,51.0789084109,4.39922848039
2840,Rumst,Gladiolenlaan,16,51.106629592,4.39174243769
2840,Rumst,Sint Janstraat,21,51.1116065674,4.38373912676
2840,Rumst,Steenweg op Waarloos,59,51.1010726897,4.42842633
2840,Rumst,Oude Baan,91,51.0789089308,4.40373532059
2840,Rumst,Beukendreef,41,51.1033827652,4.40584876276
2840,Rumst,Sint Jozefstraat,18,51.1110433473,4.38429013185
2840,Rumst,Predikherenhoevestraat,36,51.1064265276,4.38678750424
2840,Rumst,Krokuslaan,3,51.1075583348,4.39251038156
2840,Rumst,Kromhoutstraat,10,51.0873341176,4.4370720867
2840,Rumst,Clemenshoek,78,51.1088517983,4.40642562809
2840,Rumst,Slijkenhoefstraat,5,51.0943462183,4.44600245678
2840,Rumst,Tuinwijklaan,20,51.0778645516,4.40177874503
2840,Rumst,Begijnenbossen,32,51.1025196669,4.4146318688
2840,Rumst,Beekvelden,24,51.1021325666,4.41564071853
2840,Rumst,Rumstsestraat,16,51.100597065,4.41298387894
2840,Rumst,Korte Veerstraat,35,51.0799139439,4.39466641767
2840,Rumst,Mechelsesteenweg,2,51.0849584819,4.45161955799
2840,Rumst,Kerkstraat,29,51.080197428,4.43027934637
2840,Rumst,Pierstraat,4,51.1167838526,4.40408185088
2840,Rumst,Predikherenhoevestraat,18,51.1049897089,4.38711845887
2840,Rumst,Veerstraat,17,51.0768613545,4.42389058037
2840,Rumst,Molenstraat,137,51.0993514603,4.40357660884
2840,Rumst,Veldstraat,10,51.0808076109,4.39734134303
2840,Rumst,Kerremansstraat,37,51.0947691615,4.39974580395
2840,Rumst,Lindenlaan,14,51.1035447723,4.41679605132
2840,Rumst,Monnikenhofstraat,29,51.1034497078,4.39269155341
2840,Rumst,Hoogstraat,20,51.0802161925,4.40091024192
2840,Rumst,Gladiolenlaan,34,51.1055357134,4.39235555004
2840,Rumst,Pompstraat,6,51.0821856231,4.38976040059
2840,Rumst,Laarstraat,35,51.1011522961,4.41530079391
2840,Rumst,Hollebeekstraat,5,51.0806021208,4.42145124873
2840,Rumst,Steenweg op Waarloos,39,51.1018048931,4.42410282673
2840,Rumst,Karl Marxstraat,44,51.0772910575,4.40083898131
2840,Rumst,Rumstsestraat,34,51.0999959134,4.41363729702
2840,Rumst,Petrus Van der Taelenstraat,12,51.0878785397,4.43573098312
2840,Rumst,Tulpenlaan,17,51.1056491939,4.39079159796
2840,Rumst,Philip de Pillecijnlaan,8,51.108519743,4.364708503
2840,Rumst,Begijnenbossen,14,51.1018261029,4.41460448021
2840,Rumst,Nieuwstraat,146,51.0797064623,4.39982507308
2840,Rumst,Populierenlaan,28,51.0764763406,4.39800899333
2840,Rumst,Molenveld,28,51.0781153538,4.42184439122
2840,Rumst,Uitbreidingstraat,10,51.0780435133,4.3981499812
2840,Rumst,'s Herenbaan,128,51.1043790503,4.37905150754
2840,Rumst,Varenstraat,91,51.0801411336,4.46250897046
2840,Rumst,Romeins Veld,59,51.0781269188,4.41970196801
2840,Rumst,Tuinwijk,35,51.0804800265,4.42421469759
2840,Rumst,Frans Van Lindenstraat,2,51.0851837304,4.43781389865
2840,Rumst,'s Herenbaan,246,51.1063174545,4.36350715089
2840,Rumst,Overwinningstraat,31,51.0769353311,4.39757735775
2840,Rumst,Stijn Streuvelslaan,4,51.1092539285,4.36416398862
2840,Rumst,Kerkstraat,49,51.0814422963,4.43228744948
2840,Rumst,Kardinaal Cardijnstraat,52,51.0804843311,4.39714249795
2840,Rumst,Kerkhofstraat,7,51.0820840613,4.43000914122
2840,Rumst,Rozenlaan,27,51.1066528219,4.38917092819
2840,Rumst,Sint Jozefstraat,4,51.1105716225,4.38358356149
2840,Rumst,Tulpenlaan,3,51.1053386908,4.38951614534
2840,Rumst,Hortensialaan,17,51.1079096832,4.3930468726
2840,Rumst,Nieuwstraat,29,51.0809214459,4.41317818069
2840,Rumst,Romeins Veld,24,51.0785010552,4.42047137554
2840,Rumst,Morenhoevestraat,5,51.0965702951,4.43282213884
2840,Rumst,Blauwhoevestraat,6,51.0864760031,4.43464084552
2840,Rumst,Beekvelden,95,51.1019189652,4.4163724754
2840,Rumst,Lage Vosbergstraat,61,51.0869623511,4.45857774192
2840,Rumst,'s Herenbaan,40,51.1013982382,4.38924250864
2840,Rumst,Hoveniersstraat,22,51.0853118747,4.46385482485
2840,Rumst,Olmenlaan,5,51.1031977692,4.41350963913
2840,Rumst,Veerstraat,3,51.0769504408,4.42425512292
2840,Rumst,Molenbergstraat,23,51.0778532442,4.42319412803
2840,Rumst,Hoge Vosbergstraat,56,51.088798937,4.46192842435
2840,Rumst,Pierstraat,307,51.1099583521,4.3679109626
2840,Rumst,Dennenlaan,32,51.1034837904,4.41304561841
2840,Rumst,Antwerpsesteenweg,7,51.0864925286,4.4517310528
2840,Rumst,Beekvelden,77,51.1022366509,4.41783276467
2840,Rumst,Rupelstraat,9,51.0801844201,4.39582873799
2840,Rumst,Eikenstraat,44,51.1031626692,4.41220495147
2840,Rumst,Antwerpsesteenweg,50,51.0923304063,4.45237426251
2840,Rumst,Keulshaagweg,12,51.1084777955,4.41179288582
2840,Rumst,Molenbergstraat,58,51.0793077735,4.42329744465
2840,Rumst,Hollebeekstraat,118,51.0834222336,4.42195481674
2840,Rumst,Predikherenhoevestraat,4,51.1020334953,4.38862432178
2840,Rumst,Hortensialaan,3,51.1076299102,4.39150263573
2840,Rumst,Hoveniersstraat,57,51.0811665603,4.46530050121
2840,Rumst,Molenstraat,119,51.0997438675,4.40489088728
2840,Rumst,Antoine De Winterstraat,7,51.0794512737,4.4252904191
2840,Rumst,Adriaan Brouwerlaan,1,51.1026774303,4.40378187028
2840,Rumst,'s Herenbaan,12,51.094342144,4.40025868422
2840,Rumst,Begonialaan,8,51.1088635105,4.39333096287
2840,Rumst,Overwinningstraat,6,51.0771107255,4.39923898332
2840,Rumst,Hoveniersstraat,19,51.0854020232,4.4652938944
2840,Rumst,Wilgenveld,33,51.106303757,4.41255302175
2840,Rumst,Kamiel Huysmansstraat,29,51.0812563279,4.39979787002
2840,Rumst,Antwerpsesteenweg,77,51.0936499237,4.45103870851
2840,Rumst,Kardinaal Cardijnstraat,9,51.0790408775,4.39865363567
2840,Rumst,Ernest Claeslaan,8,51.1093369434,4.36613335741
2840,Rumst,Oude Baan,10,51.0787589113,4.39995599697
2840,Rumst,Predikherenhoevestraat,89,51.1105307007,4.3823423754
2840,Rumst,Steenweg op Waarloos,24,51.1008623284,4.42038594397
2840,Rumst,Pierstraat,101B,51.1128193699,4.39650273074
2840,Rumst,Molenstraat,219,51.1010356765,4.39270627129
2840,Rumst,Tuinwijklaan,45,51.0778108014,4.4033044005
2840,Rumst,Mechelsesteenweg,48,51.0788551482,4.45109808027
2840,Rumst,Kerremansstraat,22,51.0970031913,4.40025523493
2840,Rumst,Weivelden,8,51.0860208648,4.437197455
2840,Rumst,Veerstraat,47,51.0766142258,4.42298662135
2840,Rumst,Hoge Vosbergstraat,27A,51.0876242531,4.45552941882
2840,Rumst,Tuinwijk,61,51.080678437,4.4256503924
2840,Rumst,'s Herenbaan,292,51.1075340149,4.36196494732
2840,Rumst,Keulshaagweg,3,51.1076325131,4.41025371884
2840,Rumst,Ontvoogdingstraat,29,51.0769746273,4.4009186673
2840,Rumst,Pierstraat,335,51.1099670523,4.36594670087
2840,Rumst,Varenstraat,45,51.0795810349,4.45672590357
2840,Rumst,Beekvelden,39,51.1027952029,4.41501034422
2840,Rumst,Zonnebloemlaan,17,51.1111845753,4.39210273723
2840,Rumst,Albert Servaeslaan,15,51.108234545,4.36530937449
2840,Rumst,Kerkenhoek,3,51.0895743286,4.39432165268
2840,Rumst,David Tenierslaan,26,51.1018447472,4.40540036925
2840,Rumst,Crequilei,13,51.0808741951,4.40422515366
2840,Rumst,Varenstraat,101,51.0811210851,4.4627505513
2840,Rumst,'s Herenbaan,30,51.0985165613,4.39479649258
2840,Rumst,Rumstsestraat,80,51.0984019375,4.41566632996
2840,Rumst,Antwerpsesteenweg,95,51.0964625495,4.45061744297
2840,Rumst,Vissersstraat,78,51.0754115198,4.42160884416
2840,Rumst,David Tenierslaan,4,51.1018647386,4.40668301613
2840,Rumst,Hans Memlinclaan,1,51.1013587761,4.40257177059
2840,Rumst,Hondstraat,3,51.1077112608,4.43445434311
2840,Rumst,Netestraat,5,51.0778824611,4.44555678236
2840,Rumst,1 meistraat,26,51.0772671772,4.39620086249
2840,Rumst,Tuinwijk,43,51.0805274161,4.42455267577
2840,Rumst,Tiburstraat,13,51.0831360308,4.43619221384
2840,Rumst,1 meistraat,4,51.0778514548,4.39693809126
2840,Rumst,Rupelstraat,11,51.080095079,4.39579429379
2840,Rumst,Hoge Zandvelden,4,51.1073991879,4.39779620833
2840,Rumst,Molenstraat,56,51.1002352243,4.40703657969
2840,Rumst,Rozenlaan,40,51.107066356,4.39036093595
2840,Rumst,Azalealaan,7,51.1079168453,4.38746905171
2840,Rumst,Pierstraat,38,51.1167506458,4.39916131766
2840,Rumst,Mechelsesteenweg,107,51.0760211348,4.45311895544
2840,Rumst,Jeroen Boschlaan,9,51.1021112135,4.40007172518
2840,Rumst,Eikenstraat,89A,51.1048794564,4.408906412
2840,Rumst,James Ensorlaan,5,51.1021733819,4.40566832417
2840,Rumst,Hof ten Eikenlaan,6,51.0842310621,4.43981176617
2840,Rumst,Nieuwstraat,138,51.079607345,4.40004704761
2840,Rumst,Mechelsesteenweg,34,51.0796746911,4.45194689199
2840,Rumst,Korte Nieuwstraat,25,51.0804692274,4.40123635339
2840,Rumst,Eikenstraat,70,51.104560643,4.41137374131
2840,Rumst,Laarstraat,43,51.1011182754,4.41629555363
2840,Rumst,Felix Timmermanslaan,2,51.1089966377,4.36679491807
2840,Rumst,Quinten Matsijslaan,20,51.1032030454,4.39953636233
2840,Rumst,Oude Baan,45,51.0786008757,4.40161603008
2840,Rumst,Molenveld,13,51.0775275574,4.42207273935
2840,Rumst,Doelhaagstraat,79,51.0838250633,4.4274834237
2840,Rumst,Wilgenveld,15,51.1058494306,4.41264239827
2840,Rumst,Populierenlaan,13,51.0761570141,4.39988430473
2840,Rumst,Romeins Veld,39,51.0781366963,4.42056186458
2840,Rumst,Steenberghoekstraat,8,51.0805448439,4.42109271267
2840,Rumst,Clemenshoek,23,51.1036405956,4.39717960471
2840,Rumst,Mechelsesteenweg,87,51.0775679325,4.45300433091
2840,Rumst,Uitbreidingstraat,1,51.0776063236,4.39838928369
2840,Rumst,Steenbakkerijstraat,23,51.0793287968,4.4037473422
2840,Rumst,Bussestraat,24,51.0849383099,4.44974850532
2840,Rumst,Ontvoogdingstraat,3,51.0769892749,4.39961832152
2840,Rumst,Ekkersgatstraat,9,51.0811066903,4.43054456026
2840,Rumst,Molenstraat,21,51.1005105565,4.41090743289
2840,Rumst,Eikenstraat,213,51.111393017,4.40640672278
2840,Rumst,Nedrickxhoeveweg,3,51.1148072238,4.42598863065
2840,Rumst,Veldstraat,1,51.0805254451,4.39663193142
2840,Rumst,Haardorst,25,51.0793212973,4.42638562195
2840,Rumst,Lindenlaan,5,51.1036117879,4.41601829005
2840,Rumst,Eikenstraat,2,51.1018179707,4.4128568463
2840,Rumst,Kromhoutstraat,27,51.0883640618,4.43782963255
2840,Rumst,Hortensialaan,20,51.1082949074,4.3944426883
2840,Rumst,Kapelstraat,84,51.0829759516,4.39148756656
2840,Rumst,Salvialaan,22,51.1072266636,4.38867044134
2840,Rumst,Pierstraat,245,51.109902728,4.3742712437
2840,Rumst,Doelhaagstraat,9,51.0795186867,4.42675974255
2840,Rumst,Eikenstraat,261,51.1151594819,4.40442405445
2840,Rumst,Kerkstraat,12,51.0774056806,4.42656716548
2840,Rumst,Vissersstraat,25,51.0758222469,4.42368843416
2840,Rumst,Antoine De Winterstraat,24,51.0800058704,4.4258756037
2840,Rumst,Krokuslaan,20,51.1073232674,4.39341451612
2840,Rumst,Eikenstraat,231,51.113358035,4.40589152928
2840,Rumst,Rumstsestraat,7,51.0999664902,4.41486117184
2840,Rumst,Molenveld,31,51.0773142826,4.42141267861
2840,Rumst,Populierenlaan,31,51.0765651399,4.39769584316
2840,Rumst,Kromhoutstraat,1,51.0864792731,4.43568642734
2840,Rumst,Clemenshoek,71,51.107754539,4.40075825144
2840,Rumst,Slijkenhoefstraat,22,51.0935690975,4.44673586003
2840,Rumst,Gladiolenlaan,7,51.1067129179,4.39082938164
2840,Rumst,Eikenstraat,125,51.106530007,4.40907419602
2840,Rumst,Veldstraat,27,51.0809581017,4.39798803148
2840,Rumst,Uitbreidingstraat,27,51.0782180622,4.39563807009
2840,Rumst,Hof ten Eikenlaan,28,51.0857198865,4.43679068873
2840,Rumst,Eugeen Roelandtsstraat,19,51.1054556462,4.40782750377
2840,Rumst,Keulshaagweg,40,51.1136771168,4.40812639145
2840,Rumst,Abdon Braeckmansstraat,3,51.0773852342,4.42291518105
2840,Rumst,Salvialaan,3,51.1057200888,4.38795373478
2840,Rumst,Nijverheidsstraat,37,51.0784433328,4.41886054846
2840,Rumst,Boereweg,53,51.0812155901,4.4030389656
2840,Rumst,Nieuwstraat,12,51.0813618042,4.41503363791
2840,Rumst,Lode Zielenslaan,7,51.1086341246,4.3672028761
2840,Rumst,Hollebeekstraat,22,51.0811138329,4.42229008224
2840,Rumst,Molenstraat,147,51.099351281,4.40204992601
2840,Rumst,Kerkstraat,60,51.0793464041,4.43037139716
2840,Rumst,Pierstraat,127,51.111509855,4.38299540336
2840,Rumst,Leliënlaan,9,51.1088875644,4.38787540617
2840,Rumst,Molenstraat,165,51.0995913094,4.39968896957
2840,Rumst,Rupelstraat,18,51.080137428,4.39535993394
2840,Rumst,Emiel Vanderveldestraat,10,51.085171658,4.4395106483
2840,Rumst,Hoge Meentochtstraat,31,51.0900003289,4.42814384249
2840,Rumst,Lage Vosbergstraat,88,51.0876327528,4.46412618942
2840,Rumst,Morenhoekstraat,19,51.0884496194,4.44630405992
2840,Rumst,Clemenshoek,53,51.1055159761,4.39874806354
2840,Rumst,Tiburstraat,31,51.0834911729,4.43969232252
2840,Rumst,'s Herenbaan,20A,51.0954360903,4.39922450934
2840,Rumst,Tuinwijklaan,17,51.0782316414,4.40245424815
2840,Rumst,Boonhof,3,51.0827243636,4.3927605557
2840,Rumst,Nijverheidsstraat,19,51.0769155221,4.41921462087
2840,Rumst,Molenstraat,130,51.1017647564,4.3981339828
2840,Rumst,Markt,20,51.0761980823,4.42498393591
2840,Rumst,Begijnenbossen,60,51.1047465823,4.41431597986
2840,Rumst,Leemstraat,2,51.0902777439,4.42810494736
2840,Rumst,Karl Marxstraat,2,51.0775551941,4.39867050071
2840,Rumst,Molenveld,92,51.0771398123,4.4197913455
2840,Rumst,Beekvelden,50,51.1026320132,4.41645159342
2840,Rumst,Philip de Pillecijnlaan,23,51.1090572975,4.36582694093
2840,Rumst,Kapellenlei,6,51.0790659944,4.44881612946
2840,Rumst,Karl Marxstraat,34,51.0773475526,4.4003504383
2840,Rumst,Schanshoeveweg,10,51.1099090703,4.42201048865
2840,Rumst,'s Herenbaan,228,51.1063051894,4.36505290895
2840,Rumst,Hoge Vosbergstraat,38,51.0880178029,4.45930026661
2840,Rumst,Hollebeekstraat,57,51.0818305296,4.42126998581
2840,Rumst,Nieuwstraat,65,51.0800479333,4.40453717434
2840,Rumst,Kapelstraat,100,51.0831155023,4.39080462109
2840,Rumst,Kamiel Huysmansstraat,40,51.0809490361,4.4003236703
2840,Rumst,Molenstraat,112,51.1003173339,4.39969017457
2840,Rumst,Kerkhofstraat,24,51.0822182126,4.4316269188
2840,Rumst,Rozenlaan,10,51.1045554793,4.38861600797
2840,Rumst,Molenstraat,183,51.1010630769,4.39783757771
2840,Rumst,Pierstraat,381,51.1095212611,4.3621645966
2840,Rumst,Irislaan,2,51.1085948701,4.39480811163
2840,Rumst,Kapelstraat,66,51.0824915573,4.39273702844
2840,Rumst,Pieter Pauwel Rubenslaan,16,51.101129385,4.40194214548
2840,Rumst,Vissersstraat,96,51.0749760599,4.42089819591
2840,Rumst,Nieuwstraat,30,51.0812926073,4.4143080533
2840,Rumst,Kerkstraat,42,51.077939881,4.42889105679
2840,Rumst,Hoogstraat,17,51.0803067489,4.40044609414
2840,Rumst,Olmenlaan,22,51.1038246545,4.41372269685
2840,Rumst,Tulpenlaan,20,51.104999806,4.3905247158
2840,Rumst,Grote Paepedaelen,14,51.1053678051,4.37426464442
2840,Rumst,Pierstraat,109,51.1125046846,4.38403002776
2840,Rumst,Rupelstraat,36,51.0797707175,4.39520917044
2840,Rumst,Petrus Van der Taelenstraat,3,51.0856085307,4.43328178416
2840,Rumst,Oude Baan,101,51.0790346213,4.40423914275
2840,Rumst,Karl Marxstraat,16,51.0774404707,4.39945110341
2840,Rumst,Overwinningstraat,28,51.0772681186,4.39785639041
2840,Rumst,Dennenlaan,5,51.102115736,4.41294436357
2840,Rumst,Nieuwstraat,83,51.0797891511,4.40392849558
2840,Rumst,Varenstraat,17,51.0789583237,4.45388216867
2840,Rumst,Kapelstraat,13,51.0824187268,4.38913929654
2840,Rumst,Veerstraat,20,51.0771596119,4.42311183275
2840,Rumst,Begijnenbossen,42,51.1032531248,4.41492685383
2840,Rumst,Eikenstraat,243,51.114039232,4.40579925707
2840,Rumst,Antwerpsesteenweg,24,51.0869034715,4.45277566227
2840,Rumst,Veerstraat,73,51.0759727984,4.42197348723
2840,Rumst,Predikherenhoevestraat,110,51.1110489503,4.38268638748
2840,Rumst,Molenveld,56,51.0777865014,4.42093889946
2840,Rumst,Veerstraat,45,51.076642255,4.42302118558
2840,Rumst,Tiburstraat,6,51.0815023881,4.43526809444
2840,Rumst,Hoveniersstraat,30,51.0844390342,4.46421482016
2840,Rumst,Eikenstraat,48,51.1032368963,4.41201856061
2840,Rumst,Kerkstraat,134A,51.0813670809,4.43451926525
2840,Rumst,Kromhoutstraat,8A,51.0867192634,4.43694872373
2840,Rumst,Molenbergstraat,68,51.0794806154,4.42294218294
2840,Rumst,Steenberghoekstraat,23,51.0793419256,4.41994661237
2840,Rumst,Zonnebloemlaan,10,51.1107604505,4.39227487326
2840,Rumst,Vissersstraat,61,51.0754463747,4.42283014844
2840,Rumst,Hoge Meentochtstraat,6,51.0900037142,4.43408364634
2840,Rumst,Doelhaagstraat,44,51.0808873074,4.42893142257
2840,Rumst,Molenbergstraat,86,51.0801802783,4.42222949301
2840,Rumst,Tuinwijk,96,51.0804695271,4.43009676299
2840,Rumst,Hoveniersstraat,12,51.0862711873,4.4636047449
2840,Rumst,Doelhaagstraat,62,51.0821944923,4.42957431247
2840,Rumst,Predikherenhoevestraat,54,51.1079052719,4.38560610762
2840,Rumst,Beukendreef,33,51.1027876894,4.40646205502
2840,Rumst,Crequilei,6,51.0807303049,4.4044479458
2840,Rumst,Antwerpsesteenweg,42,51.0894759104,4.45473516099
2840,Rumst,Borzestraat,3,51.1112418247,4.41349761234
2840,Rumst,Molenveld,74,51.0774725149,4.42034665011
2840,Rumst,Albert Servaeslaan,8,51.1077960704,4.36519916915
2840,Rumst,Netestraat,24,51.0767175178,4.44769337222
2840,Rumst,Nieuwstraat,121,51.0792350707,4.40021503547
2840,Rumst,Schransstraat,20,51.0792685703,4.40491957167
2840,Rumst,Abdon Braeckmansstraat,40,51.0767160729,4.42101545628
2840,Rumst,Beekvelden,49,51.1027985994,4.41617336199
2840,Rumst,Eikenstraat,171,51.1086101388,4.40790643684
2840,Rumst,James Ensorlaan,24,51.1027244255,4.40557096936
2840,Rumst,Predikherenhoevestraat,72,51.1094213768,4.38391388442
2840,Rumst,Salvialaan,40,51.1092644302,4.39008854001
2840,Rumst,Oude Baan,17,51.0788324715,4.40050001209
2840,Rumst,Veerstraat,91,51.0755638764,4.42122219113
2840,Rumst,Pieter Breughellaan,25,51.1037465516,4.40228156035
2840,Rumst,Petrus Van der Taelenstraat,22,51.0888476515,4.43568614145
2840,Rumst,Kapelstraat,38,51.0818107705,4.39344892053
2840,Rumst,Begijnenbossen,77,51.1047703815,4.4136775036
2840,Rumst,Eikenstraat,107,51.1059169916,4.40978884687
2840,Rumst,Dennenlaan,24,51.1031889086,4.4131759714
2840,Rumst,Jeroen Boschlaan,2,51.101101219,4.40077886753
2840,Rumst,Wilgenveld,8,51.1063491974,4.41242784514
2840,Rumst,Eikenstraat,69,51.1038987536,4.41075905459
2840,Rumst,Hollebeekstraat,29,51.0812322562,4.42121536253
2840,Rumst,Molenstraat,28,51.1006608475,4.40888502335
2840,Rumst,Lage Vosbergstraat,53,51.0867245502,4.45793303353
2840,Rumst,Vissersstraat,1,51.0761870583,4.42435508765
2840,Rumst,Morenhoekstraat,18B,51.0879696708,4.4472981998
2840,Rumst,Haardorst,1,51.078429902,4.42503759484
2840,Rumst,Pierstraat,217,51.1100411263,4.37742685153
2840,Rumst,Varenbroekstraat,1,51.111742337,4.42542020656
2840,Rumst,Borzestraat,17,51.1122398603,4.42100800941
2840,Rumst,Beukendreef,15,51.1017204068,4.40714332342
2840,Rumst,Eikenstraat,34,51.1029001411,4.41235318595
2840,Rumst,Pierstraat,263,51.1098658479,4.37291270831
2840,Rumst,Predikherenhoevestraat,90,51.1103464856,4.38334230723
2840,Rumst,Rozenlaan,57,51.1092678303,4.39111135323
2840,Rumst,Begijnenbossen,95,51.1054840216,4.41338978559
2840,Rumst,Salvialaan,29,51.1075401399,4.38792580946
2840,Rumst,Kazernestraat,5,51.0772722236,4.42391604211
2840,Rumst,Petrus Van der Taelenstraat,40,51.0901146144,4.43617640441
2840,Rumst,Slijkenhoefstraat,29,51.0971350383,4.44675199616
2840,Rumst,Populierenlaan,6,51.0761905203,4.40062388973
2840,Rumst,Kruislei,1,51.0825752855,4.43385524225
2840,Rumst,Molenveld,6,51.0781636047,4.4228621548
2840,Rumst,Weivelden,23,51.0865399537,4.4387411858
2840,Rumst,Eikenstraat,87,51.1048446744,4.4106719677
2840,Rumst,Abdon Braeckmansstraat,22,51.0770389335,4.42185257121
2840,Rumst,Pierstraat,31,51.1160466081,4.39931080139
2840,Rumst,Sint Janstraat,13,51.111760741,4.38361465813
2840,Rumst,Vissersstraat,43,51.0757025893,4.42314778772
2840,Rumst,Korte Nieuwstraat,1,51.0799822021,4.40158619755
2840,Rumst,Pierstraat,13,51.1159579111,4.40152517572
2840,Rumst,Molenbergstraat,33,51.0781812841,4.42311645994
2840,Rumst,Felix Timmermanslaan,34,51.1090794306,4.36838688572
2840,Rumst,Netestraat,42,51.0763178643,4.44954681148
2840,Rumst,Eugeen Roelandtsstraat,12,51.1056968015,4.40891897694
2840,Rumst,Molenbergstraat,15,51.0775677022,4.42312073202
2840,Rumst,Molenstraat,140,51.1021007171,4.39685427421
2840,Rumst,Rozenlaan,3,51.104848181,4.38739239111
2840,Rumst,Steenweg op Waarloos,49,51.1017722235,4.42713218384
2840,Rumst,Kerremansstraat,40,51.0958303018,4.39970298434
2840,Rumst,Kardinaal Cardijnstraat,44,51.080267805,4.39744275191
2840,Rumst,Emiel Vanderveldestraat,3,51.0851387677,4.43829921326
2840,Rumst,Romeins Veld,32,51.0784668456,4.41997946081
2840,Rumst,Eekhovenweg,14,51.0763658907,4.45492304891
2840,Rumst,Monnikenhofstraat,19,51.1033576088,4.39419476081
2840,Rumst,Felix Timmermanslaan,16,51.1090383511,4.36750986772
2840,Rumst,Veerstraat,27,51.0768377024,4.42353396486
2840,Rumst,Kerkstraat,19,51.0797758331,4.42997097956
2840,Rumst,Ekkersgatstraat,2,51.0810489386,4.43129996256
2840,Rumst,Netestraat,60,51.0763464894,4.4516709527
2840,Rumst,Abel Fransplein,14,51.0794942343,4.42380268048
2840,Rumst,Predikherenhoevestraat,26,51.1055717402,4.38706858051
2840,Rumst,'s Herenbaan,138,51.1044644309,4.37819030109
2840,Rumst,Sint Janstraat,31,51.1113899133,4.38392626152
2840,Rumst,Romeins Veld,14,51.0786809163,4.42088754061
2840,Rumst,Oude Brouwerijstraat,28,51.0785309935,4.39879157569
2840,Rumst,Eikenstraat,9,51.1019030434,4.41179572971
2840,Rumst,Joannes Van Meirhaeghestraat,4,51.1043191909,4.41237794576
2840,Rumst,Kardinaal Cardijnstraat,62,51.0805769092,4.39643389059
2840,Rumst,Populierenlaan,38,51.0767465986,4.39708010083
2840,Rumst,Sint Jozefstraat,26,51.1106598898,4.38491001548
2840,Rumst,Nieuwstraat,156,51.079513405,4.3994018361
2840,Rumst,Beekvelden,111,51.1024711501,4.41723337941
2840,Rumst,Molenveld,38,51.0779823733,4.42152674087
2840,Rumst,Eikenstraat,52,51.1033653076,4.41212162066
2840,Rumst,Laarstraat,25,51.1012006697,4.41481472341
2840,Rumst,Eikenstraat,238,51.1158662291,4.40483561479
2840,Rumst,Louis Paul Boonstraat,14,51.0888559537,4.43687279971
2840,Rumst,Molenstraat,92,51.0998498957,4.40202816038
2840,Rumst,Hoveniersstraat,65,51.0804692288,4.46483412455
2840,Rumst,Jacob Jordaenslaan,2,51.1013660238,4.40206723796
2840,Rumst,Koningin Astridplein,8,51.1009688628,4.41197231344
2840,Rumst,Ontvoogdingstraat,22,51.076527925,4.40075925302
2840,Rumst,Lage Vosbergstraat,71,51.0874755758,4.4599053597
2840,Rumst,Morenhoekstraat,30,51.0899040527,4.44569916932
2840,Rumst,Beekvelden,32,51.102366225,4.41509329102
2840,Rumst,Uitbreidingstraat,20,51.0781478997,4.39769370668
2840,Rumst,Varenstraat,63,51.0797447298,4.45907464295
2840,Rumst,Beekvelden,85,51.1017504203,4.41768376825
2840,Rumst,Irislaan,9,51.1090787906,4.39416012021
2840,Rumst,Molenstraat,129,51.0996303922,4.40413715975
2840,Rumst,Begijnenbossen,59,51.1040491011,4.41396263537
2840,Rumst,Hollebeekstraat,126,51.0836625859,4.42217173176
2840,Rumst,'s Herenbaan,274,51.107101777,4.36261952708
2840,Rumst,Kerkhofstraat,42,51.0826575635,4.43249918715
2840,Rumst,Veldstraat,55,51.08053824,4.39900295374
2840,Rumst,Begijnenbossen,24,51.1022779362,4.41468830753
2840,Rumst,Karl Marxstraat,48,51.0772513596,4.40104329019
2840,Rumst,Veldstraat,20,51.0806739542,4.39767090482
2840,Rumst,Antoon Van Dycklaan,12,51.1028281592,4.40261882771
2840,Rumst,Romeins Veld,49,51.0775772278,4.41954653787
2840,Rumst,Kerkstraat,37,51.0811609076,4.43152701521
2840,Rumst,Varenstraat,10,51.0791541644,4.45895434001
2840,Rumst,Olmenlaan,40,51.1044786058,4.41344449342
2840,Rumst,Herderstraat,15,51.0915580569,4.45812745343
2840,Rumst,Varenstraat,81,51.0799909073,4.46106752282
2840,Rumst,Tuinwijk,25,51.080408985,4.42370830246
2840,Rumst,Overwinningstraat,21,51.0767882419,4.39805770825
2840,Rumst,Nijverheidsstraat,30,51.07691565,4.41954024466
2840,Rumst,Pierstraat,145,51.1112313279,4.38272085862
2840,Rumst,Kerkhofstraat,60,51.0831712668,4.4336571411
2840,Rumst,Hollebeekstraat,108,51.083139335,4.42199773223
2840,Rumst,Hollebeekstraat,40,51.0814442279,4.42177829335
2840,Rumst,Leliënlaan,2,51.1089391341,4.38636642382
2840,Rumst,Tuinwijklaan,10,51.0780467925,4.40133366597
2840,Rumst,Kamiel Huysmansstraat,22,51.0804275156,4.39994600405
2840,Rumst,Beekvelden,14,51.1014959898,4.41584037308
2840,Rumst,Nijverheidsstraat,12,51.0763018241,4.42050558276
2840,Rumst,Hortensialaan,27,51.1082898931,4.39515005709
2840,Rumst,Kromhoutstraat,20,51.0878793096,4.43780321869
2840,Rumst,Boereweg,35,51.0809741783,4.40324427966
2840,Rumst,Beekvelden,67,51.1030034888,4.4173939866
2840,Rumst,Tuinwijklaan,63,51.0775212493,4.40396870852
2840,Rumst,Schensbossen,10,51.1048824216,4.40211619879
2840,Rumst,Rozenlaan,17,51.1056597557,4.3885856531
2840,Rumst,Karl Marxstraat,9,51.0779026258,4.39930928915
2840,Rumst,Hoge Vosbergstraat,31,51.087949507,4.4568020009
2840,Rumst,Antwerpsesteenweg,60,51.0928039141,4.45315747846
2840,Rumst,Jacob Jordaenslaan,14,51.1026976116,4.4021056126
2840,Rumst,Doelhaagstraat,32,51.0801523603,4.42809052146
2840,Rumst,Varenstraat,93,51.0801643415,4.46282424652
2840,Rumst,Pierstraat,26,51.1165652927,4.39985555238
2840,Rumst,Albert Servaeslaan,25,51.1082749149,4.36579713564
2840,Rumst,Molenstraat,104,51.0999353238,4.40063100625
2840,Rumst,Keelhoevestraat,7,51.0965127068,4.42584505293
2840,Rumst,Laarstraat,3,51.1013172957,4.41309164606
2840,Rumst,Korte Veerstraat,3,51.0805327663,4.39493191229
2840,Rumst,Slijkenhoefstraat,10,51.0934309599,4.44326041473
2840,Rumst,Tuinwijk,51,51.0805874373,4.42497700557
2840,Rumst,Eugeen Roelandtsstraat,7,51.1051961489,4.40911386038
2840,Rumst,Doelhaagstraat,14,51.07964684,4.42771057454
2840,Rumst,Donkerstraat,39,51.108513904,4.40672106608
2840,Rumst,Steenweg op Waarloos,34,51.1008397713,4.42236378842
2840,Rumst,Pierstraat,143,51.111265211,4.38275656851
2840,Rumst,Vissersstraat,68,51.0756146449,4.42224988965
2840,Rumst,Korte Veerstraat,51,51.0804131257,4.39200800454
2840,Rumst,Zonnebloemlaan,1,51.1105963758,4.39061165471
2840,Rumst,Molenstraat,229,51.1008264733,4.39063135472
2840,Rumst,Molenbergstraat,61,51.0788095027,4.42256410196
2840,Rumst,Pierstraat,305,51.1100521948,4.36806132369
2840,Rumst,Varenstraat,75,51.0803458735,4.46038639489
2840,Rumst,Lage Vosbergstraat,76,51.0873470593,4.46237980094
2840,Rumst,'s Herenbaan,20,51.0952647417,4.39930733183
2840,Rumst,Jan Van Eycklei,8,51.1014187409,4.40433684318
2840,Rumst,Ekkersgatstraat,14,51.0814074166,4.43095938007
2840,Rumst,Steenweg op Waarloos,16,51.1006701365,4.41918250776
2840,Rumst,Hollebeekstraat,116,51.0832914897,4.42205556323
2840,Rumst,Beekvelden,80,51.1020640284,4.4179222398
2840,Rumst,Schransstraat,19,51.0793134297,4.40490348198
2840,Rumst,Abdon Braeckmansstraat,10,51.0772244489,4.42227715403
2840,Rumst,Clemenshoek,35,51.1042051281,4.39775162946
2840,Rumst,Beukendreef,43,51.103486282,4.40567380637
2840,Rumst,Clemenshoek,119,51.1091424303,4.4060700325
2840,Rumst,Salvialaan,10,51.1063626916,4.38798070851
2840,Rumst,Oude Baan,57,51.078764359,4.40201413164
2840,Rumst,Peperstraat,5,51.0777703739,4.42488268102
2840,Rumst,Korte Nieuwstraat,33,51.0806354507,4.40116726007
2840,Rumst,Olmenlaan,10,51.1033652548,4.4139107084
2840,Rumst,Beekvelden,44,51.1028245023,4.41569282045
2840,Rumst,Dalialaan,2,51.1089403326,4.39175174747
2840,Rumst,Statiestraat,6,51.0782772747,4.4237130438
2840,Rumst,Tuinwijklaan,57,51.0775818253,4.40370220219
2840,Rumst,Pierstraat,323,51.109922035,4.36728881383
2840,Rumst,Korte Nieuwstraat,15,51.0802569749,4.40132710426
2840,Rumst,Antoon Van Dycklaan,7,51.1030071967,4.40329098713
2840,Rumst,Seringenlaan,9,51.1077591541,4.38969759554
2840,Rumst,Morenhoevestraat,10,51.0948520157,4.43044844608
2840,Rumst,Priester Daensstraat,15,51.087445705,4.43898061906
2840,Rumst,Bussestraat,16,51.0848472621,4.44908385839
2840,Rumst,Leliënlaan,32,51.1100730559,4.38912249526
2840,Rumst,Morenhoekstraat,7,51.0861692416,4.44844148028
2840,Rumst,Ontvoogdingstraat,17,51.0769504423,4.40028552454
2840,Rumst,Salvialaan,45,51.1086269737,4.38895435215
2840,Rumst,Leliënlaan,14,51.1093477676,4.38746379144
2840,Rumst,Wilgenveld,25,51.1061918717,4.41272482428
2840,Rumst,Sint Jozefstraat,13,51.1110996581,4.38330785393
2840,Rumst,Molenbergstraat,43,51.0783507468,4.42287507407
2840,Rumst,Oude Baan,93,51.0789261589,4.40383607875
2840,Rumst,Zonnebloemlaan,29,51.1116041015,4.39329346076
2840,Rumst,Molenstraat,64,51.1002956068,4.40628069695
2840,Rumst,Beekvelden,62,51.103069027,4.41715462704
2840,Rumst,Veerstraat,40,51.0768414707,4.42258592368
2840,Rumst,Antwerpsesteenweg,123,51.0982556034,4.45092097076
2840,Rumst,Vorft,3,51.0831005794,4.39034151643
2840,Rumst,Slijkenhoefstraat,45,51.094435385,4.45101240978
2840,Rumst,Kamiel Huysmansstraat,17,51.080792978,4.39936658943
2840,Rumst,Hazeweg,9,51.102966559,4.3909145049
2840,Rumst,Tuinwijk,3,51.0802634259,4.42281152985
2840,Rumst,Doelhaagstraat,49,51.0814886563,4.4287678077
2840,Rumst,Eikenstraat,100,51.1068342318,4.40996957295
2840,Rumst,Rozenlaan,22,51.105902069,4.3897250065
2840,Rumst,Clemenshoek,137,51.1094751594,4.40700387457
2840,Rumst,Hollebeekstraat,10,51.0808510612,4.42176120109
2840,Rumst,Hoveniersstraat,27,51.0847818836,4.46518371251
2840,Rumst,Eikenstraat,203,51.1104118211,4.40663053349
2840,Rumst,Varenlaan,3,51.1104178206,4.39303336278
2840,Rumst,Molenstraat,11,51.1008179976,4.41108731324
2840,Rumst,Beukendreef,8,51.1010277756,4.40808171506
2840,Rumst,Pierstraat,161,51.1106008828,4.38095614274
2840,Rumst,Putstraat,6,51.0804667622,4.40292581288
2840,Rumst,Romeins Veld,29,51.0784913271,4.4213185569
2840,Rumst,Bussestraat,34,51.0850063986,4.45046135275
2840,Rumst,Eikenstraat,60,51.1035599751,4.41195975617
2840,Rumst,Hoogstraat,29,51.0805706814,4.400374069
2840,Rumst,Predikherenhoevestraat,9,51.1024923718,4.38810783806
2840,Rumst,Tiburstraat,25A,51.0831522842,4.43881427181
2840,Rumst,Kerkstraat,52,51.0783601798,4.42979487315
2840,Rumst,Pieter Breughellaan,3,51.1037681913,4.40387365093
2840,Rumst,Hollebeekstraat,45,51.0815908361,4.42118323298
2840,Rumst,Hoveniersstraat,7,51.0865880361,4.46504559812
2840,Rumst,Molenstraat,99,51.0991298802,4.40590842518
2840,Rumst,Antwerpsestraat,2,51.1061228267,4.37017120351
2840,Rumst,Pierstraat,215,51.1100607066,4.37761591388
2840,Rumst,Oude Baan,22,51.078559703,4.40034199979
2840,Rumst,Keulshaagweg,17,51.1116149018,4.40869695861
2840,Rumst,Eikenstraat,271,51.1154188882,4.4038654417
2840,Rumst,Potaardestraat,2,51.0937447779,4.45277720883
2840,Rumst,Molleveld,2,51.0828986599,4.38953424995
2840,Rumst,Kloosterstraat,8,51.0801077899,4.39602005579
2840,Rumst,Kerremansstraat,10,51.0978617082,4.40059530019
2840,Rumst,Overwinningstraat,36,51.0773857913,4.39746491404
2840,Rumst,Clemenshoek,41,51.1047724681,4.39858024053
2840,Rumst,Mechelsesteenweg,95,51.0768305376,4.45305692936
2840,Rumst,Kerkstraat,70,51.0796595748,4.43054334051
2840,Rumst,Boereweg,6,51.0803922163,4.40391911157
2840,Rumst,Schensbossen,1,51.1053415188,4.40004538151
2840,Rumst,Tuinwijklaan,29,51.0780515745,4.40282854918
2840,Rumst,Tuinwijk,129,51.080782804,4.4307474808
2840,Rumst,Krokuslaan,12,51.1067237595,4.39235545361
2840,Rumst,Sint Jozefstraat,9,51.1110638997,4.38317675513
2840,Rumst,Predikherenhoevestraat,66,51.1092425624,4.38412044217
2840,Rumst,Molenstraat,157,51.0994097604,4.4005898105
2840,Rumst,Rupelstraat,28,51.0799425812,4.39522311224
2840,Rumst,Veldstraat,37,51.0806881719,4.398666843
2840,Rumst,Doelhaagstraat,67,51.0818637992,4.42886833248
2840,Rumst,Antoine De Winterstraat,16,51.0798088402,4.42604731492
2840,Rumst,Varenstraat,29,51.0790190621,4.4544105507
2840,Rumst,Nijverheidsstraat,7,51.0760579875,4.42002886877
2840,Rumst,Kerkstraat,20,51.0775588726,4.42688470898
2840,Rumst,Hortensialaan,12,51.1083425466,4.39321402331
2840,Rumst,Vissersstraat,15,51.0759820131,4.42399669053
2840,Rumst,Haardorst,15,51.0787404319,4.4258486393
2840,Rumst,Tuinwijklaan,1,51.0783247749,4.40180133745
2840,Rumst,Pierstraat,351,51.1099248788,4.36517990459
2840,Rumst,Kardinaal Cardijnstraat,32,51.0799874642,4.39807060541
2840,Rumst,Kerkhofstraat,34,51.0824141441,4.43217190541
2840,Rumst,Karl Marxstraat,24,51.0773976669,4.39984933272
2840,Rumst,Beekvelden,5,51.1016126016,4.41687155986
2840,Rumst,Tulpenlaan,12,51.1049866589,4.38968860222
2840,Rumst,Sint Jozefstraat,31,51.1116120122,4.38467574143
2840,Rumst,Antwerpsesteenweg,16,51.086531883,4.45251095414
2840,Rumst,Molenbergstraat,8,51.077443656,4.42388485419
2840,Rumst,Rozenlaan,63,51.1096501212,4.39065275067
2840,Rumst,Eikenstraat,135,51.1069896899,4.40908245247
2840,Rumst,Veerstraat,12,51.077215647,4.4234219709
2840,Rumst,Quinten Matsijslaan,25,51.1034803667,4.39878913091
2840,Rumst,'s Herenbaan,238,51.1062722751,4.36450091662
2840,Rumst,Beemdstraat,16,51.0789230266,4.40069057716
2840,Rumst,Populierenlaan,48,51.0779947394,4.39542161206
2840,Rumst,Varenstraat,1,51.0789507758,4.45300983896
2840,Rumst,Molenveld,48,51.0778713307,4.42119570392
2840,Rumst,Molenveld,82,51.0773672931,4.42005786334
2840,Rumst,Vissersstraat,33,51.0757295862,4.42346672856
2840,Rumst,Antwerpsesteenweg,69,51.092743772,4.4511505792
2840,Rumst,Eikenstraat,188,51.112295777,4.40716930263
2840,Rumst,Karl Marxstraat,59,51.0774489833,4.40182482095
2840,Rumst,Markt,30,51.0755275237,4.4255166303
2840,Rumst,Hollebeekstraat,98,51.0829852153,4.42171512993
2840,Rumst,Molenstraat,175,51.1004042362,4.39839507935
2840,Rumst,Kerkhofstraat,16,51.0819392728,4.43132185903
2840,Rumst,Hoogstraat,1,51.079984632,4.40028661615
2840,Rumst,Begijnenbossen,70,51.1056915445,4.41438701994
2840,Rumst,Hof ten Eikenlaan,18,51.0849741726,4.43770897465
2840,Rumst,Uitbreidingstraat,19,51.0777969335,4.3974987058
2840,Rumst,Veerstraat,65,51.0762033707,4.4225429436
2840,Rumst,Veerstraat,30,51.0769970267,4.4228687788
2840,Rumst,Antwerpsesteenweg,34,51.0874008886,4.4525603361
2840,Rumst,Markt,12,51.0764505823,4.42460482834
2840,Rumst,Begijnenbossen,52,51.1039001131,4.41453373018
2840,Rumst,Antwerpsesteenweg,87,51.0951857776,4.45100332048
2840,Rumst,Eikenstraat,253,51.1143524683,4.40558501464
2840,Rumst,Bussestraat,44,51.0851476258,4.45146633203
2840,Rumst,Sint Janstraat,26,51.1111639743,4.38363916336
2840,Rumst,Kromhoutstraat,19,51.0876989694,4.4363086174
2840,Rumst,Predikherenhoevestraat,31,51.1050293566,4.38532075714
2840,Rumst,Boereweg,41,51.08107795,4.40310893077
2840,Rumst,Hazeweg,13,51.1033138285,4.39074406122
2840,Rumst,Pierstraat,9,51.1158656405,4.40168734308
2840,Rumst,Seringenlaan,13,51.1078589896,4.38936694786
2840,Rumst,Sint Janstraat,2,51.1115745319,4.38332428782
2840,Rumst,Veerstraat,83,51.0757483488,4.42137522035
2840,Rumst,Kardinaal Cardijnstraat,49,51.0805066427,4.39556435765
2840,Rumst,Tulpenlaan,30,51.105284837,4.39146490833
2840,Rumst,Overwinningstraat,18,51.0772457184,4.39862863177
2840,Rumst,Nieuwstraat,20,51.0813270793,4.41465115183
2840,Rumst,Lage Vosbergstraat,58,51.0866401151,4.45960742807
2840,Rumst,Predikherenhoevestraat,84,51.1097887749,4.38370867335
2840,Rumst,James Ensorlaan,16,51.1024511434,4.40620322183
2840,Rumst,Nieuwstraat,73,51.0799358636,4.40417590965
2840,Rumst,Romeins Veld,57,51.0780697707,4.41985872754
2840,Rumst,Stijn Streuvelslaan,6,51.1092757794,4.36442086776
2840,Rumst,Schransstraat,12,51.0795643898,4.40464310894
2840,Rumst,Kardinaal Cardijnstraat,50,51.0804284909,4.39722094983
2840,Rumst,Molenstraat,36,51.1004351371,4.40836773506
2840,Rumst,Lage Vosbergstraat,41,51.0865830482,4.4571270971
2840,Rumst,Oude Baan,40,51.0783737801,4.40205879756
2840,Rumst,Veerstraat,101,51.0752386808,4.42057188177
2840,Rumst,Beekvelden,97,51.1020234509,4.41628463777
2840,Rumst,Pierstraat,251,51.1098943833,4.37398194425
2840,Rumst,Salvialaan,17,51.1068279483,4.38745417845
2840,Rumst,Guido Gezellestraat,3,51.0844254001,4.44010805558
2840,Rumst,Populierenlaan,46,51.0779072343,4.39522107409
2840,Rumst,Mechelsesteenweg,74,51.0778129726,4.45212163646
2840,Rumst,Bussestraat,5,51.0845400198,4.44602307697
2840,Rumst,Tuinwijk,86,51.0805105092,4.42925044465
2840,Rumst,Abdon Braeckmansstraat,17,51.076205599,4.42100660235
2840,Rumst,Azalealaan,14,51.1084884877,4.38718285519
2840,Rumst,Boereweg,58,51.0813221818,4.4036930653
2840,Rumst,Herderstraat,8,51.0886841095,4.4633232194
2840,Rumst,Vissersstraat,51,51.0755643824,4.42325021771
2840,Rumst,Weivelden,35,51.0865987487,4.44035859808
2840,Rumst,Molenstraat,18,51.100613916,4.40968503485
2840,Rumst,Pierstraat,133,51.1114186304,4.38290584016
2840,Rumst,Beekvelden,79,51.1021187078,4.41785705262
2840,Rumst,Beekvelden,105,51.1023982078,4.41668749298
2840,Rumst,Uitbreidingstraat,30,51.0782493291,4.39719247895
2840,Rumst,Lode Zielenslaan,14,51.1082457221,4.3675551408
2840,Rumst,'s Herenbaan,148,51.104513076,4.37687419852
2840,Rumst,Hans Memlinclaan,12,51.1021591141,4.40326008091
2840,Rumst,Molenveld,64,51.077670027,4.42069062201
2840,Rumst,Gladiolenlaan,14,51.1067475415,4.39165825532
2840,Rumst,Pieter Breughellaan,15,51.1037323924,4.40335521089
2840,Rumst,Mechelsesteenweg,56,51.0783901075,4.44870551409
2840,Rumst,Steenweg op Waarloos,5,51.1011513492,4.41760832288
2840,Rumst,Oude Brouwerijstraat,8,51.0788458679,4.3991548065
2840,Rumst,Slijkenhoefstraat,17,51.0939474278,4.4490067011
2840,Rumst,Putstraat,23,51.0811453835,4.40213073779
2840,Rumst,Hazeweg,2,51.1020987512,4.39197499754
2840,Rumst,Kapelstraat,54,51.0822297297,4.39308010402
2840,Rumst,Kamiel Huysmansstraat,10,51.0799616498,4.39984765053
2840,Rumst,Clemenshoek,76,51.108681904,4.40644605028
2840,Rumst,Pierstraat,115,51.1116838508,4.38320337333
2840,Rumst,Nieuwstraat,131,51.0792257181,4.3998993783
2840,Rumst,Kerkelei,7,51.1007697623,4.4119689856
2840,Rumst,Kardinaal Cardijnstraat,39,51.0803651382,4.39603076963
2840,Rumst,Lazarusstraat,6,51.078411206,4.45309033889
2840,Rumst,Tuinwijklaan,22,51.0778212818,4.40189543831
2840,Rumst,Beukendreef,25,51.1023428348,4.40700921185
2840,Rumst,Hollebeekstraat,17,51.0809489187,4.42123487644
2840,Rumst,Hoogstraat,40,51.0806782449,4.40081980691
2840,Rumst,Mechelsesteenweg,89A,51.0772207648,4.45302867175
2840,Rumst,Eikenstraat,117,51.1061846571,4.40959133336
2840,Rumst,Eikenstraat,163,51.1084144058,4.40804705931
2840,Rumst,Lage Vosbergstraat,3,51.085942729,4.45440720756
2840,Rumst,Pieter Pauwel Rubenslaan,4,51.1010843916,4.40363617388
2840,Rumst,Molenveld,46,51.0778938624,4.42126308165
2840,Rumst,Clemenshoek,6,51.102692945,4.3977532389
2840,Rumst,Hoogstraat,22,51.0802616786,4.40090142632
2840,Rumst,Lindenlaan,12,51.1032313021,4.41665409416
2840,Rumst,Seringenlaan,2,51.1081882028,4.38961654797
2840,Rumst,Dennenlaan,16,51.102515171,4.41348341961
2840,Rumst,'s Herenbaan,166,51.104899949,4.3740785431
2840,Rumst,Kapelstraat,72,51.0826181622,4.39253630285
2840,Rumst,Hoge Vosbergstraat,9,51.0866644836,4.45299031143
2840,Rumst,Olmenlaan,17,51.1036314611,4.41331974336
2840,Rumst,Mechelsesteenweg,100,51.076631875,4.4520657192
2840,Rumst,Ontvoogdingstraat,10,51.0764856809,4.40009128744
2840,Rumst,Eikenstraat,24,51.1024394471,4.41240314731
2840,Rumst,Frans Van Lindenstraat,4,51.085347952,4.43797327414
2840,Rumst,'s Herenbaan,248,51.1062894075,4.36345432434
2840,Rumst,Tuinwijk,33,51.0804661434,4.42411050769
2840,Rumst,Schoolstraat,1,51.0783067311,4.42600763812
2840,Rumst,Oude Baan,47,51.0785675897,4.40171147065
2840,Rumst,Veerstraat,37,51.076658027,4.42331686078
2840,Rumst,Louis Paul Boonstraat,22,51.0892431472,4.4366421471
2840,Rumst,Rozenlaan,29,51.1067718163,4.38926507614
2840,Rumst,Eikenstraat,77,51.104454304,4.41063791666
2840,Rumst,Pierstraat,89,51.1168560735,4.39316704969
2840,Rumst,Kerkhofstraat,5,51.0820228125,4.42990402714
2840,Rumst,Nieuwstraat,27,51.0809168149,4.4133000458
2840,Rumst,Hortensialaan,19,51.1078300278,4.39435575447
2840,Rumst,Crequilei,26,51.0816082065,4.40369471028
2840,Rumst,Doelhaagstraat,50,51.0811188308,4.42916219257
2840,Rumst,Tuinwijk,15,51.0803416172,4.42322246239
2840,Rumst,Overwinningstraat,11,51.0766472435,4.39861411421
2840,Rumst,Morenhoevestraat,7,51.0957828655,4.43461598442
2840,Rumst,Romeins Veld,22,51.0785707393,4.42062742174
2840,Rumst,Rupelstraat,21,51.0798551207,4.39560607137
2840,Rumst,Varenlaan,15,51.1093580253,4.39396165353
2840,Rumst,Hollebeekstraat,63,51.0819355643,4.42117049544
2840,Rumst,Tulpenlaan,1,51.1052546984,4.38922469547
2840,Rumst,Quinten Matsijslaan,5,51.1021201859,4.39878124115
2840,Rumst,Olmenlaan,7,51.1032709508,4.41347630148
2840,Rumst,Netestraat,52,51.0764635752,4.45083499334
2840,Rumst,Molenstraat,150,51.1022878495,4.39578747195
2840,Rumst,Blauwhoevestraat,8,51.0866459887,4.43462895617
2840,Rumst,Eikenstraat,228,51.1154917173,4.40496627685
2840,Rumst,Antwerpsesteenweg,5,51.0862675659,4.4514377872
2840,Rumst,Jeroen Boschlaan,7,51.1019329678,4.40006460747
2840,Rumst,Veerstraat,1,51.0769554444,4.42431834164
2840,Rumst,Molenbergstraat,25,51.0778033866,4.42293579143
2840,Rumst,Felix Timmermanslaan,24,51.1090605545,4.36787269766
2840,Rumst,Dennenlaan,34,51.1035440254,4.41301897773
2840,Rumst,Eikenstraat,42,51.1031232024,4.41222119024
2840,Rumst,Hortensialaan,1,51.1075729623,4.39129585336
2840,Rumst,Laarstraat,15,51.1015537316,4.41371305482
2840,Rumst,Antoine De Winterstraat,5,51.0793989463,4.42531561294
2840,Rumst,Hoveniersstraat,55,51.081297688,4.46554208914
2840,Rumst,Predikherenhoevestraat,2,51.1019366633,4.38823537762
2840,Rumst,Zonnebloemlaan,22,51.111133659,4.39357651536
2840,Rumst,Tiburstraat,26,51.0817281731,4.43807375172
2840,Rumst,Molenstraat,82,51.0999349734,4.40340844966
2840,Rumst,Hollebeekstraat,81,51.0832471105,4.42140674532
2840,Rumst,Blauwhoevestraat,18,51.0872571653,4.43442416118
2840,Rumst,Eugeen Roelandtsstraat,20,51.1057557373,4.40822297477
2840,Rumst,Korte Veerstraat,15,51.0802763312,4.39485784509
2840,Rumst,Boereweg,23,51.0807016182,4.40330472371
2840,Rumst,Eikenstraat,95,51.1053168809,4.41009842695
2840,Rumst,Molleveld,9,51.0831086755,4.38933526441
2840,Rumst,Eikenstraat,181,51.1088991529,4.40783143297
2840,Rumst,Kromhoutstraat,12,51.0875142713,4.43704223767
2840,Rumst,Krokuslaan,1,51.107689323,4.39240478833
2840,Rumst,Slijkenhoefstraat,7,51.0945383023,4.44614880618
2840,Rumst,Predikherenhoevestraat,38,51.1066070348,4.38670718982
2840,Rumst,Sint Janstraat,9,51.1118337372,4.3835577057
2840,Rumst,Begijnenbossen,87,51.1051694553,4.41351712449
2840,Rumst,Tuinwijklaan,47,51.0777838107,4.40338486006
2840,Rumst,Donkerstraat,14,51.1084236386,4.40785701586
2840,Rumst,Oude Brouwerijstraat,18,51.0786904863,4.39901871238
2840,Rumst,Nijverheidsstraat,20,51.0764907862,4.42026693002
2840,Rumst,Kerkhofstraat,52,51.0828544051,4.43317933052
2840,Rumst,Mechelsesteenweg,4,51.0847378861,4.45137897258
2840,Rumst,Korte Veerstraat,33,51.0799374309,4.39455055748
2840,Rumst,Morenhoekstraat,20,51.0885236321,4.44692676193
2840,Rumst,Kerkstraat,27,51.0801330048,4.43022831603
2840,Rumst,Varenstraat,47,51.0794386506,4.45708466682
2840,Rumst,Nieuwstraat,113,51.0793632619,4.40050651631
2840,Rumst,Rumstsestraat,14,51.1006031302,4.4128715291
2840,Rumst,Veldstraat,30,51.0805005408,4.39809918984
2840,Rumst,Pierstraat,2,51.1161984812,4.40296760779
2840,Rumst,Veerstraat,19,51.0768509304,4.42388428948
2840,Rumst,Begijnenbossen,69,51.1044475441,4.41380754328
2840,Rumst,Veldstraat,12,51.0807848558,4.39739512819
2840,Rumst,Priester Daensstraat,4,51.0869612422,4.43725693348
2840,Rumst,Nieuwstraat,148,51.0795631017,4.39978159484
2840,Rumst,Antwerpsesteenweg,70,51.0932903362,4.45185055924
2840,Rumst,Molenbergstraat,78,51.0797956745,4.42274976356
2840,Rumst,Gladiolenlaan,32,51.1056627457,4.39225395674
2840,Rumst,Doelhaagstraat,39,51.0812422698,4.4285969549
2840,Rumst,Monnikenhofstraat,27,51.1034936671,4.39309890886
2840,Rumst,Hollebeekstraat,7,51.0807447985,4.42139704142
2840,Rumst,Pompstraat,8,51.0822156705,4.38962612596
2840,Rumst,Sint Jozefstraat,38,51.1107721817,4.38537699741
2840,Rumst,Laarstraat,33,51.1011606256,4.41515118333
2840,Rumst,Molenstraat,8,51.1011403518,4.41079565315
2840,Rumst,'s Herenbaan,284,51.1073153378,4.36235792012
2840,Rumst,Karl Marxstraat,42,51.077304843,4.4007218397
2840,Rumst,Rumstsestraat,32,51.1002386805,4.4136897851
2840,Rumst,Kasteelweg,1,51.0998694551,4.41631353808
2840,Rumst,Tuinwijk,68,51.0803230287,4.42690202762
2840,Rumst,Philip de Pillecijnlaan,6,51.1085124596,4.36462125966
2840,Rumst,Tulpenlaan,19,51.1055673431,4.39106441007
2840,Rumst,Petrus Van der Taelenstraat,10,51.0877170053,4.43573988378
2840,Rumst,Begijnenbossen,16,51.1019890785,4.41458208501
2840,Rumst,Populierenlaan,26,51.0764315374,4.39816093027
2840,Rumst,Molenveld,26,51.0781341134,4.42190377431
2840,Rumst,Kleine Paepedaelenlaan,20,51.1082141928,4.36400515254
2840,Rumst,Uitbreidingstraat,12,51.0780633201,4.39802684755
2840,Rumst,Hondstraat,1,51.1064822485,4.43676895796
2840,Rumst,David Tenierslaan,2,51.1018933705,4.40681224523
2840,Rumst,Beekvelden,70,51.1030153145,4.41770238635
2840,Rumst,Netestraat,7,51.0778896406,4.4457110478
2840,Rumst,Hans Memlinclaan,3,51.1015216512,4.40257774429
2840,Rumst,Varenstraat,65,51.0799269613,4.45927192561
2840,Rumst,Lode Zielenslaan,5,51.1086103046,4.36724485649
2840,Rumst,Tuinwijk,41,51.0805156807,4.42446903752
2840,Rumst,Constant Permekelaan,1,51.1007786665,4.40025169604
2840,Rumst,Molenstraat,132,51.1018840725,4.39799671635
2840,Rumst,1 meistraat,28,51.0772312374,4.39613520201
2840,Rumst,Markt,22,51.0760880064,4.42527731468
2840,Rumst,1 meistraat,2,51.077897918,4.39697550608
2840,Rumst,Azalealaan,5,51.1078646777,4.38766693237
2840,Rumst,Beekvelden,52,51.1027494184,4.41642330351
2840,Rumst,Hoge Zandvelden,2,51.1070063706,4.39818247487
2840,Rumst,Lage Vosbergstraat,86,51.0875212139,4.46311247245
2840,Rumst,Mechelsesteenweg,109,51.0758909998,4.4530857576
2840,Rumst,Schransstraat,3,51.0799049115,4.40456660197
2840,Rumst,Pierstraat,36,51.1164678117,4.39934393003
2840,Rumst,Molenstraat,114,51.1005122683,4.39947558907
2840,Rumst,Felix Timmermanslaan,39,51.1095503507,4.36866419072
2840,Rumst,Abel Fransplein,2,51.0792777738,4.42476336049
2840,Rumst,Romeins Veld,2,51.0792327913,4.42077857087
2840,Rumst,Hof ten Eikenlaan,8,51.0843134519,4.43957841112
2840,Rumst,Leliënlaan,24,51.1097078838,4.38837467022
2840,Rumst,Hollebeekstraat,106,51.0831008614,4.42200068479
2840,Rumst,James Ensorlaan,7,51.1021853651,4.40558024513
2840,Rumst,Felix Timmermanslaan,4,51.1090021223,4.36693399552
2840,Rumst,Pierstraat,18,51.1171399178,4.40027867578
2840,Rumst,Korte Nieuwstraat,23,51.0804277838,4.40125401915
2840,Rumst,Mechelsesteenweg,32,51.0797646732,4.45194177344
2840,Rumst,Olmenlaan,20,51.1037373502,4.41378257668
2840,Rumst,Tulpenlaan,22,51.1051668836,4.39064901333
2840,Rumst,Clemenshoek,129,51.1092883411,4.40655307042
2840,Rumst,Ontvoogdingstraat,1,51.0769520029,4.39949943368
2840,Rumst,Steenbakkerijstraat,25,51.0792880736,4.40375944058
2840,Rumst,Molenbergstraat,71,51.0790617302,4.42256411048
2840,Rumst,Steenberghoekstraat,6,51.080553087,4.42115180119
2840,Rumst,Tuinwijklaan,65,51.0776130306,4.40395236913
2840,Rumst,Clemenshoek,25,51.1037574047,4.39736142894
2840,Rumst,Romeins Veld,37,51.0782018787,4.4207338866
2840,Rumst,Uitbreidingstraat,3,51.0776295462,4.39826715237
2840,Rumst,Pierstraat,153,51.1108057522,4.3816183427
2840,Rumst,Dieveldenstraat,6,51.1090395513,4.41517011593
2840,Rumst,Nedrickxhoeveweg,1,51.1124389152,4.4244057486
2840,Rumst,Veerstraat,22,51.0771035435,4.42306439275
2840,Rumst,Stijn Streuvelslaan,16,51.1093816994,4.36569270162
2840,Rumst,Kapelstraat,11,51.0825030094,4.38981420652
2840,Rumst,Lindenlaan,3,51.1036259701,4.4154005226
2840,Rumst,Overwinningstraat,8,51.0771289947,4.39915651903
2840,Rumst,Begonialaan,6,51.1087323734,4.3932890547
2840,Rumst,Kamiel Huysmansstraat,27,51.081247915,4.39966158064
2840,Rumst,Hoveniersstraat,17,51.0855629975,4.46487634876
2840,Rumst,'s Herenbaan,10,51.0943843762,4.40031438405
2840,Rumst,Salvialaan,55,51.109346392,4.38919199271
2840,Rumst,Kleine Paepedaelenlaan,8,51.1091554723,4.3633632271
2840,Rumst,Salvialaan,20,51.1070863414,4.38871350032
2840,Rumst,Romeins Veld,19,51.0790780296,4.42151800442
2840,Rumst,Nieuwstraat,98,51.0801313331,4.40311107545
2840,Rumst,Pieter Breughellaan,2A,51.1041514742,4.40474658744
2840,Rumst,Krokuslaan,22,51.1074488835,4.3936313325
2840,Rumst,Ernest Claeslaan,6,51.1093897971,4.36612036122
2840,Rumst,Keulshaagweg,27,51.1122524054,4.40757653219
2840,Rumst,Ekkersgatstraat,24,51.0814966972,4.43058147138
2840,Rumst,Oude Baan,12,51.0787294099,4.4000223313
2840,Rumst,Olmenlaan,47,51.1050521628,4.41254511992
2840,Rumst,Doelhaagstraat,24,51.0799097005,4.42801315127
2840,Rumst,Molenbergstraat,53,51.078642707,4.4226772094
2840,Rumst,Weivelden,6,51.0860995864,4.43692540382
2840,Rumst,Slijkenhoefstraat,20,51.0935947599,4.44612824556
2840,Rumst,Koningin Astridplein,6A,51.1010259622,4.41215796262
2840,Rumst,Ontvoogdingstraat,27,51.0769580326,4.40079394254
2840,Rumst,Pierstraat,333,51.1099181555,4.36606136581
2840,Rumst,Zonnebloemlaan,19,51.111254022,4.39228055525
2840,Rumst,David Tenierslaan,28,51.1018447225,4.4051937835
2840,Rumst,Jacob Jordaenslaan,24,51.1035074006,4.40214175292
2840,Rumst,Kerkenhoek,1,51.0895665352,4.39420061258
2840,Rumst,Doelhaagstraat,59,51.0816905345,4.42878990388
2840,Rumst,Molenstraat,149,51.0992307297,4.40146109485
2840,Rumst,Mechelsesteenweg,14,51.080597304,4.45182567903
2840,Rumst,Hollebeekstraat,20,51.0810640948,4.42235481258
2840,Rumst,Veldstraat,40,51.0803903584,4.39836854196
2840,Rumst,Morenhoekstraat,17,51.0875524704,4.4466695041
2840,Rumst,Begijnenbossen,62,51.104936499,4.414357145
2840,Rumst,Boonhof,1,51.0826158892,4.39266017358
2840,Rumst,Pierstraat,361,51.1097007484,4.36383367285
2840,Rumst,Molenstraat,167,51.0997708905,4.39940856381
2840,Rumst,Eikenstraat,49,51.1033111316,4.41132175648
2840,Rumst,Clemenshoek,51,51.1054646715,4.39901074385
2840,Rumst,Tuinwijklaan,19,51.0781967411,4.4025345604
2840,Rumst,Kerkstraat,80,51.0800284376,4.43078785324
2840,Rumst,Leemstraat,4,51.0903616628,4.42817713542
2840,Rumst,Tuinwijk,119,51.0809178045,4.4297481598
2840,Rumst,Karl Marxstraat,4,51.0775388905,4.39880019898
2840,Rumst,Hoge Meentochtstraat,11,51.0901202252,4.42728446127
2840,Rumst,Schanshoeveweg,12,51.1100628443,4.42206235736
2840,Rumst,Hollebeekstraat,55,51.0818034419,4.42113994879
2840,Rumst,Molenveld,90,51.0771839969,4.41988400215
2840,Rumst,Rupelstraat,13,51.0800607531,4.39574518402
2840,Rumst,Hoge Vosbergstraat,36,51.0879259181,4.45909213571
2840,Rumst,Tiburstraat,11,51.0827000517,4.43591514965
2840,Rumst,Karl Marxstraat,32,51.0773604408,4.40022530494
2840,Rumst,Eikenstraat,145,51.1078674955,4.4084098408
2840,Rumst,Rozenlaan,12,51.1051989357,4.38890170519
2840,Rumst,Molenstraat,89,51.0996913598,4.40661911929
2840,Rumst,Molenstraat,185,51.1012097707,4.39749231935
2840,Rumst,Irislaan,4,51.1085873349,4.39433990257
2840,Rumst,Hoge Vosbergstraat,18,51.0868173456,4.45538047722
2840,Rumst,Eikenstraat,211,51.1112016874,4.40628047617
2840,Rumst,Olmenlaan,55,51.1051377547,4.41177391267
2840,Rumst,Kerkstraat,44,51.0779738147,4.4289767182
2840,Rumst,Dennenlaan,7,51.1021691347,4.41293028068
2840,Rumst,Veerstraat,57,51.0763005435,4.42273040921
2840,Rumst,Grote Paepedaelen,16,51.1053987307,4.37418497777
2840,Rumst,Petrus Van der Taelenstraat,1,51.0847074729,4.43265828571
2840,Rumst,Pierstraat,107,51.1133039666,4.38813389609
2840,Rumst,Rupelstraat,38,51.0797570816,4.39509086351
2840,Rumst,Molenveld,11,51.0775493717,4.42213540728
2840,Rumst,Pierstraat,48,51.1165710159,4.39860679698
2840,Rumst,Hoogstraat,19,51.0803590623,4.40045240928
2840,Rumst,Populierenlaan,11,51.0761677494,4.40007380424
2840,Rumst,Kapelstraat,64,51.0824437157,4.39283675683
2840,Rumst,Doelhaagstraat,77,51.0838160306,4.42539380431
2840,Rumst,Overwinningstraat,26,51.0772513774,4.39794299453
2840,Rumst,Rozenlaan,30,51.1063523311,4.39013200124
2840,Rumst,Varenstraat,19,51.0789668031,4.45396466399
2840,Rumst,Karl Marxstraat,14,51.0774574877,4.39934537869
2840,Rumst,Guido Gezellestraat,15,51.0857488833,4.43927647168
2840,Rumst,Eikenstraat,4,51.101881796,4.41284391554
2840,Rumst,Haardorst,23,51.0792154539,4.42611150741
2840,Rumst,Veerstraat,75,51.0759375002,4.42191223286
2840,Rumst,Predikherenhoevestraat,21,51.103837486,4.38681559301
2840,Rumst,Kromhoutstraat,29,51.0884539874,4.43822126813
2840,Rumst,Eikenstraat,263,51.1151869161,4.40436395319
2840,Rumst,Eikenstraat,39,51.1029599348,4.41157984827
2840,Rumst,Kerkstraat,10,51.0773750523,4.4265193248
2840,Rumst,Vissersstraat,23,51.0758367325,4.42385011795
2840,Rumst,Molenveld,54,51.0778067875,4.42100299242
2840,Rumst,Antwerpsesteenweg,131,51.0986034264,4.45047018494
2840,Rumst,Eikenstraat,198,51.1138370044,4.40684828159
2840,Rumst,Antwerpsesteenweg,79,51.093939272,4.45116883376
2840,Rumst,Quinten Matsijslaan,35,51.1043208217,4.39945616106
2840,Rumst,Predikherenhoevestraat,56,51.1080601272,4.38513782352
2840,Rumst,Jeroen Boschlaan,11,51.1022958431,4.40007170884
2840,Rumst,Pierstraat,225,51.1099417495,4.37563335141
2840,Rumst,Sint Janstraat,18,51.1112730295,4.38347484028
2840,Rumst,Kromhoutstraat,3,51.0866277408,4.43589159066
2840,Rumst,Hoogstraat,37,51.0808115013,4.40034312589
2840,Rumst,Sint Jozefstraat,21,51.111609749,4.38414238969
2840,Rumst,Karl Marxstraat,49,51.0776197225,4.40136575378
2840,Rumst,Varenstraat,37,51.079290299,4.45532889482
2840,Rumst,Eikenstraat,281,51.1150027365,4.40256785057
2840,Rumst,Veldstraat,29,51.0808769729,4.39818162928
2840,Rumst,Molenveld,72,51.0775251557,4.42042305029
2840,Rumst,Kerremansstraat,20,51.0971329725,4.40031770776
2840,Rumst,Hof ten Eikenlaan,26,51.0855797441,4.43680161482
2840,Rumst,Gladiolenlaan,5,51.1068325612,4.39081530435
2840,Rumst,Uitbreidingstraat,29,51.0782360579,4.39556116744
2840,Rumst,Kardinaal Cardijnstraat,59,51.0805919599,4.39511974399
2840,Rumst,Nieuwstraat,44,51.0833301256,4.41093736057
2840,Rumst,Lage Vosbergstraat,68,51.0870555484,4.46045359106
2840,Rumst,Nieuwstraat,10,51.0813848043,4.41506220218
2840,Rumst,Tuinwijklaan,37,51.0779295261,4.4030636203
2840,Rumst,Romeins Veld,9,51.0796093755,4.4212877224
2840,Rumst,Salvialaan,1,51.1057420533,4.38829456043
2840,Rumst,Pierstraat,343,51.1099562581,4.36555287811
2840,Rumst,Antwerpsestraat,18,51.109384559,4.37115332665
2840,Rumst,Crequilei,11,51.0808838634,4.40435416584
2840,Rumst,Boereweg,51,51.0811728866,4.40306062485
2840,Rumst,Kerkstraat,62,51.0794076033,4.43039973326
2840,Rumst,Vissersstraat,76,51.0754057645,4.42181145399
2840,Rumst,Louis Paul Boonstraat,9,51.0884378212,4.43636107758
2840,Rumst,Veerstraat,93,51.0755238588,4.42106062286
2840,Rumst,Ontvoogdingstraat,20,51.0765147341,4.40067719648
2840,Rumst,Beekvelden,87,51.1018658481,4.41765576541
2840,Rumst,Eikenstraat,109,51.105918732,4.40969689763
2840,Rumst,Uitbreidingstraat,22,51.0781673431,4.39758398576
2840,Rumst,Oude Baan,1,51.0790123565,4.40010600333
2840,Rumst,Wilgenveld,6,51.1062425189,4.41165572305
2840,Rumst,Eikenstraat,14,51.1021323493,4.4125117889
2840,Rumst,Abel Fransplein,9,51.0791620905,4.42438135751
2840,Rumst,Haardorst,3,51.0784993215,4.42517067307
2840,Rumst,Lage Vosbergstraat,51,51.0866211622,4.45771832382
2840,Rumst,Molenstraat,26,51.100681216,4.4089888311
2840,Rumst,Hollebeekstraat,27,51.0811882086,4.42122030715
2840,Rumst,Vissersstraat,3,51.0761431295,4.42429910035
2840,Rumst,Veldstraat,22,51.0805779394,4.39772621294
2840,Rumst,Nieuwstraat,63,51.0801110952,4.40463311931
2840,Rumst,Ekkersgatstraat,4,51.081193509,4.43124478839
2840,Rumst,Eikenstraat,32,51.1026721108,4.41231299407
2840,Rumst,Tuinwijk,76,51.0804941565,4.42765757068
2840,Rumst,Predikherenhoevestraat,92,51.1103877477,4.38331333347
2840,Rumst,Pierstraat,261,51.1098681796,4.37304207882
2840,Rumst,Rozenlaan,55,51.1090992315,4.39095505734
2840,Rumst,Kerkstraat,7,51.0784937274,4.42845883425
2840,Rumst,Kromhoutstraat,22,51.0879248301,4.4380442078
2840,Rumst,Kerkstraat,86A,51.0803253288,4.43097690431
2840,Rumst,Salvialaan,27,51.1074348042,4.38785008845
2840,Rumst,Kruislei,3,51.0826755309,4.43414151646
2840,Rumst,Nieuwstraat,81,51.0798659384,4.40385449254
2840,Rumst,Beekvelden,69,51.1030213891,4.41757832402
2840,Rumst,Molenveld,8,51.0782627547,4.42266221071
2840,Rumst,Populierenlaan,8,51.0761790615,4.40045379533
2840,Rumst,Slijkenhoefstraat,27,51.0965439647,4.44724378183
2840,Rumst,Korte Nieuwstraat,3,51.0800283217,4.40156225673
2840,Rumst,1 meistraat,9,51.0768672266,4.39672301747
2840,Rumst,Hoge Zandvelden,9,51.1094469518,4.39504149218
2840,Rumst,Vissersstraat,41,51.0757355565,4.42319477111
2840,Rumst,Weivelden,25,51.0865347871,4.4389625392
2840,Rumst,Putstraat,15,51.0807291515,4.40229668456
2840,Rumst,Tiburstraat,8,51.0815357838,4.43550046835
2840,Rumst,Pierstraat,421,51.1092221097,4.360494553
2840,Rumst,Olmenlaan,27,51.1040112089,4.41315877536
2840,Rumst,'s Herenbaan,158,51.1048536322,4.3745432778
2840,Rumst,Kapelstraat,82,51.0830926802,4.39167058059
2840,Rumst,Pierstraat,11,51.1159042284,4.4015952576
2840,Rumst,Gladiolenlaan,24,51.1061965158,4.39217184804
2840,Rumst,Steenberghoekstraat,25,51.0796655366,4.41991914475
2840,Rumst,Pierstraat,243,51.1099050609,4.3743499229
2840,Rumst,Zonnebloemlaan,12,51.1108099957,4.39262646187
2840,Rumst,Hoge Meentochtstraat,8,51.0903764095,4.43468993277
2840,Rumst,Doelhaagstraat,42,51.080150791,4.4286978596
2840,Rumst,Hoveniersstraat,10,51.0866014564,4.46380294672
2840,Rumst,Molenstraat,142,51.102256053,4.39644347914
2840,Rumst,Tuinwijk,94,51.0804429946,4.42995488102
2840,Rumst,Korte Nieuwstraat,41,51.0808788994,4.40105840632
2840,Rumst,Beukendreef,35,51.1028459968,4.40627707125
2840,Rumst,Romeins Veld,30,51.0784196161,4.42006559725
2840,Rumst,Doelhaagstraat,60,51.082132645,4.42958208007
2840,Rumst,Antwerpsesteenweg,44,51.0894281563,4.45341181836
2840,Rumst,Borzestraat,1,51.1115822088,4.41354992173
2840,Rumst,Crequilei,8,51.0809036661,4.40455724952
2840,Rumst,Albert Servaeslaan,6,51.1077907649,4.36511406876
2840,Rumst,Molenstraat,160,51.1021573192,4.39467436553
2840,Rumst,Eikenstraat,127,51.1067132251,4.4092548347
2840,Rumst,Abel Fransplein,12,51.0795091956,4.42390843912
2840,Rumst,Berkenlaan,6,51.1027188879,4.41340295195
2840,Rumst,'s Herenbaan,176,51.1058667356,4.37022116514
2840,Rumst,Romeins Veld,12,51.0787612407,4.42116774721
2840,Rumst,Nedrickxhoeveweg,8A,51.1136145318,4.42312064224
2840,Rumst,Pierstraat,125,51.1115404129,4.38302540068
2840,Rumst,Beekvelden,113,51.1024912976,4.41741843089
2840,Rumst,Pierstraat,46,51.1166185318,4.39873964452
2840,Rumst,Eikenstraat,173,51.1086582422,4.40786649689
2840,Rumst,Eikenstraat,50,51.1033208062,4.4121399964
2840,Rumst,Nijverheidsstraat,98,51.0796429784,4.42072152488
2840,Rumst,Kapelstraat,36,51.0818972227,4.393544296
2840,Rumst,Pieter Breughellaan,23,51.1037430643,4.40252712923
2840,Rumst,Oude Baan,19,51.078768981,4.40060599256
2840,Rumst,Louis Paul Boonstraat,12,51.088697691,4.43697433203
2840,Rumst,Kardinaal Cardijnstraat,4,51.0795567434,4.39901586095
2840,Rumst,Karl Marxstraat,39,51.077783366,4.40088070782
2840,Rumst,Zonnebloemlaan,30,51.1116876379,4.39478546304
2840,Rumst,Veldstraat,57,51.0804770104,4.3990618496
2840,Rumst,'s Herenbaan,276,51.1071433027,4.36256726313
2840,Rumst,Beekvelden,34,51.1024868662,4.41506400172
2840,Rumst,Nieuwstraat,105,51.0793141185,4.40138108757
2840,Rumst,Molenstraat,72,51.1007144208,4.40592070088
2840,Rumst,Kerremansstraat,27,51.0954068499,4.40065340365
2840,Rumst,Kleine Paepedaelenlaan,10,51.1090057236,4.3634653371
2840,Rumst,Kerkhofstraat,44,51.0827319292,4.43261245863
2840,Rumst,Molenstraat,54,51.1002420213,4.4071409454
2840,Rumst,Tuinwijk,23,51.0803973386,4.42362537825
2840,Rumst,Antoon Van Dycklaan,10,51.1028959338,4.40262159047
2840,Rumst,Crequilei,18,51.0811743945,4.40431714523
2840,Rumst,Lindenlaan,22,51.1041864995,4.41675231718
2840,Rumst,Clemenshoek,68,51.1084962786,4.40591258238
2840,Rumst,Tuinwijklaan,30,51.0777039646,4.40225037763
2840,Rumst,Rumstsestraat,24,51.1003976489,4.41333560029
2840,Rumst,Begijnenbossen,97,51.1055626856,4.41335802201
2840,Rumst,Tuinwijklaan,12,51.0780008275,4.40144650542
2840,Rumst,Beekvelden,16,51.1015979083,4.41565359452
2840,Rumst,Eikenstraat,191,51.1095862922,4.40744976361
2840,Rumst,Hollebeekstraat,47,51.0816576304,4.4211673257
2840,Rumst,Pierstraat,403,51.1093581688,4.36147964765
2840,Rumst,Nijverheidsstraat,10,51.0761261571,4.42076194208
2840,Rumst,Leliënlaan,4,51.1089988807,4.38655036092
2840,Rumst,Boereweg,33,51.0809350718,4.40326094666
2840,Rumst,Hoveniersstraat,45,51.0827103083,4.4656248084
2840,Rumst,Eikenstraat,85,51.1047572969,4.41069002075
2840,Rumst,Rozenlaan,19,51.1057751498,4.38871020817
2840,Rumst,Markt,40,51.0763503721,4.42568615853
2840,Rumst,Antwerpsesteenweg,62,51.0928231652,4.45301191786
2840,Rumst,Jeroen Boschlaan,18,51.1029082174,4.40084138122
2840,Rumst,Hoogstraat,30,51.0804532416,4.40086374453
2840,Rumst,Sint Janstraat,11,51.1117970592,4.38358668167
2840,Rumst,Hollebeekstraat,91,51.0906940543,4.42048718287
2840,Rumst,Abdon Braeckmansstraat,20,51.0770723414,4.42191981789
2840,Rumst,Doornlaarlei,5,51.0816691828,4.45703639644
2840,Rumst,Laarstraat,23,51.1011725744,4.41471475893
2840,Rumst,Mechelsesteenweg,39,51.0803673506,4.45298201616
2840,Rumst,Pastoor Slegersstraat,7,51.0870855565,4.45612713554
2840,Rumst,Felix Timmermanslaan,32,51.1090741274,4.36830135426
2840,Rumst,Hoge Vosbergstraat,11,51.0865878008,4.45325049672
2840,Rumst,Eugeen Roelandtsstraat,10,51.1056910921,4.40905289963
2840,Rumst,Netestraat,44,51.0765296787,4.44988321801
2840,Rumst,Schensbossen,12,51.1049845866,4.4025540302
2840,Rumst,Molenbergstraat,35,51.0782213841,4.42309581619
2840,Rumst,Populierenlaan,18,51.0762448122,4.3989578773
2840,Rumst,Molenveld,18,51.0781988293,4.42210876046
2840,Rumst,Korte Veerstraat,23,51.0800828332,4.39471645939
2840,Rumst,Felix Timmermanslaan,14,51.1090304403,4.36738178498
2840,Rumst,Louis Paul Boonstraat,2,51.0881614323,4.43725556944
2840,Rumst,Eekhovenweg,16,51.0763559754,4.45483841499
2840,Rumst,Antwerpsesteenweg,80,51.0941061107,4.45204800966
2840,Rumst,Eikenstraat,218,51.1161421123,4.40563215143
2840,Rumst,Rozenlaan,1,51.1047503361,4.38712892679
2840,Rumst,Kardinaal Cardijnstraat,42,51.0802923976,4.39759032175
2840,Rumst,Rozenlaan,37,51.1072776346,4.38964911135
2840,Rumst,Emiel Vanderveldestraat,1,51.0850280834,4.43805014857
2840,Rumst,Molenbergstraat,88,51.0802287431,4.422197013
2840,Rumst,Veerstraat,29,51.0767674971,4.42353873312
2840,Rumst,Monnikenhofstraat,17,51.1029963132,4.39475879299
2840,Rumst,Netestraat,62,51.0763294405,4.45188181877
2840,Rumst,'s Herenbaan,294,51.1076175187,4.36192909717
2840,Rumst,Nieuwstraat,123,51.0792323007,4.40015452907
2840,Rumst,Predikherenhoevestraat,28,51.1057301321,4.38700853447
2840,Rumst,Oude Brouwerijstraat,26,51.0785580336,4.39885438022
2840,Rumst,Sint Jozefstraat,28,51.1111164591,4.38469641356
2840,Rumst,Nieuwstraat,158,51.0795234169,4.39927269917
2840,Rumst,Populierenlaan,36,51.0767052106,4.39723889085
2840,Rumst,Salvialaan,47,51.1087295919,4.38914230876
2840,Rumst,Molenveld,36,51.0780147924,4.42159427294
2840,Rumst,Boereweg,15,51.0805568859,4.40334400077
2840,Rumst,Kardinaal Cardijnstraat,60,51.080476137,4.39646365439
2840,Rumst,Tiburstraat,18,51.0819182918,4.43684475382
2840,Rumst,Molenstraat,214,51.1011482991,4.38952350196
2840,Rumst,Tuinwijk,58,51.0801016871,4.42514722869
2840,Rumst,Eikenstraat,236,51.1156564444,4.40508294029
2840,Rumst,Jacob Jordaenslaan,4,51.1015287193,4.4020726387
2840,Rumst,Petrus Van der Taelenstraat,20,51.0886860279,4.43569390049
2840,Rumst,Begijnenbossen,79,51.1048559677,4.41364403441
2840,Rumst,Molenstraat,90,51.0998747165,4.40229814188
2840,Rumst,Felix Timmermanslaan,38,51.109085722,4.36858208024
2840,Rumst,Korte Nieuwstraat,13,51.0802176889,4.40134377248
2840,Rumst,Beekvelden,3,51.1014951966,4.41689899135
2840,Rumst,Herderstraat,26,51.0935409887,4.45883385423
2840,Rumst,Abdon Braeckmansstraat,8,51.0772596472,4.42235995693
2840,Rumst,Laarstraat,38,51.1004004043,4.4207673204
2840,Rumst,Eikenstraat,120,51.1077142751,4.40959469142
2840,Rumst,Veerstraat,14,51.0772631957,4.42323538436
2840,Rumst,Antwerpsesteenweg,10,51.0863688115,4.45253035517
2840,Rumst,Korte Veerstraat,29,51.080007083,4.39460182681
2840,Rumst,Nijverheidsstraat,53,51.0795540815,4.42010781363
2840,Rumst,Populierenlaan,16,51.0761696989,4.39951032307
2840,Rumst,Molenstraat,9,51.1008042858,4.41122092877
2840,Rumst,Molenveld,16,51.0782185757,4.42217228309
2840,Rumst,Tulpenlaan,23,51.1056927701,4.39135103133
2840,Rumst,Hoogstraat,7,51.0800890451,4.4004232538
2840,Rumst,Eekhovenweg,18,51.0763855918,4.4550239678
2840,Rumst,Vissersstraat,31,51.0757513158,4.42351669533
2840,Rumst,Sint Jozefstraat,15,51.1111160092,4.38337297452
2840,Rumst,Oude Baan,95,51.0789865078,4.4040209195
2840,Rumst,Salvialaan,8,51.1063707429,4.38820773549
2840,Rumst,Lindenlaan,2,51.1031601054,4.41534080031
2840,Rumst,Nieuwstraat,47,51.080628774,4.40845526746
2840,Rumst,Veerstraat,32,51.0769707168,4.42280953063
2840,Rumst,Eikenstraat,102,51.1068882647,4.40994049352
2840,Rumst,Molenstraat,133,51.099581207,4.40389642611
2840,Rumst,Boereweg,37,51.0809983875,4.40314625977
2840,Rumst,'s Herenbaan,124,51.1043244461,4.37949624148
2840,Rumst,Rumstsestraat,19,51.0979018355,4.41690009142
2840,Rumst,Nieuwstraat,152,51.0795497241,4.39972265057
2840,Rumst,Oude Baan,113,51.0791672588,4.40465378616
2840,Rumst,Rozenlaan,15,51.1054482714,4.3884610567
2840,Rumst,Populierenlaan,34,51.0766373828,4.39744689253
2840,Rumst,Molenveld,34,51.0780556643,4.42165468
2840,Rumst,Romeins Veld,27,51.0785505811,4.42147873064
2840,Rumst,Mechelsesteenweg,22,51.0803680497,4.45175320352
2840,Rumst,Kardinaal Cardijnstraat,12,51.0797255513,4.39868262367
2840,Rumst,Begonialaan,20,51.1099392779,4.39294414706
2840,Rumst,Anjelierenplein,1,51.1084158519,4.38608235564
2840,Rumst,Irislaan,5,51.1084809726,4.39404812576
2840,Rumst,Petrus Van der Taelenstraat,8,51.0875539424,4.43574935306
2840,Rumst,'s Herenbaan,242,51.1063746416,4.36401702025
2840,Rumst,Pierstraat,231,51.1098821978,4.37491709293
2840,Rumst,Lage Vosbergstraat,12,51.0856404737,4.45557280566
2840,Rumst,Pieter Breughellaan,5,51.1037274979,4.40378852642
2840,Rumst,Monnikenhofstraat,35,51.1035080782,4.39164962415
2840,Rumst,Nieuwstraat,79,51.0797572111,4.40402550768
2840,Rumst,Hoveniersstraat,44,51.0818587155,4.46418853725
2840,Rumst,Tuinwijk,29,51.0804326359,4.42387686279
2840,Rumst,Ernest Claeslaan,20,51.1089836864,4.3662207595
2840,Rumst,Kerremansstraat,16,51.0974102231,4.40051418682
2840,Rumst,Leliënlaan,40,51.1103573525,4.39020171978
2840,Rumst,Rozenlaan,33,51.1070287702,4.38945909354
2840,Rumst,Eikenstraat,57,51.1035335986,4.41133638248
2840,Rumst,Beekvelden,91,51.1019800043,4.41701371281
2840,Rumst,Tiburstraat,25,51.0831035756,4.43849566687
2840,Rumst,Crequilei,16,51.0810913309,4.40433862929
2840,Rumst,Lage Vosbergstraat,65,51.0872976322,4.45928087829
2840,Rumst,Hoge Meentochtstraat,25,51.0900471376,4.42748005469
2840,Rumst,Molleveld,8,51.0830271054,4.38956228025
2840,Rumst,Koningin Astridplein,10,51.1008323679,4.4118516914
2840,Rumst,Molenbergstraat,17,51.0776648051,4.42326339814
2840,Rumst,Beekvelden,73,51.1026512152,4.41782920847
2840,Rumst,Molenbergstraat,63,51.0788682185,4.42252407219
2840,Rumst,Hortensialaan,23,51.1080613171,4.39471899262
2840,Rumst,Predikherenhoevestraat,24,51.1054011397,4.38702839019
2840,Rumst,Pierstraat,141,51.111296578,4.38278713696
2840,Rumst,Lage Vosbergstraat,30,51.0858804572,4.45691952911
2840,Rumst,Molenstraat,168,51.1020649026,4.39391949343
2840,Rumst,Karl Marxstraat,31,51.0778265397,4.40045750481
2840,Rumst,Leemstraat,5,51.0904085719,4.42820174587
2840,Rumst,Karl Marxstraat,5,51.0779183162,4.39912108458
2840,Rumst,Pieter Breughellaan,1C,51.103711322,4.40436432158
2840,Rumst,Lage Vosbergstraat,83,51.0876162122,4.46132888909
2840,Rumst,Tuinwijklaan,7,51.078245092,4.40194625937
2840,Rumst,Boereweg,19,51.0806408473,4.40332565534
2840,Rumst,Antoine De Winterstraat,10,51.0796142479,4.42601368176
2840,Rumst,Kardinaal Cardijnstraat,30,51.0798630796,4.39798747351
2840,Rumst,Beekvelden,27,51.1020764076,4.41536540272
2840,Rumst,Molenstraat,115,51.0997513388,4.40514372449
2840,Rumst,Keulshaagweg,8,51.1076986871,4.41120145046
2840,Rumst,Antwerpsesteenweg,45,51.0906497691,4.45110289618
2840,Rumst,Begijnenbossen,81,51.104934452,4.4136122715
2840,Rumst,Predikherenhoevestraat,95,51.1107304463,4.38221477733
2840,Rumst,Tuinwijklaan,59,51.0774982119,4.40375821721
2840,Rumst,Steenberghoekstraat,27,51.079709848,4.41972298035
2840,Rumst,Pierstraat,321,51.1099193396,4.36750700149
2840,Rumst,Quinten Matsijslaan,23,51.103299349,4.39872619192
2840,Rumst,Olmenlaan,16,51.1035895505,4.41384496698
2840,Rumst,Pieter Pauwel Rubenslaan,13,51.1006636632,4.40198577948
2840,Rumst,Priester Daensstraat,9,51.0874490279,4.43838532066
2840,Rumst,Morenhoekstraat,1,51.0857509568,4.44862287106
2840,Rumst,Dalialaan,8,51.1086987156,4.39262578061
2840,Rumst,Bussestraat,10,51.0842115606,4.44857397975
2840,Rumst,Leliënlaan,30,51.1099866227,4.38890441117
2840,Rumst,Molenveld,80,51.077396209,4.42012196495
2840,Rumst,Wilgenveld,10,51.1059405752,4.41192729612
2840,Rumst,Steenbakkerijstraat,11,51.0795631608,4.40366646726
2840,Rumst,Rozenlaan,61,51.1095343267,4.39075307731
2840,Rumst,Mechelsesteenweg,41,51.0801231826,4.45277465483
2840,Rumst,Dennenlaan,17,51.1024900656,4.4128480675
2840,Rumst,Leliënlaan,12,51.1092793037,4.38727756357
2840,Rumst,Veerstraat,67,51.0762312156,4.4223930087
2840,Rumst,Karl Marxstraat,13,51.0778827881,4.39954301055
2840,Rumst,Predikherenhoevestraat,77,51.1100832132,4.38256385409
2840,Rumst,Pieter Breughellaan,1A,51.1036759265,4.40487899395
2840,Rumst,Veerstraat,42,51.0768232452,4.42253852871
2840,Rumst,'s Herenbaan,170,51.1055841511,4.37259415067
2840,Rumst,Hoge Weg,15,51.1013640649,4.4100948725
2840,Rumst,Populierenlaan,44,51.0778242989,4.39508261181
2840,Rumst,Molenveld,44,51.0779147782,4.42132546327
2840,Rumst,Veerstraat,85,51.0757124793,4.42138388347
2840,Rumst,Markt,58,51.0768190144,4.42612836742
2840,Rumst,Begonialaan,3,51.1090591794,4.39255685954
2840,Rumst,Beukendreef,17,51.1018684419,4.40717414238
2840,Rumst,Borzestraat,15,51.1124044638,4.41974812367
2840,Rumst,Putstraat,28,51.0809220182,4.40272094329
2840,Rumst,Kamiel Huysmansstraat,8,51.0798842127,4.39967350237
2840,Rumst,Varenlaan,5,51.1102501046,4.39338840175
2840,Rumst,Seringenlaan,15,51.1079330127,4.38911339211
2840,Rumst,Molenstraat,186,51.1018594784,4.39280464467
2840,Rumst,Olmenlaan,34,51.1042447699,4.41354235326
2840,Rumst,Putstraat,4,51.0804112963,4.40294161155
2840,Rumst,Eikenstraat,201,51.1103092726,4.4068640601
2840,Rumst,Kapelstraat,34,51.0818472111,4.3936989634
2840,Rumst,Rupelstraat,14,51.0801918659,4.3955090895
2840,Rumst,Hollebeekstraat,16,51.0809429325,4.42194682244
2840,Rumst,Molenbergstraat,81,51.0792726783,4.42241366571
2840,Rumst,Molenbergstraat,47,51.0784635928,4.42279814996
2840,Rumst,Keelhoevestraat,1,51.0936496855,4.42024483566
2840,Rumst,Jacob Jordaenslaan,12,51.1021723999,4.40209480795
2840,Rumst,Doelhaagstraat,30,51.0799532095,4.42835982899
2840,Rumst,Ontvoogdingstraat,8,51.0764795122,4.39996728485
2840,Rumst,Steenweg op Waarloos,65A,51.1047852468,4.42787971828
2840,Rumst,James Ensorlaan,2,51.10212273,4.40664268284
2840,Rumst,Felix Timmermanslaan,5,51.1095096304,4.36724426963
2840,Rumst,Laarstraat,5,51.1014523109,4.41331691983
2840,Rumst,Slijkenhoefstraat,34,51.0939673615,4.45085013564
2840,Rumst,Eikenstraat,273,51.1154938774,4.40378938143
2840,Rumst,Hof ten Eikenlaan,1,51.083798056,4.43983379325
2840,Rumst,Antwerpsesteenweg,98,51.0985154427,4.45210218435
2840,Rumst,Doelhaagstraat,12,51.0796025505,4.4276600021
2840,Rumst,Veldstraat,6,51.0806721014,4.39717029921
2840,Rumst,Pierstraat,213,51.1100739996,4.37774300274
2840,Rumst,Hollebeekstraat,69,51.0820649195,4.42115794133
2840,Rumst,Dieveldenstraat,3,51.1092139105,4.41385861526
2840,Rumst,Zonnebloemlaan,7,51.1108218815,4.39119094289
2840,Rumst,Weivelden,18,51.0859523777,4.43885033473
2840,Rumst,Oude Baan,24,51.0784597335,4.40039059044
2840,Rumst,Slijkenhoefstraat,16,51.0935632471,4.4447001913
2840,Rumst,Gladiolenlaan,19,51.1060690971,4.39106137303
2840,Rumst,Salvialaan,25,51.1073076251,4.38777864212
2840,Rumst,Eugeen Roelandtsstraat,1,51.1052213999,4.4096483029
2840,Rumst,Jan Van Eycklei,2,51.1002756351,4.40434109567
2840,Rumst,Mechelsesteenweg,93,51.0769432642,4.45304842997
2840,Rumst,Vissersstraat,66,51.0757501328,4.42258422347
2840,Rumst,Molenstraat,35,51.1002484567,4.41037254364
2840,Rumst,Lode Zielenslaan,4,51.1082850902,4.36711578185
2840,Rumst,Netestraat,2,51.077183941,4.44527551852
2840,Rumst,Steenweg op Waarloos,10,51.1006142938,4.4183986693
2840,Rumst,David Tenierslaan,7,51.101378913,4.40579317714
2840,Rumst,Haardorst,22,51.0791370226,4.42602736035
2840,Rumst,Tuinwijk,40,51.0799293662,4.42440910931
2840,Rumst,Kerkstraat,47,51.081419238,4.4322083587
2840,Rumst,Ekkersgatstraat,21,51.0812214127,4.42981563177
2840,Rumst,Jeroen Boschlaan,12,51.1021960424,4.4008181815
2840,Rumst,Azalealaan,19,51.108311453,4.38633847712
2840,Rumst,Molenveld,62,51.0777043378,4.42075030697
2840,Rumst,Rozenlaan,43,51.107551162,4.39013942104
2840,Rumst,Begijnenbossen,47,51.1036038146,4.41414780391
2840,Rumst,Oude Baan,59,51.0787641472,4.40212515041
2840,Rumst,Hoge Zandvelden,7,51.1083477777,4.39631281454
2840,Rumst,Korte Nieuwstraat,31,51.0805948163,4.40118435572
2840,Rumst,Doelhaagstraat,65,51.0818231502,4.42873142342
2840,Rumst,Molenstraat,88,51.0998303336,4.40253209652
2840,Rumst,Vissersstraat,13,51.0760085975,4.4240443806
2840,Rumst,'s Herenbaan,314,51.1087959007,4.36111461403
2840,Rumst,Peperstraat,3,51.0776459371,4.42494674236
2840,Rumst,James Ensorlaan,26,51.1027828333,4.40534843598
2840,Rumst,Herderstraat,9,51.0888085073,4.46266292489
2840,Rumst,Schransstraat,6,51.079789493,4.40457164912
2840,Rumst,Olmenlaan,52,51.1053479928,4.41299486974
2840,Rumst,Kromhoutstraat,14,51.0876786298,4.43712311979
2840,Rumst,Eikenstraat,137,51.1069192051,4.40886021903
2840,Rumst,Kapelstraat,52,51.082180648,4.39309263609
2840,Rumst,Lindenlaan,9,51.1039515877,4.41595967268
2840,Rumst,Pierstraat,113,51.1117343667,4.38321024403
2840,Rumst,Clemenshoek,83,51.1084317301,4.40179608296
2840,Rumst,Lage Vosbergstraat,37,51.0865431715,4.45696331941
2840,Rumst,Steenweg op Waarloos,55,51.1008098787,4.42820884483
2840,Rumst,Slijkenhoefstraat,1,51.0941360147,4.44231172471
2840,Rumst,Kardinaal Cardijnstraat,37,51.0802772853,4.39616442929
2840,Rumst,Kerkhofstraat,26,51.0822324388,4.43174938199
2840,Rumst,Koningin Astridplein,3,51.1015533303,4.41264729569
2840,Rumst,Tuinwijklaan,24,51.0777844908,4.40198759258
2840,Rumst,Mechelsesteenweg,6,51.0844766344,4.45168348984
2840,Rumst,Beekvelden,20,51.1018629292,4.41579834591
2840,Rumst,Sint Janstraat,16,51.111305572,4.3834501471
2840,Rumst,Rumstsestraat,12,51.1006690263,4.41284989202
2840,Rumst,Grote Paepedaelen,4,51.1051553104,4.37426718623
2840,Rumst,Molenstraat,2,51.1014267996,4.41160097825
2840,Rumst,Pompstraat,2,51.0824292796,4.3899293384
2840,Rumst,Antwerpsesteenweg,17,51.0874483997,4.45122580593
2840,Rumst,Eikenstraat,255,51.114439215,4.4055685187
2840,Rumst,Laarstraat,31,51.101165869,4.41507623634
2840,Rumst,Hoogstraat,24,51.0803071647,4.400892468
2840,Rumst,Guido Gezellestraat,28,51.0859015559,4.44009491605
2840,Rumst,Felix Timmermanslaan,31,51.109502532,4.36819397714
2840,Rumst,Gladiolenlaan,30,51.1058421338,4.39238897716
2840,Rumst,Hollebeekstraat,52,51.0817715987,4.42217839177
2840,Rumst,Rumstsestraat,30,51.1002654215,4.41357517212
2840,Rumst,Kleine Paepedaelenlaan,22,51.1080653422,4.36410668721
2840,Rumst,Veldstraat,23,51.0810813741,4.39784883037
2840,Rumst,Antwerpsestraat,16,51.1091744017,4.3711538839
2840,Rumst,Molenstraat,143,51.0994061417,4.40287455254
2840,Rumst,Vissersstraat,38,51.0763196849,4.42351052004
2840,Rumst,Philip de Pillecijnlaan,4,51.1085056256,4.36453601536
2840,Rumst,Nieuwstraat,62,51.0803946418,4.4045103312
2840,Rumst,Mechelsesteenweg,102,51.0765877399,4.45206535455
2840,Rumst,Pierstraat,107B,51.1126106776,4.3858073673
2840,Rumst,Uitbreidingstraat,14,51.0780815016,4.39793239461
2840,Rumst,'s Herenbaan,206,51.1063493474,4.36616774824
2840,Rumst,Stijn Streuvelslaan,8,51.1092971802,4.36467546252
2840,Rumst,Molenstraat,161,51.0994267106,4.40007388437
2840,Rumst,Hoveniersstraat,47,51.0822460781,4.46524480601
2840,Rumst,Kerkstraat,45,51.0813617785,4.43208112902
2840,Rumst,Louis Paul Boonstraat,20,51.0891418993,4.43669994681
2840,Rumst,Irislaan,13,51.1089829373,4.39510476592
2840,Rumst,Boereweg,30,51.0807706441,4.40392896287
2840,Rumst,Romeins Veld,55,51.0779447954,4.41951697644
2840,Rumst,Frans Van Lindenstraat,6,51.0854699499,4.43809219819
2840,Rumst,Tuinwijk,75,51.0807980164,4.42650747761
2840,Rumst,Overwinningstraat,35,51.0769834615,4.39741771532
2840,Rumst,Philip de Pillecijnlaan,18,51.1085571481,4.36515485804
2840,Rumst,Boereweg,12,51.0805810263,4.40377412698
2840,Rumst,Begijnenbossen,45,51.1035164293,4.41418441053
2840,Rumst,Blauwhoevestraat,2,51.0863178821,4.43512943959
2840,Rumst,Kapelstraat,1,51.0815008346,4.39216582369
2840,Rumst,Antoine De Winterstraat,17,51.0798268131,4.42532155935
2840,Rumst,Romeins Veld,20,51.0786518058,4.42025221838
2840,Rumst,Predikherenhoevestraat,42,51.1073253113,4.38680885372
2840,Rumst,Hoge Vosbergstraat,34,51.0878614409,4.45889433511
2840,Rumst,'s Herenbaan,224,51.1063165192,4.36521139617
2840,Rumst,'s Herenbaan,44,51.1015513873,4.38884882558
2840,Rumst,Karl Marxstraat,38,51.0773181982,4.40053492064
2840,Rumst,Olmenlaan,1,51.1030565473,4.41353063209
2840,Rumst,Antwerpsesteenweg,3,51.0861454856,4.45145455327
2840,Rumst,Kerkstraat,106,51.0809245864,4.43203358081
2840,Rumst,Rupelstraat,32,51.0798436057,4.39525873004
2840,Rumst,Hoge Vosbergstraat,16,51.0867421053,4.45514241871
2840,Rumst,Nijverheidsstraat,88,51.0790770858,4.42021373615
2840,Rumst,Grote Paepedaelen,18,51.1062559123,4.37394650178
2840,Rumst,Schensbossen,15,51.1058493992,4.40345575625
2840,Rumst,Veerstraat,7,51.0769289213,4.42414208479
2840,Rumst,Predikherenhoevestraat,60,51.1088701109,4.38446215283
2840,Rumst,Eikenstraat,40,51.1030834658,4.41223757149
2840,Rumst,Kardinaal Cardijnstraat,19,51.079226058,4.3979132904
2840,Rumst,Antoine De Winterstraat,3,51.0793014022,4.42534645932
2840,Rumst,Pieter Breughellaan,13,51.1037315573,4.40344244521
2840,Rumst,Philip de Pillecijnlaan,36,51.1086271885,4.36600673283
2840,Rumst,Leemstraat,1A,51.0901048506,4.42782639702
2840,Rumst,Molenbergstraat,10,51.0774796104,4.42407667776
2840,Rumst,Tuinwijk,93,51.0809139142,4.42734444122
2840,Rumst,Nijverheidsstraat,35,51.0783365602,4.41882547184
2840,Rumst,Putstraat,21,51.0810173727,4.40216389474
2840,Rumst,Nieuwstraat,124,51.0796790891,4.4009792172
2840,Rumst,Crequilei,1,51.0805408862,4.40452385928
2840,Rumst,Molenbergstraat,45,51.078410092,4.42283476042
2840,Rumst,Kamiel Huysmansstraat,25,51.0812424623,4.39954769804
2840,Rumst,Monnikenhofstraat,2,51.1032195049,4.3966744989
2840,Rumst,Tuinwijk,101,51.080975624,4.42778704646
2840,Rumst,Kerkhofstraat,54,51.0829050381,4.43329528196
2840,Rumst,Salvialaan,43,51.1085078,4.3888560603
2840,Rumst,Kerremansstraat,1,51.0990498561,4.40184356178
2840,Rumst,Lazarusstraat,4,51.0784717092,4.45307917582
2840,Rumst,Europalaan,1,51.0767567455,4.40184301387
2840,Rumst,Hoogstraat,42,51.0807225623,4.40081113301
2840,Rumst,Molenstraat,215,51.1014465413,4.39361077452
2840,Rumst,Antwerpsesteenweg,63,51.0923050447,4.45125385649
2840,Rumst,Kerkstraat,98,51.0808458966,4.43177061198
2840,Rumst,Wilgenveld,17,51.1058258636,4.41292251106
2840,Rumst,Kloosterstraat,10,51.0800731864,4.39600476601
2840,Rumst,Veldstraat,58,51.0801935559,4.39885602785
2840,Rumst,Ontvoogdingstraat,25,51.0769616588,4.40068321583
2840,Rumst,Kerkhofstraat,48,51.0827526916,4.43294328918
2840,Rumst,Nieuwstraat,106,51.0800128043,4.40238392172
2840,Rumst,Quinten Matsijslaan,2A,51.1013014537,4.39925126195
2840,Rumst,Priester Daensstraat,2,51.086957886,4.43700173999
2840,Rumst,Doelhaagstraat,37,51.0811517613,4.4285788569
2840,Rumst,Bussestraat,17,51.0857261926,4.44986291513
2840,Rumst,Weivelden,11,51.0865385085,4.43754317841
2840,Rumst,Antwerpsesteenweg,81,51.0940075979,4.45115339606
2840,Rumst,Borzestraat,8,51.1119442962,4.4210388048
2840,Rumst,Beekvelden,55,51.1035007284,4.4172264671
2840,Rumst,Dennenlaan,10,51.1023557858,4.41351981383
2840,Rumst,Tuinwijk,22,51.0798349936,4.42362984742
2840,Rumst,Varenstraat,51,51.0794905238,4.45754968262
2840,Rumst,Kerkstraat,124,51.0811893471,4.43262174599
2840,Rumst,Leliënlaan,19,51.1092653745,4.3888478299
2840,Rumst,Eikenstraat,75,51.1042755632,4.410759256
2840,Rumst,Doelhaagstraat,19,51.079926604,4.42711401131
2840,Rumst,Varenlaan,13,51.1094873179,4.39461613921
2840,Rumst,Netestraat,9,51.0778530618,4.44583841382
2840,Rumst,Jan Van Eycklei,9,51.1018285368,4.40375737934
2840,Rumst,Veerstraat,103,51.0751896418,4.42048150588
2840,Rumst,Veerstraat,39,51.0766593358,4.42320941567
2840,Rumst,Pierstraat,87,51.1167749253,4.39349262178
2840,Rumst,Steenweg op Waarloos,17,51.1012375315,4.41892257944
2840,Rumst,Kazernestraat,2,51.0773783144,4.42424764612
2840,Rumst,Oude Baan,42,51.0783805909,4.40213072163
2840,Rumst,Quinten Matsijslaan,7,51.1023029274,4.39878336002
2840,Rumst,Korte Nieuwstraat,38,51.0808992443,4.40158885276
2840,Rumst,Herderstraat,2,51.0883471814,4.46357815742
2840,Rumst,Guido Gezellestraat,5,51.0845704237,4.43990576555
2840,Rumst,Azalealaan,12,51.1084526765,4.38740259199
2840,Rumst,Jeroen Boschlaan,19,51.1030086446,4.40010546278
2840,Rumst,Eikenstraat,208,51.1147226632,4.40630534796
2840,Rumst,Tuinwijk,57,51.0806230917,4.42522763637
2840,Rumst,Ekkersgatstraat,28,51.0815472338,4.43037532824
2840,Rumst,Hof ten Eikenlaan,47,51.0857264311,4.43573300687
2840,Rumst,Pierstraat,34,51.1164484611,4.39943745953
2840,Rumst,Netestraat,54,51.0764057271,4.45103337376
2840,Rumst,Pierstraat,131,51.1114493682,4.38293598022
2840,Rumst,Eikenstraat,226,51.115447306,4.40498852011
2840,Rumst,Molenveld,1,51.0776774058,4.42245504839
2840,Rumst,Populierenlaan,1,51.0762239601,4.40126402076
2840,Rumst,Pierstraat,69,51.1160600089,4.39450105466
2840,Rumst,Bussestraat,3,51.0844559983,4.44571395834
2840,Rumst,Wilgenveld,3,51.1063122642,4.41143247713
2840,Rumst,Hollebeekstraat,70,51.082181915,4.42183964895
2840,Rumst,Uitbreidingstraat,32,51.0782756054,4.39707562701
2840,Rumst,Albert Servaeslaan,26,51.1078487621,4.36605188759
2840,Rumst,James Ensorlaan,9,51.1022431742,4.40554502746
2840,Rumst,'s Herenbaan,106,51.103922683,4.38090033163
2840,Rumst,Molenstraat,71,51.0998904087,4.40865164798
2840,Rumst,Jeroen Boschlaan,5,51.10175643,4.40005720544
2840,Rumst,Jacob Jordaenslaan,19,51.1028999655,4.40141917175
2840,Rumst,Steenberghoekstraat,20,50.978726956,4.67329385377
2840,Rumst,Gladiolenlaan,12,51.1068185075,4.39143469223
2840,Rumst,Laarstraat,13,51.1015669776,4.41362897773
2840,Rumst,Zonnebloemlaan,24,51.1111996855,4.39376461487
2840,Rumst,Varenbroekstraat,6,51.1104923522,4.42543666471
2840,Rumst,Lode Zielenslaan,21,51.1087504422,4.36819254709
2840,Rumst,Ekkersgatstraat,5,51.0810328982,4.43070200777
2840,Rumst,Beukendreef,45,51.1035906266,4.40543874216
2840,Rumst,Netestraat,48,51.0764663056,4.45040178859
2840,Rumst,Eikenstraat,93,51.1052415422,4.41013433942
2840,Rumst,Steenweg op Waarloos,3,51.1010972336,4.41740125478
2840,Rumst,Haardorst,6,51.0785524511,4.42534468585
2840,Rumst,Clemenshoek,27,51.1038790559,4.39722843936
2840,Rumst,David Tenierslaan,24,51.1018420133,4.40551772259
2840,Rumst,Quinten Matsijslaan,41,51.104342349,4.40029241407
2840,Rumst,Kerkstraat,16,51.0774520972,4.42667952361
2840,Rumst,Varenbroekstraat,12,51.108880906,4.42767334531
2840,Rumst,Hoge Vosbergstraat,44,51.0881932149,4.46005877312
2840,Rumst,'s Herenbaan,116,51.1042169798,4.38000463883
2840,Rumst,Netestraat,46,51.0765142333,4.45024862277
2840,Rumst,Sint Janstraat,7,51.1118677182,4.38353058518
2840,Rumst,Vissersstraat,21,51.0759667654,4.42373626427
2840,Rumst,Predikherenhoevestraat,32,51.1060754132,4.38686903442
2840,Rumst,Antoine De Winterstraat,20,51.0799078946,4.42586991723
2840,Rumst,Tuinwijk,37,51.0804919412,4.42429976296
2840,Rumst,Boereweg,40,51.0809807457,4.40382337988
2840,Rumst,Ekkersgatstraat,13,51.0811524844,4.43029745609
2840,Rumst,Romeins Veld,17,51.0792058079,4.42141526433
2840,Rumst,Eikenstraat,6,51.1018975042,4.41242704667
2840,Rumst,Hoveniersstraat,52,51.0810408161,4.46441261535
2840,Rumst,Oude Brouwerijstraat,16,51.0786675225,4.39883661512
2840,Rumst,Louis Paul Boonstraat,17,51.0888623679,4.43619841604
2840,Rumst,Rumstsestraat,3,51.1003072351,4.41445734917
2840,Rumst,Haardorst,12,51.0786847813,4.42568446827
2840,Rumst,Tuinwijk,19,51.0803653561,4.42339644504
2840,Rumst,Hortensialaan,15,51.1079376832,4.39283384952
2840,Rumst,Kromhoutstraat,5,51.0867324869,4.43600220957
2840,Rumst,Sint Jozefstraat,23,51.111633289,4.3842195088
2840,Rumst,Monnikenhofstraat,48,51.1039243693,4.39062542621
2840,Rumst,Doelhaagstraat,22,51.0798662199,4.42796300741
2840,Rumst,Predikherenhoevestraat,14,51.1042771059,4.38750194946
2840,Rumst,Varenstraat,8,51.0790509238,4.45854987366
2840,Rumst,Kardinaal Cardijnstraat,57,51.0805594029,4.39519521521
2840,Rumst,Begijnenbossen,27,51.1025613645,4.41397074018
2840,Rumst,Nijverheidsstraat,43,51.0787218694,4.41913397444
2840,Rumst,Ernest Claeslaan,10,51.1092839998,4.36614649636
2840,Rumst,'s Herenbaan,134,51.1044261022,4.37860734196
2840,Rumst,Lindenlaan,18,51.1038711236,4.41687191926
2840,Rumst,Felix Timmermanslaan,28,51.1090615434,4.36810901564
2840,Rumst,Gladiolenlaan,3,51.1069707294,4.39075897196
2840,Rumst,Polder,1,51.0820760351,4.38779354896
2840,Rumst,Korte Veerstraat,19,51.0801865481,4.39478915391
2840,Rumst,Molenstraat,96,51.0998115566,4.40156329918
2840,Rumst,Herderstraat,18,51.091336849,4.46089968
2840,Rumst,Begonialaan,10,51.1089977938,4.39337187345
2840,Rumst,Jacob Jordaenslaan,22,51.1033461442,4.40213364007
2840,Rumst,Kerkstraat,34,51.0776574065,4.42739097027
2840,Rumst,Clemenshoek,40,51.1045720104,4.39895604049
2840,Rumst,Lage Vosbergstraat,75,51.0875939742,4.46034604122
2840,Rumst,Kerkhofstraat,46,51.0827877742,4.43273226953
2840,Rumst,Molenstraat,125,51.0996868597,4.40437190357
2840,Rumst,Molenstraat,178,51.1019680763,4.39316662071
2840,Rumst,Beekvelden,17,51.101664518,4.41564680948
2840,Rumst,Rozenlaan,23,51.1064000628,4.38914197203
2840,Rumst,Boereweg,3,51.0804129599,4.40339226846
2840,Rumst,Tiburstraat,35,51.0836305574,4.44033460063
2840,Rumst,Schensbossen,8,51.1050466193,4.40158361343
2840,Rumst,'s Herenbaan,270,51.1070106367,4.36274661549
2840,Rumst,Schanshoeveweg,14,51.1102256863,4.42233299717
2840,Rumst,Nieuwstraat,69,51.0800157372,4.40429755314
2840,Rumst,Beekvelden,81,51.1020061293,4.41794887581
2840,Rumst,'s Herenbaan,252,51.1063209526,4.36331667943
2840,Rumst,Morenhoevestraat,9,51.0951739645,4.43300206568
2840,Rumst,Korte Veerstraat,37,51.0801157901,4.39485832392
2840,Rumst,Kapellenlei,2,51.0822947014,4.44574119488
2840,Rumst,Abel Fransplein,4,51.0794223475,4.42469503982
2840,Rumst,Doornlaarlei,10,51.0834423876,4.46159899684
2840,Rumst,Priester Daensstraat,16,51.0870060365,4.43872190903
2840,Rumst,Nieuwstraat,34,51.0812702121,4.41411138298
2840,Rumst,Beemdstraat,11,51.0788754319,4.40116943905
2840,Rumst,Veerstraat,59,51.0762647949,4.42267200712
2840,Rumst,Leliënlaan,22,51.1096339381,4.38818943677
2840,Rumst,Romeins Veld,4,51.0791262364,4.42086107347
2840,Rumst,Molenbergstraat,27,51.0778556233,4.42291130916
2840,Rumst,Karl Marxstraat,21,51.0778516718,4.3999326898
2840,Rumst,Veerstraat,50,51.076528386,4.42220100636
2840,Rumst,Kerkhofstraat,11,51.0821886592,4.43024118079
2840,Rumst,Dennenlaan,1,51.1019959035,4.41297580042
2840,Rumst,Pierstraat,151,51.1108587631,4.38181555909
