PKANCODE,COMMUNE_NL,STREET_NL,HUISNR,LAT,LON
2920,Kalmthout,Brasschaatsteenweg,38A,51.3947480184,4.50072300885
2920,Kalmthout,Prins Albertlei,41,51.3532433144,4.47319525001
2920,Kalmthout,Watertorendreef,1,51.4004635182,4.46773329273
2920,Kalmthout,Statiestraat,60,51.3930505649,4.46949177223
2920,Kalmthout,Zandstraat,37,51.393918571,4.50697959911
2920,Kalmthout,Molenbaan,17,51.3782220289,4.47606882441
2920,Kalmthout,Canadezenlaan,78,51.36207307,4.44680538865
2920,Kalmthout,Foxemaatstraat,110,51.3823590303,4.48561147354
2920,Kalmthout,De Pleyte,15,51.369954837,4.46516735065
2920,Kalmthout,Brasschaatsteenweg,129,51.3865829603,4.50361737892
2920,Kalmthout,Boonsstraat,42,51.3996955317,4.46175755562
2920,Kalmthout,Kalmthoutsesteenweg,351,51.3969560288,4.50335771552
2920,Kalmthout,Handelaar,21,51.4050507318,4.48062789895
2920,Kalmthout,Withoefstraat,5,51.3598004793,4.46131723395
2920,Kalmthout,Zilverenhoeksteenweg,119,51.4310249035,4.5100256646
2920,Kalmthout,De Roerdomp,37,51.435220866,4.51933420961
2920,Kalmthout,Molenbaan,35,51.3775248713,4.47643371036
2920,Kalmthout,Rodeweg,80,51.3615294884,4.48198673279
2920,Kalmthout,Verbiststraat,2,51.3909252141,4.47403717284
2920,Kalmthout,Rodeweg,62,51.3641143357,4.47921218455
2920,Kalmthout,Boswachtersdreef,50,51.3593394896,4.47604375718
2920,Kalmthout,Culturalaan,9,51.3686535302,4.46073235967
2920,Kalmthout,Beauvoislaan,42,51.3681718068,4.47659841977
2920,Kalmthout,Cederlaan,5,51.4335365219,4.51223547305
2920,Kalmthout,Essensteenweg,84,51.4397813635,4.5052506999
2920,Kalmthout,Kerkstraat,10,51.4322260022,4.51956011133
2920,Kalmthout,Verbiststraat,26,51.3900303094,4.47127654312
2920,Kalmthout,Rodeweg,44,51.3661150764,4.4781055155
2920,Kalmthout,Kroonstraat,22,51.4274326459,4.51656742228
2920,Kalmthout,Zandstraat,19,51.393630086,4.50487174167
2920,Kalmthout,Statiestraat,42,51.3935107697,4.47050072923
2920,Kalmthout,Zwanenberg,24,51.4066843087,4.47960910642
2920,Kalmthout,Ijzerenwegstraat,81,51.3976236247,4.47073580511
2920,Kalmthout,Stofzandstraat,5,51.3817891787,4.50592687341
2920,Kalmthout,Roosendaalsebaan,3,51.3972264325,4.50003814237
2920,Kalmthout,Kalmthoutlaan,15,51.3693246423,4.46200188469
2920,Kalmthout,Geusenbacklaan,44,51.3638740319,4.44684462018
2920,Kalmthout,Kapellensteenweg,398,51.3731936214,4.47131741049
2920,Kalmthout,Beauvoislaan,60,51.3690627316,4.48191473786
2920,Kalmthout,Putsesteenweg,25,51.3846424567,4.45396302518
2920,Kalmthout,Jos Tilborghsstraat,16,51.4337592517,4.52154711136
2920,Kalmthout,Max Temmermanlaan,10,51.3665238944,4.45449654003
2920,Kalmthout,Cassenboomlaan,27,51.3889566452,4.4702220599
2920,Kalmthout,Emmanuel De Bomlaan,19A,51.3871020535,4.46807192589
2920,Kalmthout,De Roerdomp,19,51.435020896,4.52087602999
2920,Kalmthout,Canadezenlaan,114,51.3624711412,4.44031273409
2920,Kalmthout,Emmanuel De Bomlaan,23,51.3868610183,4.46826503939
2920,Kalmthout,Heikantstraat,214,51.3727297611,4.50512354855
2920,Kalmthout,Heuvelspad,6,51.3878324221,4.47435318013
2920,Kalmthout,Achterbroeksteenweg,16,51.3940125099,4.47602738677
2920,Kalmthout,Wilgendreef,15,51.3667064609,4.46282060935
2920,Kalmthout,Heikantstraat,159,51.3722988907,4.5005291104
2920,Kalmthout,Boomgaardstraat,24,51.4362614948,4.52091290098
2920,Kalmthout,Van Dammedreef,6,51.3585210478,4.47294505181
2920,Kalmthout,Kastanjedreef,2,51.3882907947,4.45192177346
2920,Kalmthout,Hertendreef,2,51.3601441985,4.47189023402
2920,Kalmthout,Schooldreef,76,51.3955008671,4.46941695468
2920,Kalmthout,Statielei,57,51.3588074427,4.45789641985
2920,Kalmthout,Kapellensteenweg,13,51.3933480034,4.47468258114
2920,Kalmthout,Bosweg,22,51.4496784101,4.51002549689
2920,Kalmthout,Begonialaan,5,51.3679976934,4.4705573533
2920,Kalmthout,Gomarus Van Geelstraat,49,51.3741453832,4.4792281357
2920,Kalmthout,Gomarus Van Geelstraat,14,51.3733863324,4.47858585236
2920,Kalmthout,Zijwegel,6,51.4010695101,4.4595345984
2920,Kalmthout,Canadezenlaan,132,51.3625375358,4.43672519208
2920,Kalmthout,Bareelstraat,12,51.3752503313,4.47108014418
2920,Kalmthout,Dorpsstraat,53,51.3960294793,4.47227273848
2920,Kalmthout,Kapellensteenweg,273,51.3773778855,4.474486811
2920,Kalmthout,Bakkersdreef,5,51.3670611536,4.47504268837
2920,Kalmthout,Antoine De Preterlaan,47,51.3698975679,4.46046244675
2920,Kalmthout,Meester Vorsselmanslaan,25,51.3876524802,4.46932513512
2920,Kalmthout,Duinzichtlei,4,51.3888335611,4.4551719788
2920,Kalmthout,Hazendreef,25,51.3657537483,4.45093851382
2920,Kalmthout,Statielei,5,51.3637998034,4.46063912299
2920,Kalmthout,Heiken,96,51.3884817115,4.50887143527
2920,Kalmthout,Lijsterbeslaan,13,51.3548566187,4.48337411074
2920,Kalmthout,Kneuterlaan,12,51.3807702629,4.47089590353
2920,Kalmthout,Driehoekstraat,46,51.3814012899,4.47801906219
2920,Kalmthout,René Willemestraat,1A,51.3983864501,4.46568556415
2920,Kalmthout,Achtzalighedenlaan,2,51.3965313665,4.46214455228
2920,Kalmthout,Kapellensteenweg,220,51.3799973894,4.47467794101
2920,Kalmthout,Brasschaatsteenweg,23,51.3953065297,4.50119311326
2920,Kalmthout,Sparrendreef,13,51.3599833208,4.48224953655
2920,Kalmthout,Thillostraat,3,51.3702239079,4.47095427144
2920,Kalmthout,Turfvaartlaan,14,51.4154174354,4.46887573014
2920,Kalmthout,Koningin Elisabethlaan,2,51.370939116,4.46922883783
2920,Kalmthout,Kerkeneind,3,51.3830586194,4.47568737683
2920,Kalmthout,Schooldreef,6,51.3971640321,4.47244180465
2920,Kalmthout,Merellaan,12,51.3589655404,4.45965775124
2920,Kalmthout,Bloemstraat,70,51.3960326885,4.50657817898
2920,Kalmthout,Meidoornlaan,10,51.3540032026,4.47494804589
2920,Kalmthout,Essensteenweg,66,51.4373748777,4.50762061082
2920,Kalmthout,Prins Boudewijnlaan,8,51.3702724244,4.46845772837
2920,Kalmthout,Albert Peeterslei,34,51.3947324044,4.46783894647
2920,Kalmthout,Eikelstraat,15,51.3758328802,4.47154070087
2920,Kalmthout,Heuvel,23,51.3901283877,4.46440936669
2920,Kalmthout,Missiehuislei,10,51.3579938104,4.46503398096
2920,Kalmthout,Withoeflei,50,51.3617402803,4.46092488198
2920,Kalmthout,Tulpenlaan,7,51.3756077046,4.4676918976
2920,Kalmthout,Bareelstraat,40,51.3747692393,4.46980025874
2920,Kalmthout,Holleweg,71,51.4300165486,4.50192889203
2920,Kalmthout,Driehoekstraat,11,51.3816866287,4.47608793769
2920,Kalmthout,Kauwenberg,7,51.398963772,4.46737029537
2920,Kalmthout,Kapellensteenweg,255,51.3780309338,4.47499312025
2920,Kalmthout,Kinderwelzijnstraat,18,51.3759130498,4.46494370632
2920,Kalmthout,Kapellensteenweg,327,51.3756901369,4.47339811795
2920,Kalmthout,Hollekelderstraat,17,51.3728119163,4.47405991199
2920,Kalmthout,Esdoornlaan,13,51.3571082027,4.48509055238
2920,Kalmthout,Meester Vorsselmanslaan,1,51.3874665138,4.47017525822
2920,Kalmthout,Heidestatiestraat,23,51.3655952649,4.46540763815
2920,Kalmthout,Hazendreef,1,51.3643168279,4.44757171408
2920,Kalmthout,Salvialaan,12,51.3769356542,4.46854421889
2920,Kalmthout,Rozendreef,5,51.3791390742,4.45589904947
2920,Kalmthout,Vuurkruiserslaan,24,51.3909926986,4.47026101536
2920,Kalmthout,Kapellensteenweg,438,51.3710833561,4.46956171888
2920,Kalmthout,Putsesteenweg,96,51.3823526843,4.42546126548
2920,Kalmthout,Schaliënberglaan,30,51.389891682,4.47203874835
2920,Kalmthout,Boswachtersdreef,22,51.3633435389,4.47289190077
2920,Kalmthout,Statiestraat,14,51.3939617033,4.47355764696
2920,Kalmthout,Kievitstraat,4,51.3869816529,4.45087482716
2920,Kalmthout,Kijkuitstraat,11,51.3796531296,4.4732988113
2920,Kalmthout,Vogelenzangstraat,80,51.3827221574,4.46061578408
2920,Kalmthout,Standaertlei,22,51.3884631436,4.4650612404
2920,Kalmthout,Kapellensteenweg,403,51.3729452485,4.4716716972
2920,Kalmthout,Guido Gezellelaan,3,51.3667212727,4.46022008326
2920,Kalmthout,Ganzendries,2,51.3779268399,4.47390742637
2920,Kalmthout,Kapellensteenweg,309,51.3762771053,4.47373032945
2920,Kalmthout,Beeklei,22,51.3624133784,4.45524564651
2920,Kalmthout,Albert Peeterslei,16,51.3938749416,4.46798407478
2920,Kalmthout,Rodeweg,34,51.367576783,4.4774120166
2920,Kalmthout,Cassenboomlaan,3,51.3879743187,4.47111554281
2920,Kalmthout,Schooldreef,41,51.3950835615,4.46973786407
2920,Kalmthout,Kapellensteenweg,291,51.3767744238,4.47400705381
2920,Kalmthout,Canadezenlaan,8,51.3642478846,4.45837714084
2920,Kalmthout,Achterbroeksteenweg,151,51.3961834819,4.49239248721
2920,Kalmthout,Wipstraat,32,51.375511795,4.47493189016
2920,Kalmthout,Boomgaardstraat,7,51.4361952235,4.51925297684
2920,Kalmthout,Riethoek,2,51.4257964875,4.52755905019
2920,Kalmthout,Prelaat Deckersstraat,9,51.4342716715,4.51778564878
2920,Kalmthout,Foxemaatstraat,56,51.3798029108,4.47868412922
2920,Kalmthout,Frans Raatsstraat,88,51.4004630106,4.46104929385
2920,Kalmthout,Dorpsstraat,1,51.3941084602,4.47417703981
2920,Kalmthout,Bezemheidelaan,14,51.3749222334,4.47647345139
2920,Kalmthout,Bareelstraat,29,51.3742450282,4.46953372861
2920,Kalmthout,Achterstraat,36,51.4001415757,4.50142939798
2920,Kalmthout,Koninglaan,21,51.3701431686,4.47604215121
2920,Kalmthout,Nieuwmoer-Dorp,54,51.4326308766,4.51737300963
2920,Kalmthout,Wipstraat,49,51.3766224623,4.47528270509
2920,Kalmthout,Leopoldstraat,38,51.3692419545,4.46654475348
2920,Kalmthout,Emmanuel De Bomlaan,6,51.3880407053,4.46821486519
2920,Kalmthout,Foxemaatstraat,74,51.3802514103,4.4803971928
2920,Kalmthout,Jos Tilborghsstraat,34,51.4344110529,4.52257076226
2920,Kalmthout,Kapellaan,41,51.3953176874,4.46879474963
2920,Kalmthout,Bevrijdingslei,52,51.3605264511,4.45767592762
2920,Kalmthout,Jos Tilborghsstraat,69,51.4364662266,4.5268104409
2920,Kalmthout,Achterbroeksteenweg,69,51.3951087676,4.48243214611
2920,Kalmthout,Frans Raatsstraat,35,51.3998351385,4.46725448113
2920,Kalmthout,Warandalei,7,51.3937596596,4.46611531279
2920,Kalmthout,Wipstraat,14,51.3747445705,4.47385594703
2920,Kalmthout,Kalmthoutsesteenweg,323,51.3967352377,4.50582526275
2920,Kalmthout,Kempenlaan,30,51.4343525321,4.51102340267
2920,Kalmthout,Eikenlaan,23,51.360619793,4.45433912706
2920,Kalmthout,Koningin Astridlaan,33,51.3702840506,4.4582359449
2920,Kalmthout,Foxemaatstraat,21,51.3798784624,4.47746265483
2920,Kalmthout,Putsesteenweg,1,51.3877723241,4.45597340649
2920,Kalmthout,Pastorijdreef,13,51.4351348956,4.50762724749
2920,Kalmthout,Pastoor De Keyserlaan,22,51.3955142614,4.46221159779
2920,Kalmthout,Foxemaatstraat,92,51.3811959492,4.48347581748
2920,Kalmthout,Roosendaalsebaan,20,51.3981498295,4.50036361343
2920,Kalmthout,Vermeirenplein,9,51.3594191518,4.50351289957
2920,Kalmthout,Statiestraat,32,51.3938498237,4.47231698206
2920,Kalmthout,Achterstraat,18,51.4015592372,4.50044071647
2920,Kalmthout,Bloemenlei,16,51.3768764392,4.46583755379
2920,Kalmthout,Jeroom Beckersstraat,11,51.4375172717,4.52590550045
2920,Kalmthout,Korenlaan,9,51.375629392,4.47647668091
2920,Kalmthout,Beauvoislaan,95,51.3705014553,4.4840995942
2920,Kalmthout,Vinkenlaan,16,51.3557057442,4.47967009509
2920,Kalmthout,Petrus Janssensstraat,10,51.402362658,4.45871968095
2920,Kalmthout,Guido Gezellelaan,27,51.3679697289,4.45899834631
2920,Kalmthout,Bosweg,50,51.4504458033,4.50939005327
2920,Kalmthout,Pastoor Weytslaan,23,51.3929347188,4.47269434215
2920,Kalmthout,Jos Tilborghsstraat,87,51.4372144771,4.53031079833
2920,Kalmthout,Frans Raatsstraat,17,51.3998856044,4.46890796634
2920,Kalmthout,Cuylitshofstraat,16,51.3789200309,4.4611009695
2920,Kalmthout,Gomarus Van Geelstraat,39,51.3739187024,4.47788561187
2920,Kalmthout,Ijzerenwegstraat,10,51.3971034879,4.4667289716
2920,Kalmthout,Beauvoislaan,32,51.3678117614,4.47490686138
2920,Kalmthout,Ijzerenwegstraat,63,51.3968108242,4.46847141471
2920,Kalmthout,Kapellensteenweg,574,51.3586914249,4.46216429315
2920,Kalmthout,Brasschaatsteenweg,112,51.3881590002,4.50232310953
2920,Kalmthout,Koningin Astridlaan,15,51.3686738289,4.45554284356
2920,Kalmthout,Middendreef,19,51.3636120865,4.47591011072
2920,Kalmthout,Voetbooglaan,9,51.3912587634,4.47219408567
2920,Kalmthout,Kauwenberg,14,51.3988462093,4.46822983274
2920,Kalmthout,Putsesteenweg,159,51.3636432268,4.43593689021
2920,Kalmthout,Max Temmermanlaan,35,51.3676080284,4.44479812001
2920,Kalmthout,Roosendaalsebaan,98,51.4053248903,4.49826287849
2920,Kalmthout,Eikelstraat,43,51.3752755905,4.4688791142
2920,Kalmthout,Thillostraat,20,51.3705119293,4.472541045
2920,Kalmthout,Frans Raatsstraat,45,51.3998589797,4.46538002532
2920,Kalmthout,Heiken,53,51.3929701519,4.50838150172
2920,Kalmthout,Kinderwelzijnstraat,82,51.3784138746,4.45513205064
2920,Kalmthout,Statiestraat,49,51.3928758026,4.4701678988
2920,Kalmthout,Korenlaan,16,51.3755604134,4.47553516102
2920,Kalmthout,Bevrijdingslei,24,51.3630516666,4.45852599636
2920,Kalmthout,Kruisbeklaan,12,51.3565840996,4.48281079625
2920,Kalmthout,Roosendaalsebaan,108,51.4061681508,4.49806750609
2920,Kalmthout,Hollekelderstraat,63,51.3713893973,4.48099151265
2920,Kalmthout,Kinderwelzijnstraat,64,51.3773424511,4.45765005109
2920,Kalmthout,Albert Peeterslei,44,51.3953344979,4.46793994713
2920,Kalmthout,Darm,24,51.4256603731,4.50583203932
2920,Kalmthout,Zandstraat,30,51.3931990917,4.50403894551
2920,Kalmthout,Heiken,71,51.3918782419,4.50859872121
2920,Kalmthout,Maatjesstraat,18,51.4339994131,4.52720619736
2920,Kalmthout,Kapellensteenweg,484,51.3659939438,4.46684785981
2920,Kalmthout,Holleweg,78,51.4308867733,4.50535395471
2920,Kalmthout,Dennendreef,9,51.3635513219,4.45035340676
2920,Kalmthout,Cederlaan,12,51.4336842074,4.5114770121
2920,Kalmthout,Kapellensteenweg,381,51.3739876923,4.47234881866
2920,Kalmthout,Franseweg,8,51.3695307463,4.49151147647
2920,Kalmthout,Pastoor Hensstraatje,3,51.3767397021,4.48152252747
2920,Kalmthout,Minnedreef,20,51.3633524724,4.45308321077
2920,Kalmthout,Kapellensteenweg,120,51.3857906798,4.47434204496
2920,Kalmthout,Kinderwelzijnstraat,46,51.3756570865,4.46168538969
2920,Kalmthout,Achterbroeksteenweg,115,51.3957980879,4.48766939095
2920,Kalmthout,Kapellensteenweg,227,51.3795407495,4.47524290593
2920,Kalmthout,Holleweg,96,51.4304575012,4.50262634292
2920,Kalmthout,Distelvinklaan,7,51.3799080174,4.47001200807
2920,Kalmthout,Max Temmermanlaan,17,51.3662197619,4.4519703955
2920,Kalmthout,Vogelenzangstraat,13A,51.3855738617,4.47225086522
2920,Kalmthout,Brasschaatsteenweg,130,51.3864256855,4.50265997055
2920,Kalmthout,Kapelstraat,68,51.4027622979,4.50860234436
2920,Kalmthout,Heikantstraat,142,51.3709615009,4.49092467028
2920,Kalmthout,Beauvoislaan,49,51.3687842385,4.47728390499
2920,Kalmthout,Putsesteenweg,8,51.3878243144,4.45518660575
2920,Kalmthout,Withoeflei,39,51.3623892518,4.46211937691
2920,Kalmthout,Maatjesstraat,4,51.4352785108,4.52444369458
2920,Kalmthout,Zwanenberg,7,51.399136532,4.4755045131
2920,Kalmthout,Molenstraat,34,51.3938108816,4.4715240036
2920,Kalmthout,Driehoekstraat,36,51.381498584,4.47748298677
2920,Kalmthout,Culturalaan,2,51.369095662,4.46116601938
2920,Kalmthout,Withoeflei,5,51.3641604326,4.46150989996
2920,Kalmthout,Verbiststraat,9,51.3901072065,4.4726546456
2920,Kalmthout,Missiehuislei,35,51.3561773809,4.47302976968
2920,Kalmthout,Zilverenhoeksteenweg,120,51.430517251,4.50997781484
2920,Kalmthout,Van den Bogaertlei,13,51.3935978625,4.46881903461
2920,Kalmthout,Kapellensteenweg,209,51.3802849718,4.47520699323
2920,Kalmthout,Canadezenlaan,1,51.3639181494,4.45916141528
2920,Kalmthout,Canadezenlaan,53,51.3623056857,4.45316700631
2920,Kalmthout,Korte Heuvelstraat,22,51.3880916322,4.45379946759
2920,Kalmthout,Zilverenhoeksteenweg,76,51.4287956016,4.50553151236
2920,Kalmthout,Hortensiadreef,1,51.3650540138,4.47032386693
2920,Kalmthout,Bakkersdreef,40,51.3600567704,4.47948974872
2920,Kalmthout,Eekhoornlaan,15,51.3693633202,4.46409665549
2920,Kalmthout,Prins Boudewijnlaan,15,51.3707895098,4.46563907959
2920,Kalmthout,Van Geertenlaan,3,51.3969923657,4.46246085387
2920,Kalmthout,Brasschaatsteenweg,86,51.3906196843,4.50175430486
2920,Kalmthout,Heibloemlaan,68,51.3748301465,4.4544196509
2920,Kalmthout,Kapellensteenweg,94,51.3880419704,4.47510479434
2920,Kalmthout,Bezemheidelaan,49,51.3736559979,4.47492273977
2920,Kalmthout,Stofzandstraat,12,51.3823966584,4.51243068669
2920,Kalmthout,Korte Heuvelstraat,50,51.387936139,4.45204668115
2920,Kalmthout,Kerkstraat,3,51.4331977634,4.5184108244
2920,Kalmthout,Kijkuitstraat,117,51.3752730639,4.45852322131
2920,Kalmthout,Dr. J. Goossenaertsstraat,16,51.3914237586,4.5035513437
2920,Kalmthout,Kievitstraat,21,51.386306382,4.45179954269
2920,Kalmthout,Missiehuislei,3,51.3592144042,4.46476563184
2920,Kalmthout,Canadezenlaan,71,51.3617619124,4.45140545335
2920,Kalmthout,Antoine De Preterlaan,63,51.3705778832,4.46203112643
2920,Kalmthout,Nieuwmoer-Dorp,26,51.4323974466,4.51530275688
2920,Kalmthout,Meester Vorsselmanslaan,8,51.3879182425,4.47027565522
2920,Kalmthout,Bareelstraat,57,51.3743548372,4.46754373903
2920,Kalmthout,Hertendreef,9,51.3610265846,4.47346796773
2920,Kalmthout,Bremlaan,13,51.432695665,4.51236514423
2920,Kalmthout,Achterbroeksteenweg,168,51.3961062489,4.49505094702
2920,Kalmthout,Kijkuitstraat,135,51.3748147186,4.45681311915
2920,Kalmthout,Meidoornlaan,3,51.3534979111,4.47393678514
2920,Kalmthout,Kapellensteenweg,466,51.3680651373,4.46734605486
2920,Kalmthout,Brasschaatsteenweg,6,51.3964448225,4.50007083425
2920,Kalmthout,Beeklei,5,51.3612545087,4.45714570985
2920,Kalmthout,Driehoekstraat,4,51.3812992744,4.47547231337
2920,Kalmthout,Dr. J. Goossenaertsstraat,2,51.3914720176,4.50276639035
2920,Kalmthout,Standaertlei,39,51.3876594759,4.46613231568
2920,Kalmthout,Bakkersdreef,12,51.364902312,4.47549429223
2920,Kalmthout,Achterbroeksteenweg,133,51.3960270641,4.49060765455
2920,Kalmthout,Meidoornlaan,17,51.3550174895,4.47721481357
2920,Kalmthout,Kastanjedreef,9,51.3896030438,4.45237822843
2920,Kalmthout,Withoeflei,67,51.3606376243,4.46175520189
2920,Kalmthout,Karel Vanthillostraat,20,51.3872398121,4.50609071624
2920,Kalmthout,Holleweg,47,51.4304762623,4.50516137013
2920,Kalmthout,Standaertlei,5,51.3897677708,4.46488554733
2920,Kalmthout,Kapellensteenweg,76,51.3899634185,4.47475669546
2920,Kalmthout,Heikantstraat,96,51.3750276592,4.48389261291
2920,Kalmthout,Achtzalighedenlaan,9,51.3966482651,4.46104438638
2920,Kalmthout,Heiken,8,51.3955937989,4.50728502615
2920,Kalmthout,Verbiststraat,54,51.3887199647,4.4684701591
2920,Kalmthout,Kapellensteenweg,310,51.3766653142,4.47329750188
2920,Kalmthout,Kapellensteenweg,298,51.3770559504,4.47367293166
2920,Kalmthout,Prins Boudewijnlaan,1,51.3698216412,4.46850859111
2920,Kalmthout,Jos Tilborghsstraat,44,51.4347647535,4.52316163353
2920,Kalmthout,Rodeweg,16,51.3691459737,4.47464428819
2920,Kalmthout,Hortensiadreef,33,51.3615868773,4.4730754364
2920,Kalmthout,Canadezenlaan,15,51.3632690031,4.45768408666
2920,Kalmthout,Verbiststraat,48,51.3892448783,4.46896660433
2920,Kalmthout,Hertendreef,26,51.3612840195,4.4784812738
2920,Kalmthout,Geusenbacklaan,16,51.3664502128,4.44438212055
2920,Kalmthout,Duffelaarstraat,9,51.3972636083,4.51026111787
2920,Kalmthout,Guido Gezellelaan,20,51.3688865914,4.45921609762
2920,Kalmthout,Bakkersdreef,29,51.3646122724,4.47716957835
2920,Kalmthout,Ericalaan,56,51.3655887911,4.44343911879
2920,Kalmthout,Azalealaan,5,51.3928069327,4.4674430426
2920,Kalmthout,Vuurkruiserslaan,7,51.3916386695,4.47086106358
2920,Kalmthout,Koninglaan,28,51.3696267294,4.47633574355
2920,Kalmthout,Pastoor Weytslaan,6,51.3912235478,4.47319487
2920,Kalmthout,Boswachtersdreef,5,51.3655949753,4.47230572252
2920,Kalmthout,Dr. J. Goossenaertsstraat,54,51.3918255362,4.5064893503
2920,Kalmthout,Kapellensteenweg,41,51.3919707005,4.47480497866
2920,Kalmthout,Statielei,29,51.3618255381,4.45958514313
2920,Kalmthout,Canadezenlaan,33,51.3626880564,4.45632738347
2920,Kalmthout,Groeneweg,27,51.395963435,4.4757787709
2920,Kalmthout,Lindendreef,38,51.3936651169,4.46015860883
2920,Kalmthout,Max Temmermanlaan,3,51.3649124444,4.4580255215
2920,Kalmthout,Veldlaan,6,51.3844544808,4.46907829126
2920,Kalmthout,Antoine De Preterlaan,25,51.3688048825,4.45781408401
2920,Kalmthout,Heidestatiestraat,6,51.3662708236,4.46635022372
2920,Kalmthout,Kijkuitstraat,18,51.3799324878,4.47338059091
2920,Kalmthout,Rozendreef,12,51.3783940304,4.45632289396
2920,Kalmthout,Zilverenhoeksteenweg,41,51.4279731772,4.50236135809
2920,Kalmthout,Zilverenhoeksteenweg,140,51.431125244,4.51148952171
2920,Kalmthout,Kapellaan,13,51.3941187966,4.46891958195
2920,Kalmthout,Heikantstraat,106,51.3741981739,4.48499113493
2920,Kalmthout,Heuvel,51,51.3887660486,4.4594922718
2920,Kalmthout,Eekhoornlaan,1,51.3691626675,4.46503474184
2920,Kalmthout,Schaliënberglaan,19,51.3897312511,4.47152382388
2920,Kalmthout,Antoine De Preterlaan,45,51.3698654225,4.46019142538
2920,Kalmthout,Darm,59,51.4240078127,4.5054490477
2920,Kalmthout,Roosendaalsebaan,27,51.3983820341,4.49983251543
2920,Kalmthout,Ganzendries,9,51.3773864811,4.47280667955
2920,Kalmthout,Hortensiadreef,15,51.3633096442,4.47167634851
2920,Kalmthout,Brasschaatsteenweg,302,51.3611625695,4.50481121251
2920,Kalmthout,Brasschaatsteenweg,150,51.3836285742,4.50307544479
2920,Kalmthout,Dorpsstraat,8,51.3942835104,4.47461289494
2920,Kalmthout,Korenlaan,2,51.3764307998,4.47690838139
2920,Kalmthout,Jos Tilborghsstraat,80,51.436755063,4.53061677784
2920,Kalmthout,Jubilélaan,1,51.3986988373,4.46147393053
2920,Kalmthout,Achterstraat,11,51.4028417517,4.50014721363
2920,Kalmthout,Pastoor De Keyserlaan,39,51.3971483158,4.46379117966
2920,Kalmthout,Kempenlaan,37,51.4335088489,4.51051481126
2920,Kalmthout,Pastoor Celensstraat,22,51.3934722648,4.51089542826
2920,Kalmthout,Prelaat Deckersstraat,16,51.4345717815,4.51820145703
2920,Kalmthout,Middendreef,30,51.362081065,4.47594101466
2920,Kalmthout,Putsesteenweg,139,51.3663357358,4.44061351303
2920,Kalmthout,Heidestatiestraat,51,51.3651765334,4.46362367608
2920,Kalmthout,Molenstraat,16,51.3943860038,4.47255394387
2920,Kalmthout,Ijzerenwegstraat,17,51.3990891167,4.46654812749
2920,Kalmthout,Frans Raatsstraat,63,51.4000357737,4.46304307278
2920,Kalmthout,Vogelenzangstraat,34,51.384814291,4.4679821111
2920,Kalmthout,Cuylitshofstraat,62,51.3841659398,4.45356872555
2920,Kalmthout,Eikenlaan,6,51.3602530523,4.45658246333
2920,Kalmthout,Frans Raatsstraat,10,51.4001470813,4.46866757386
2920,Kalmthout,Pastoor De Keyserlaan,50,51.3976281903,4.46520509325
2920,Kalmthout,Roosendaalsebaan,197,51.4161961768,4.49130353084
2920,Kalmthout,Kruisbos,17,51.3899165137,4.48522678689
2920,Kalmthout,Foxemaatstraat,28,51.3793336572,4.47673953312
2920,Kalmthout,Molenstraat,2,51.3947105306,4.47349182353
2920,Kalmthout,Kapellensteenweg,538,51.3622928103,4.46413976167
2920,Kalmthout,Oudstrijderslaan,9,51.383189569,4.46862108665
2920,Kalmthout,Irisdreef,7,51.3797166381,4.4554013418
2920,Kalmthout,Watertorendreef,8,51.4009097584,4.46837337313
2920,Kalmthout,Meidoornlaan,20,51.3545409664,4.47758805848
2920,Kalmthout,Ijzerenwegstraat,73,51.3971637259,4.46989730061
2920,Kalmthout,Dorpsstraat,45,51.3958171109,4.47317667672
2920,Kalmthout,Withoeflei,14,51.3636030295,4.46102178201
2920,Kalmthout,Kapellensteenweg,247,51.3783420708,4.47511591148
2920,Kalmthout,Missiehuislei,20,51.3575321605,4.4669233315
2920,Kalmthout,Verbiststraat,36,51.3896799562,4.4701455034
2920,Kalmthout,Zwanenberg,34,51.4085384462,4.47944211294
2920,Kalmthout,Heidestatiestraat,41,51.3651821032,4.46418306431
2920,Kalmthout,Achterbroeksteenweg,2,51.3938404385,4.47498612801
2920,Kalmthout,Brasschaatsteenweg,119,51.3877386273,4.50320704761
2920,Kalmthout,Kapellensteenweg,129,51.3846399817,4.47553145906
2920,Kalmthout,Godfried Hermansstraat,2,51.3990250322,4.46995784875
2920,Kalmthout,Distelvinklaan,16,51.3799856058,4.46893270816
2920,Kalmthout,Foxemaatstraat,100,51.3818176445,4.48456965778
2920,Kalmthout,Gomarus Van Geelstraat,22,51.3736172022,4.47909648038
2920,Kalmthout,Dennendreef,18,51.3632468194,4.4509896059
2920,Kalmthout,Holleweg,43,51.4305804825,4.50565886794
2920,Kalmthout,Middendreef,12,51.3646970615,4.47395928039
2920,Kalmthout,Molenbaan,1,51.3786924901,4.47612420596
2920,Kalmthout,Geusenbacklaan,52,51.3623760754,4.44703905721
2920,Kalmthout,Withoeflei,32,51.362690444,4.46153982204
2920,Kalmthout,Wilgendreef,25,51.366957657,4.46227450222
2920,Kalmthout,Cuylitshofstraat,24,51.3786834944,4.45968613684
2920,Kalmthout,Kalmthoutsesteenweg,341,51.3969005377,4.50417592876
2920,Kalmthout,Kapelstraat,53,51.4042388286,4.5098625904
2920,Kalmthout,Kapellensteenweg,582,51.3582544823,4.46107783967
2920,Kalmthout,Brasschaatsteenweg,137,51.3858075426,4.5037326148
2920,Kalmthout,Emmanuel De Bomlaan,13,51.387583286,4.46803949226
2920,Kalmthout,Heikantstraat,169,51.3731296429,4.50180479623
2920,Kalmthout,Prins Albertlei,51,51.3547290982,4.48699600844
2920,Kalmthout,Kempenlaan,3,51.4319820773,4.51078029512
2920,Kalmthout,Molenbaan,27,51.3779214524,4.4761940775
2920,Kalmthout,Cassenboomlaan,17,51.3885285875,4.47050051658
2920,Kalmthout,Koningin Elisabethlaan,18,51.3713981183,4.46796374743
2920,Kalmthout,Jos Tilborghsstraat,2,51.4329198252,4.52013809906
2920,Kalmthout,Kijkuitstraat,54,51.3791436012,4.4691761838
2920,Kalmthout,Karel Vanthillostraat,35,51.3876419479,4.50645706107
2920,Kalmthout,Kalmthoutlaan,25,51.3701475142,4.46263607314
2920,Kalmthout,Kinderwelzijnstraat,79,51.3761087038,4.45436386463
2920,Kalmthout,Heuvel,31,51.389893909,4.4635048684
2920,Kalmthout,Thillostraat,35,51.371585041,4.47379863901
2920,Kalmthout,Kijkuitstraat,110,51.3765486159,4.46027231746
2920,Kalmthout,Groendreef,5,51.357905894,4.47607459315
2920,Kalmthout,Max Temmermanlaan,20,51.3669822589,4.45201585201
2920,Kalmthout,Canadezenlaan,150,51.3622460148,4.4339517441
2920,Kalmthout,Hazendreef,15,51.3650883911,4.44896616042
2920,Kalmthout,Minnedreef,17,51.364030079,4.45394014903
2920,Kalmthout,Canadezenlaan,104,51.3626233098,4.44133159444
2920,Kalmthout,Kerkendijk,10,51.3846364659,4.47721689164
2920,Kalmthout,Meester Vorsselmanslaan,15,51.3871616926,4.46865051325
2920,Kalmthout,Kerkstraat,20,51.4326579046,4.52008504645
2920,Kalmthout,Kapellensteenweg,230,51.3796442509,4.47468660975
2920,Kalmthout,Brasschaatsteenweg,202,51.378046566,4.505151439
2920,Kalmthout,Schaliënberglaan,5,51.3879569448,4.47278957349
2920,Kalmthout,Kapellensteenweg,283,51.3769185696,4.47442974975
2920,Kalmthout,Frans Raatsstraat,116,51.4012831142,4.45637501528
2920,Kalmthout,Driehoekstraat,54,51.3810709833,4.47850833356
2920,Kalmthout,Standaertlei,32,51.3881099616,4.46523546629
2920,Kalmthout,Vuurkruiserslaan,16,51.3917110033,4.47004811252
2920,Kalmthout,Meester Vorsselmanslaan,33,51.3880192882,4.46962055631
2920,Kalmthout,Zilverenhoeksteenweg,23,51.4273677786,4.50075585585
2920,Kalmthout,Steenbakkerijstraat,10,51.4211903722,4.5213807793
2920,Kalmthout,Kapellensteenweg,265,51.3776247398,4.47463242822
2920,Kalmthout,Kerkeneind,17,51.3833587893,4.47845086074
2920,Kalmthout,Zandstraat,3,51.393386771,4.5026062979
2920,Kalmthout,Salvialaan,19,51.3775738686,4.46908516246
2920,Kalmthout,Dorpsstraat,10,51.3943400324,4.47462509266
2920,Kalmthout,Thillostraat,17,51.370863586,4.4723791427
2920,Kalmthout,Heuvel,13,51.3903921959,4.4650498974
2920,Kalmthout,Holleweg,61,51.4301449108,4.50278632451
2920,Kalmthout,Roggebos,7,51.3803076887,4.47710575452
2920,Kalmthout,Roosendaalsebaan,101,51.4040000614,4.49821835407
2920,Kalmthout,Voetbooglaan,18,51.3924749354,4.47163566992
2920,Kalmthout,Nieuwmoer-Dorp,9,51.4319305244,4.51349233104
2920,Kalmthout,Heiken,68,51.3918062661,4.50805274054
2920,Kalmthout,Koningin Elisabethlaan,36,51.3721895864,4.46591543158
2920,Kalmthout,Kapellensteenweg,191,51.3810497549,4.4752937836
2920,Kalmthout,Eikelstraat,25,51.3756693838,4.47072233638
2920,Kalmthout,Verbiststraat,18,51.3903695858,4.47211308214
2920,Kalmthout,Thillostraat,45,51.3718672752,4.47448395587
2920,Kalmthout,Hollekelderstraat,1,51.3733338456,4.47273708826
2920,Kalmthout,Nieuwstraat,21,51.3728292,4.46276560183
2920,Kalmthout,Kapelstraat,25,51.4015250895,4.50580714091
2920,Kalmthout,Kalmthoutsesteenweg,315,51.3965837629,4.50670137095
2920,Kalmthout,Bosweg,60,51.4513162064,4.50919520723
2920,Kalmthout,Bareelstraat,37,51.3742341456,4.46901557735
2920,Kalmthout,Kruisbos,20,51.3910905571,4.49949779692
2920,Kalmthout,Molenbaan,98,51.3714882348,4.48500987669
2920,Kalmthout,Heibloemlaan,25,51.3737774807,4.45959087582
2920,Kalmthout,Ijzerenwegstraat,20,51.3966792627,4.46716570314
2920,Kalmthout,Van Nu en Strakslaan,6,51.3842067483,4.47037119486
2920,Kalmthout,Middendreef,40,51.3597552668,4.47771131657
2920,Kalmthout,Vogelenzangstraat,107,51.3807711885,4.45550659076
2920,Kalmthout,Cuylitshofstraat,59,51.3826081367,4.45424595144
2920,Kalmthout,Karel Vanthillostraat,45,51.3880944551,4.50892456048
2920,Kalmthout,Spechtenlaan,4,51.3818060595,4.46927777835
2920,Kalmthout,Boomgaardstraat,16,51.4360109557,4.52004527043
2920,Kalmthout,Hollekelderstraat,27,51.3725105348,4.47528183386
2920,Kalmthout,Withoeflei,49,51.3618833263,4.46177666368
2920,Kalmthout,Heidestatiestraat,13,51.3658399958,4.46596380238
2920,Kalmthout,Ganzendries,36,51.376535606,4.46865120664
2920,Kalmthout,Kapellensteenweg,155,51.3832388509,4.4753605983
2920,Kalmthout,Henri Van Stratenlaan,6,51.359324185,4.45868512725
2920,Kalmthout,Korte Heuvelstraat,42,51.3879524424,4.45250322253
2920,Kalmthout,Turfvaartlaan,50,51.4175994991,4.47794625158
2920,Kalmthout,Wipstraat,22,51.3748290407,4.47447594729
2920,Kalmthout,Hilloweg,16,51.3887821964,4.50025577245
2920,Kalmthout,Kijkuitstraat,90,51.3775079843,4.46243175365
2920,Kalmthout,Groeneweg,10,51.3931692879,4.4756223064
2920,Kalmthout,Bareelstraat,19,51.3743529375,4.47051493377
2920,Kalmthout,Kapellensteenweg,428,51.3716077923,4.47019440421
2920,Kalmthout,Verbindingsstraat,32,51.421215461,4.41586769252
2920,Kalmthout,Roosendaalsebaan,10,51.3974612155,4.50050130605
2920,Kalmthout,Berkendreef,19,51.36925688,4.47211764898
2920,Kalmthout,Kapellensteenweg,173,51.3817923535,4.4752638992
2920,Kalmthout,Darm,80,51.4176764943,4.5029175984
2920,Kalmthout,Vuurkruiserslaan,34,51.3903267513,4.46968478687
2920,Kalmthout,Esdoornlaan,23,51.3558717301,4.4860961551
2920,Kalmthout,Heidestatiestraat,31,51.3655393675,4.46495998749
2920,Kalmthout,Drieslei,11,51.3947887598,4.47005659433
2920,Kalmthout,Driehoeven,4,51.3647041899,4.42104777776
2920,Kalmthout,Korte Heuvelstraat,60,51.3879100021,4.45048360641
2920,Kalmthout,Gomarus Van Geelstraat,50,51.3752243878,4.48092400212
2920,Kalmthout,Violetlaan,9,51.3760293631,4.46913206838
2920,Kalmthout,Zilverenhoeksteenweg,58,51.4278044549,4.50301761592
2920,Kalmthout,Holleweg,33,51.43088237,4.50766665208
2920,Kalmthout,Driehoekstraat,72,51.3804661207,4.47897281353
2920,Kalmthout,Albert Peeterslei,2,51.3934284335,4.46851280534
2920,Kalmthout,Achterstraat,26,51.4010208672,4.50076765291
2920,Kalmthout,Bakkersdreef,30,51.3624680407,4.47775059321
2920,Kalmthout,Verbiststraat,46,51.3893043571,4.46909602011
2920,Kalmthout,Den Dijk,16,51.3967409779,4.45889146229
2920,Kalmthout,Roosendaalsebaan,172,51.4134762874,4.49551569365
2920,Kalmthout,Boswachtersdreef,32,51.3620732195,4.47387491472
2920,Kalmthout,Gomarus Van Geelstraat,7,51.3726242658,4.47603599744
2920,Kalmthout,Heikantstraat,61,51.3751600604,4.48452438769
2920,Kalmthout,René Willemestraat,21,51.3996957199,4.46444114002
2920,Kalmthout,Foxemaatstraat,66,51.3799827931,4.47931807843
2920,Kalmthout,Kinderwelzijnstraat,4,51.374819197,4.46564509997
2920,Kalmthout,Putsesteenweg,104,51.3626996203,4.43166891472
2920,Kalmthout,Standaertlei,14,51.3891253953,4.46468984836
2920,Kalmthout,Beauvoislaan,85,51.3700630603,4.4832369456
2920,Kalmthout,Frans Raatsstraat,98,51.4007245761,4.46021312777
2920,Kalmthout,Antoine De Preterlaan,8,51.3676299673,4.45713093619
2920,Kalmthout,Hoveniersstraat,17,51.4335859674,4.52512515905
2920,Kalmthout,Kijkuitstraat,72,51.3783462914,4.46541726125
2920,Kalmthout,Wuustwezelsteenweg,5,51.4319625821,4.51863615844
2920,Kalmthout,Roosendaalsebaan,45,51.3996621677,4.49925422765
2920,Kalmthout,Venetië,7,51.4417673008,4.51410920485
2920,Kalmthout,Kapellensteenweg,564,51.3591673616,4.462354754
2920,Kalmthout,Beauvoislaan,22,51.3672681554,4.47240639431
2920,Kalmthout,Kapellensteenweg,499,51.3622568418,4.46689490409
2920,Kalmthout,Beeklei,14,51.3623002789,4.45650294895
2920,Kalmthout,Achterbroeksteenweg,59,51.3950018738,4.48152647821
2920,Kalmthout,Statiestraat,85,51.3924052687,4.4686184824
2920,Kalmthout,Kapellensteenweg,319,51.3759263956,4.47373613801
2920,Kalmthout,Bevrijdingslei,62,51.3592798397,4.45695013079
2920,Kalmthout,Kalmthoutsesteenweg,394,51.3973354674,4.50187219792
2920,Kalmthout,Guido Gezellelaan,35,51.3686001637,4.4586100263
2920,Kalmthout,Kinderwelzijnstraat,26,51.3750167307,4.46423701155
2920,Kalmthout,Statiestraat,22,51.3940075576,4.47282835719
2920,Kalmthout,Achterbroeksteenweg,143,51.3961680301,4.49204202726
2920,Kalmthout,De Vletlaan,23,51.4148143692,4.47117166832
2920,Kalmthout,Vogelenzangstraat,70,51.3830728865,4.46195585565
2920,Kalmthout,Kapellensteenweg,546,51.3611038639,4.46328654032
2920,Kalmthout,Jos Tilborghsstraat,59,51.435907889,4.52439246705
2920,Kalmthout,De Roerdomp,12,51.4356693805,4.52085256979
2920,Kalmthout,Boswachtersdreef,14,51.3644070677,4.47218331689
2920,Kalmthout,Bevrijdingslei,44,51.3615031594,4.45815545413
2920,Kalmthout,Kastanjedreef,46,51.3979258193,4.45494406019
2920,Kalmthout,Bezemheidelaan,22,51.3742519356,4.47556932858
2920,Kalmthout,Ericalaan,38,51.3652223667,4.44156096445
2920,Kalmthout,Middendreef,29,51.3625404135,4.47655583856
2920,Kalmthout,Blikstraat,50,51.4423355334,4.52736724314
2920,Kalmthout,Pastoor Weytslaan,13,51.3928663566,4.47245096705
2920,Kalmthout,Darm,44,51.4239876257,4.50463933611
2920,Kalmthout,Jos Tilborghsstraat,77,51.4368362593,4.5291369381
2920,Kalmthout,Hertendreef,11,51.3610634311,4.47387591804
2920,Kalmthout,Foxemaatstraat,84,51.3806653693,4.48201929006
2920,Kalmthout,Koningin Astridlaan,25,51.3697915653,4.45698157975
2920,Kalmthout,Blikstraat,7,51.4360146842,4.52272723159
2920,Kalmthout,Cuylitshofstraat,2,51.3773750669,4.46150789647
2920,Kalmthout,Heidestatieplein,6,51.3661157507,4.45930370319
2920,Kalmthout,Zilverenhoeksteenweg,102,51.4293288034,4.50779339025
2920,Kalmthout,Groeneweg,45,51.3971441602,4.47457635468
2920,Kalmthout,Kapellensteenweg,112,51.3868896665,4.47276763189
2920,Kalmthout,Kapellaan,51,51.3957599019,4.46887961297
2920,Kalmthout,Missiehuislei,54A,51.35339732,4.47575162995
2920,Kalmthout,Kapellensteenweg,337,51.3753559188,4.47315164592
2920,Kalmthout,Guido Gezellelaan,17,51.3675790694,4.45987703758
2920,Kalmthout,Frans Raatsstraat,27,51.3998333891,4.46816069445
2920,Kalmthout,Groenendriesstraat,3,51.4218185203,4.41144749999
2920,Kalmthout,Kalmthoutsesteenweg,376,51.3972577851,4.5034032779
2920,Kalmthout,Zilverenhoeksteenweg,112,51.4300340336,4.50895767055
2920,Kalmthout,Zwanenberg,16,51.4013517872,4.47886966283
2920,Kalmthout,Leopoldstraat,28,51.3676229413,4.46593281064
2920,Kalmthout,Augustijnsdreef,7,51.3720938615,4.4683954644
2920,Kalmthout,Bloemenlei,2,51.3780940063,4.46574216901
2920,Kalmthout,Driehoekstraat,26,51.3815105698,4.47656724483
2920,Kalmthout,Roggebos,14,51.3808654206,4.4772587322
2920,Kalmthout,Jos Tilborghsstraat,9,51.4335629817,4.52020491159
2920,Kalmthout,Molenstraat,24,51.3941171268,4.47220595303
2920,Kalmthout,Achterbroeksteenweg,9,51.3941757794,4.47547479257
2920,Kalmthout,Heidestatiestraat,76,51.3648086258,4.46106669176
2920,Kalmthout,Kapellensteenweg,391,51.373447448,4.47192326011
2920,Kalmthout,Koningin Elisabethlaan,11,51.3708599965,4.46798771973
2920,Kalmthout,Taxandriadreef,5,51.363269616,4.47935086447
2920,Kalmthout,Pastoor De Keyserlaan,49,51.3978279829,4.46477045379
2920,Kalmthout,Kinderwelzijnstraat,54,51.376527982,4.45952649811
2920,Kalmthout,Holleweg,116,51.4301564174,4.50054686712
2920,Kalmthout,Frans Raatsstraat,73,51.4001287815,4.46204580013
2920,Kalmthout,Kapellensteenweg,474,51.3672622368,4.46725790234
2920,Kalmthout,Nieuwmoer-Dorp,34,51.4324030563,4.51570709897
2920,Kalmthout,Kempenlaan,12,51.4327132031,4.51124093402
2920,Kalmthout,Canadezenlaan,61,51.3620945721,4.45239609225
2920,Kalmthout,Jubilélaan,25,51.3984462771,4.46473539018
2920,Kalmthout,Putsesteenweg,169,51.3624804314,4.43360363495
2920,Kalmthout,St. Jozeflaan,15,51.3660250239,4.45806112914
2920,Kalmthout,Korte Heuvelstraat,14,51.3882705673,4.45480433204
2920,Kalmthout,Kijkuitstraat,109,51.375820267,4.45931213136
2920,Kalmthout,Darm,34,51.425210496,4.50540660324
2920,Kalmthout,Bareelstraat,5,51.3746138369,4.47167297625
2920,Kalmthout,Holleweg,68,51.43110737,4.506788394
2920,Kalmthout,Wipstraat,7,51.3751152403,4.47384228652
2920,Kalmthout,Middendreef,3,51.3658981117,4.47405677933
2920,Kalmthout,Hof ter Heide,5,51.3742692943,4.46086346918
2920,Kalmthout,Foxemaatstraat,135,51.3854421008,4.50238837064
2920,Kalmthout,Vissersstraat,4,51.4307018373,4.52915849495
2920,Kalmthout,Max Temmermanlaan,27,51.3667179535,4.44847421381
2920,Kalmthout,Dennendreef,11,51.3637591429,4.45071012234
2920,Kalmthout,Geusenbacklaan,48,51.3635395766,4.44754368008
2920,Kalmthout,Eikelstraat,53,51.3750029068,4.46770094064
2920,Kalmthout,Kapellensteenweg,130,51.3850964219,4.4749889858
2920,Kalmthout,Brasschaatsteenweg,120,51.3872590806,4.50261728043
2920,Kalmthout,Beauvoislaan,105,51.3705737497,4.48561871116
2920,Kalmthout,Frans Raatsstraat,55,51.3999826039,4.46355649344
2920,Kalmthout,Bareelstraat,65,51.3743766437,4.46704705388
2920,Kalmthout,Mertensdreef,12,51.4285460557,4.50267169702
2920,Kalmthout,Heiken,43,51.3935954185,4.50831514961
2920,Kalmthout,Molenbaan,55,51.3762855695,4.47796688912
2920,Kalmthout,Dorpsstraat,35,51.3954937478,4.47376614506
2920,Kalmthout,Anjelierenlaan,17,51.3766440989,4.47042577555
2920,Kalmthout,Rodeweg,48,51.3657785058,4.47904372583
2920,Kalmthout,Bloemstraat,69,51.3962589823,4.50613044919
2920,Kalmthout,Zwart Venlaan,22,51.3964527992,4.46021557164
2920,Kalmthout,Kijkuitstraat,127,51.3745310443,4.45850396966
2920,Kalmthout,Eekhoornlaan,25,51.3694795157,4.46344973332
2920,Kalmthout,Nieuwmoer-Dorp,2,51.4315288776,4.51282277099
2920,Kalmthout,Kerkendijk,17,51.3851391973,4.47746096621
2920,Kalmthout,Paridantlei,12,51.3685810337,4.47309267591
2920,Kalmthout,Frans Raatsstraat,8,51.4001170303,4.46891723366
2920,Kalmthout,Kapellensteenweg,237,51.3792650127,4.47503373256
2920,Kalmthout,Brasschaatsteenweg,76,51.3914457694,4.50149694783
2920,Kalmthout,Minnedreef,10,51.3648977912,4.45315811286
2920,Kalmthout,Turfvaartlaan,7,51.4156846267,4.46739657515
2920,Kalmthout,Antoine De Preterlaan,1,51.3671598012,4.45630500554
2920,Kalmthout,Heikantstraat,116,51.3731086122,4.48640847111
2920,Kalmthout,Molenbaan,20,51.3772672677,4.47595487303
2920,Kalmthout,Voetbooglaan,11,51.3913246454,4.47219207849
2920,Kalmthout,Schooldreef,23,51.3963834271,4.47185012632
2920,Kalmthout,Beauvoislaan,123,51.3708081306,4.48947740505
2920,Kalmthout,Bloemstraat,34,51.3956334263,4.50364350463
2920,Kalmthout,Molenbaan,73,51.3752859977,4.48011980075
2920,Kalmthout,Heikantstraat,152,51.3709139101,4.49422148546
2920,Kalmthout,Vredelaan,2,51.3663942444,4.46016918148
2920,Kalmthout,Roosendaalsebaan,118,51.4072966113,4.49785280482
2920,Kalmthout,Merellaan,5,51.3595067239,4.46078432539
2920,Kalmthout,Brasschaatsteenweg,149,51.3845131889,4.50390967409
2920,Kalmthout,Verbiststraat,11,51.3900373406,4.4724856948
2920,Kalmthout,Schaliënberglaan,12,51.388498183,4.47320191791
2920,Kalmthout,Brasschaatsteenweg,94,51.3898871366,4.50187387128
2920,Kalmthout,Achterbroeksteenweg,178,51.3962419046,4.49585962389
2920,Kalmthout,Bevrijdingslei,34,51.3620343741,4.45846816873
2920,Kalmthout,Geusenbacklaan,9,51.3656957368,4.44663923175
2920,Kalmthout,Mertensdreef,40,51.427373962,4.4994787675
2920,Kalmthout,Canadezenlaan,43,51.3627363209,4.45486651059
2920,Kalmthout,Groendreef,12,51.3579363033,4.47354479665
2920,Kalmthout,Achterbroeksteenweg,196,51.3964975913,4.49810710292
2920,Kalmthout,Dorpsstraat,17,51.3948279957,4.4738001162
2920,Kalmthout,Roosendaalsebaan,88,51.404410084,4.49846091686
2920,Kalmthout,Thillostraat,10,51.3697349006,4.47113712923
2920,Kalmthout,Wilgendreef,6,51.3666030417,4.46412297068
2920,Kalmthout,Kerkeneind,10,51.382713109,4.47600601272
2920,Kalmthout,Korte Heuvelstraat,32,51.3881698158,4.45318910695
2920,Kalmthout,Rodeweg,9,51.3701633416,4.47268758735
2920,Kalmthout,Kapellensteenweg,456,51.3687083649,4.46823982905
2920,Kalmthout,Hollekelderstraat,8,51.3728436363,4.47244605387
2920,Kalmthout,Kapellensteenweg,219,51.3799056431,4.47515570692
2920,Kalmthout,Nieuwmoer-Dorp,16,51.4318524793,4.51410503596
2920,Kalmthout,Salvialaan,5,51.3771769571,4.46803577171
2920,Kalmthout,Boonsstraat,7,51.3991903474,4.46409985152
2920,Kalmthout,Nieuwe dreef,3,51.3886703863,4.45657153987
2920,Kalmthout,Heuvel,41,51.3891535984,4.46145746581
2920,Kalmthout,Kapellensteenweg,421,51.3720440104,4.47118863316
2920,Kalmthout,Bezemheidelaan,7,51.3750819795,4.47848462084
2920,Kalmthout,Dr. J. Goossenaertsstraat,64,51.3918544496,4.50720428747
2920,Kalmthout,Stofzandstraat,37,51.3825705999,4.51122099167
2920,Kalmthout,Drieslei,18,51.3946907317,4.47075360195
2920,Kalmthout,Withoeflei,60,51.3609143143,4.46067027209
2920,Kalmthout,Kapellensteenweg,51,51.3913178018,4.47513575932
2920,Kalmthout,Antoine De Preterlaan,33,51.3693166476,4.45923158731
2920,Kalmthout,Putsesteenweg,61,51.3817733672,4.45209313613
2920,Kalmthout,Achterbroeksteenweg,48,51.3943329083,4.4797343179
2920,Kalmthout,Beauvoislaan,7,51.3671015007,4.4697385324
2920,Kalmthout,Statielei,37,51.3612977911,4.45920810676
2920,Kalmthout,Blikstraat,14,51.4365173755,4.52278412544
2920,Kalmthout,Kneuterlaan,30,51.3821195429,4.46992048538
2920,Kalmthout,Jos Tilborghsstraat,48,51.4350083053,4.52351445377
2920,Kalmthout,Groeneweg,35,51.3964171314,4.47518788711
2920,Kalmthout,Zilverenhoeksteenweg,51,51.4281563579,4.5029841338
2920,Kalmthout,Bloemstraat,2,51.3954861018,4.50175552517
2920,Kalmthout,Molenbaan,47,51.3768530254,4.47751829082
2920,Kalmthout,Bakkersdreef,19,51.3655756964,4.47617124174
2920,Kalmthout,Albert Peeterslei,9,51.3935962646,4.46762402537
2920,Kalmthout,René Willemestraat,28,51.3996616953,4.4650554613
2920,Kalmthout,Violetlaan,2,51.3757666587,4.4696472002
2920,Kalmthout,Bareelstraat,30,51.3746435342,4.47049130497
2920,Kalmthout,Lindendreef,28,51.3928838656,4.46112721482
2920,Kalmthout,Ericalaan,66,51.3663480514,4.44320832367
2920,Kalmthout,Frans Raatsstraat,20,51.4001784498,4.46770710494
2920,Kalmthout,Bevrijdingslei,2,51.3641123694,4.45975446896
2920,Kalmthout,Hortensiadreef,25,51.3625552306,4.47225999807
2920,Kalmthout,Fazantenlaan,21,51.36396526,4.4387101933
2920,Kalmthout,Koninglaan,38,51.3691795412,4.47746015689
2920,Kalmthout,Bakkersdreef,37,51.3637388004,4.47788539187
2920,Kalmthout,Brasschaatsteenweg,41,51.394287112,4.50137782092
2920,Kalmthout,Schooldreef,58,51.3960312795,4.47051476487
2920,Kalmthout,Beverdonkstraat,1,51.4098859202,4.47862961618
2920,Kalmthout,Zandstraat,9C,51.3934741572,4.50345345481
2920,Kalmthout,Gomarus Van Geelstraat,67,51.3756311564,4.48113379833
2920,Kalmthout,Korte Heuvelstraat,49,51.3853838695,4.44378494511
2920,Kalmthout,Roosendaalsebaan,17,51.3978949871,4.49983415089
2920,Kalmthout,Koningin Astridlaan,6,51.3676855266,4.45578493406
2920,Kalmthout,Zwanenberg,44,51.4094152526,4.47899640328
2920,Kalmthout,Kapellensteenweg,302,51.3769186365,4.47365064671
2920,Kalmthout,Statielei,19,51.3626267069,4.46006236575
2920,Kalmthout,Goudvinklaan,4,51.3542987536,4.47960097436
2920,Kalmthout,Nieuwstraat,28,51.3722985404,4.46188382661
2920,Kalmthout,Kapellaan,23,51.3946880131,4.46868089168
2920,Kalmthout,Wuustwezelsteenweg,83,51.4155576686,4.5268218831
2920,Kalmthout,Antoine De Preterlaan,15,51.3682890491,4.45700684805
2920,Kalmthout,Groeneweg,17,51.3954188738,4.47646339192
2920,Kalmthout,Kijkuitstraat,97,51.3764805098,4.46116544959
2920,Kalmthout,St. Jozeflaan,1,51.3654832596,4.45767399852
2920,Kalmthout,Stofzandstraat,19,51.3820851505,4.50746228989
2920,Kalmthout,Antoine De Preterlaan,55,51.3702924466,4.46132622569
2920,Kalmthout,Withoeflei,42,51.3621642804,4.4612147312
2920,Kalmthout,Bevrijdingslei,16,51.3633415158,4.45924240801
2920,Kalmthout,Cuylitshofstraat,9,51.3775042862,4.45946379302
2920,Kalmthout,Foxemaatstraat,38,51.3794787699,4.47737051415
2920,Kalmthout,Drieslei,4,51.3944558603,4.46973490969
2920,Kalmthout,Statiestraat,39,51.3930884222,4.47082806884
2920,Kalmthout,Vinkenlaan,9,51.3560347037,4.48014387878
2920,Kalmthout,Potterijlaan,7,51.3888497067,4.47155217076
2920,Kalmthout,Kapellensteenweg,528,51.362845088,4.46450485316
2920,Kalmthout,Hertendreef,18,51.3609232329,4.47625273289
2920,Kalmthout,Groeneweg,3,51.394775937,4.47700194211
2920,Kalmthout,Cuylitshofstraat,48,51.3830683425,4.45518774132
2920,Kalmthout,Frans Raatsstraat,47,51.3998645641,4.46514583142
2920,Kalmthout,Kijkuitstraat,145,51.3744737985,4.4557415989
2920,Kalmthout,Heibloemlaan,6,51.3712331929,4.46315048911
2920,Kalmthout,Beauvoislaan,50,51.3678129093,4.47942405957
2920,Kalmthout,Leopoldstraat,21,51.3668811958,4.46447977365
2920,Kalmthout,Beauvoislaan,39,51.3684388799,4.47546369874
2920,Kalmthout,Boswachtersdreef,42,51.3603669377,4.47520285863
2920,Kalmthout,Gomarus Van Geelstraat,32,51.3738910889,4.47964168174
2920,Kalmthout,Ganzendries,11,51.3773647465,4.47268685576
2920,Kalmthout,Guido Gezellelaan,10,51.3682572222,4.45985123943
2920,Kalmthout,Standaertlei,42,51.387674207,4.46548837855
2920,Kalmthout,Kinderwelzijnstraat,72,51.3779464167,4.45623027269
2920,Kalmthout,Bezemheidelaan,39,51.374040495,4.47611568574
2920,Kalmthout,Hollekelderstraat,20,51.3726911784,4.4732874971
2920,Kalmthout,Kruisbeklaan,5,51.3575359343,4.48288607102
2920,Kalmthout,Kijkuitstraat,79,51.3773110394,4.46358242529
2920,Kalmthout,Zandstraat,40,51.3932835999,4.50472289073
2920,Kalmthout,Wuustwezelsteenweg,12,51.4317299391,4.51817385948
2920,Kalmthout,Kempenlaan,29,51.4331648661,4.51061282511
2920,Kalmthout,Putsesteenweg,43,51.3827277573,4.45263161282
2920,Kalmthout,Kijkuitstraat,26,51.3798221597,4.47272355531
2920,Kalmthout,Achterbroeksteenweg,203,51.396707739,4.49669177667
2920,Kalmthout,Hertendreef,4,51.3602608104,4.47246000503
2920,Kalmthout,Kastanjedreef,4,51.3884438318,4.45208351128
2920,Kalmthout,Nieuwmoer-Dorp,56,51.4325994139,4.51766364355
2920,Kalmthout,Boomgaardstraat,22,51.4362118239,4.52067949843
2920,Kalmthout,Kapellensteenweg,15,51.3932659312,4.47459820563
2920,Kalmthout,Bosweg,24,51.4489505144,4.5091165238
2920,Kalmthout,Van Dammedreef,8,51.3587604627,4.47276686304
2920,Kalmthout,Max Temmermanlaan,8,51.3659997207,4.45669176043
2920,Kalmthout,Veldlaan,1,51.3844118846,4.46970287439
2920,Kalmthout,Eikelstraat,31,51.3755489674,4.47017807851
2920,Kalmthout,Foxemaatstraat,72,51.3801913944,4.48008811329
2920,Kalmthout,Statielei,55,51.3591568798,4.45803031752
2920,Kalmthout,Begonialaan,7,51.3677478731,4.47050884493
2920,Kalmthout,Hilloweg,22,51.3888135567,4.50042335799
2920,Kalmthout,Kapellensteenweg,275,51.3773026029,4.47434718872
2920,Kalmthout,Driehoekstraat,66,51.3807285863,4.47875685314
2920,Kalmthout,Koninglaan,6,51.3704780843,4.47381536199
2920,Kalmthout,Statielei,7,51.3636148537,4.46049762299
2920,Kalmthout,Bakkersdreef,55,51.3601329837,4.48016151282
2920,Kalmthout,Duinzichtlei,2,51.3886789529,4.4551974022
2920,Kalmthout,Middendreef,47,51.3596245885,4.4786732915
2920,Kalmthout,Lijsterbeslaan,15,51.3549051301,4.48385912782
2920,Kalmthout,Achtzalighedenlaan,4,51.3966129712,4.46192245335
2920,Kalmthout,Achterbroeksteenweg,221,51.3969624621,4.49898367588
2920,Kalmthout,Hazendreef,23,51.3654890312,4.45084543391
2920,Kalmthout,Wipstraat,16,51.3746286529,4.47402901606
2920,Kalmthout,Meidoornlaan,30,51.3550462515,4.48048485761
2920,Kalmthout,Driehoekstraat,9,51.3816950279,4.47594461622
2920,Kalmthout,Kapellensteenweg,33,51.3923513933,4.47513584326
2920,Kalmthout,Kerkeneind,1,51.3831331484,4.47556589258
2920,Kalmthout,Foxemaatstraat,6,51.3790635089,4.47562713786
2920,Kalmthout,Koningin Elisabethlaan,4,51.3710994184,4.46874842908
2920,Kalmthout,Korenlaan,7,51.3757380256,4.47660690128
2920,Kalmthout,Zilverenhoeksteenweg,33,51.4275767236,4.50141305218
2920,Kalmthout,Bloemenlei,14,51.3771186572,4.46616837587
2920,Kalmthout,Sparrendreef,15,51.3596738606,4.48235056059
2920,Kalmthout,Noordeind,89,51.4055270544,4.46638962639
2920,Kalmthout,Den Dijk,22,51.3963145676,4.45810818297
2920,Kalmthout,Vinkenlaan,14,51.3559642059,4.47941534232
2920,Kalmthout,Leopoldstraat,48,51.3687225297,4.46656562178
2920,Kalmthout,Essensteenweg,64,51.4369731029,4.50787565315
2920,Kalmthout,Lindendreef,46,51.3944125373,4.45922754478
2920,Kalmthout,Statiestraat,80,51.3923083256,4.46751064582
2920,Kalmthout,Albert Peeterslei,32,51.3945149512,4.46777928819
2920,Kalmthout,Heuvel,25,51.3900684477,4.46395529536
2920,Kalmthout,Eikelstraat,13,51.3758623995,4.47159878514
2920,Kalmthout,Karel Vanthillostraat,1,51.3873301985,4.5038581549
2920,Kalmthout,Cuylitshofstraat,14,51.3785815081,4.46149768432
2920,Kalmthout,Kwade Weide,10,51.3657405629,4.50455862983
2920,Kalmthout,Irisdreef,5,51.3796938534,4.45582843087
2920,Kalmthout,Beauvoislaan,80,51.3702801687,4.4876351632
2920,Kalmthout,Tulpenlaan,5,51.3755273483,4.46769818772
2920,Kalmthout,Kapellensteenweg,572,51.358845315,4.46214206613
2920,Kalmthout,Achterbroeksteenweg,171,51.3963821083,4.49392989675
2920,Kalmthout,Thillostraat,29,51.3715757949,4.47297595088
2920,Kalmthout,Lavendellaan,11,51.3606932824,4.45363810024
2920,Kalmthout,Kapellensteenweg,257,51.3779117822,4.47476377763
2920,Kalmthout,Zandstraat,35,51.3938968073,4.50676044324
2920,Kalmthout,De Pleyte,13,51.3698678594,4.46535670993
2920,Kalmthout,Petrus Janssensstraat,8,51.4021127294,4.45857622016
2920,Kalmthout,Watertorendreef,3,51.4006014429,4.46777698212
2920,Kalmthout,Prins Albertlei,43,51.3526906541,4.47459838244
2920,Kalmthout,Kalmthoutsesteenweg,288,51.3963903643,4.51403304297
2920,Kalmthout,Molenbaan,19,51.3781733848,4.47609082842
2920,Kalmthout,Statiestraat,16,51.3940224965,4.47331455788
2920,Kalmthout,Rodeweg,60,51.3645469249,4.47978249503
2920,Kalmthout,Kalmthoutsesteenweg,353,51.3969377237,4.50325263543
2920,Kalmthout,Boonsstraat,44,51.3997635258,4.46147003723
2920,Kalmthout,Cuylitshofstraat,32,51.379722871,4.45976717861
2920,Kalmthout,Beauvoislaan,62,51.369406521,4.48293564558
2920,Kalmthout,Geusenbacklaan,42,51.3640253528,4.44649010633
2920,Kalmthout,Canadezenlaan,98,51.3626353715,4.44288646884
2920,Kalmthout,Withoefstraat,7,51.3598310559,4.46118019486
2920,Kalmthout,Verbiststraat,4,51.3908932316,4.47382003462
2920,Kalmthout,Molenbaan,37,51.3773484054,4.47647221841
2920,Kalmthout,Vogelenzangstraat,95,51.3813987179,4.45755345537
2920,Kalmthout,Canadezenlaan,10,51.3641937611,4.45816267949
2920,Kalmthout,Pastoor De Keyserlaan,52,51.3977104729,4.46580727515
2920,Kalmthout,Darm,85,51.4199563385,4.50367429153
2920,Kalmthout,Frans Raatsstraat,108,51.4008816299,4.45840944221
2920,Kalmthout,Ijzerenwegstraat,8,51.3971513229,4.46659646024
2920,Kalmthout,Beauvoislaan,44,51.3682183697,4.47698420216
2920,Kalmthout,Max Temmermanlaan,30,51.367429063,4.44954083826
2920,Kalmthout,Statiestraat,62,51.3930167822,4.46937346361
2920,Kalmthout,Missiehuislei,30,51.3560071987,4.46819279286
2920,Kalmthout,Guido Gezellelaan,12,51.3683977623,4.45977354919
2920,Kalmthout,Kalmthoutsesteenweg,371,51.3968957739,4.50180440951
2920,Kalmthout,Heiken,58,51.3924679646,4.50788348999
2920,Kalmthout,Rodeweg,42,51.3663859859,4.47779760145
2920,Kalmthout,Venetiaanse Heide,24,51.452440097,4.51800007376
2920,Kalmthout,Verbiststraat,28,51.3899725315,4.4710543259
2920,Kalmthout,Beauvoislaan,16,51.3669509677,4.47118049113
2920,Kalmthout,Kapellensteenweg,293,51.3766861952,4.47397152391
2920,Kalmthout,Rozendreef,20,51.3778301151,4.45719185013
2920,Kalmthout,Zandstraat,17,51.3936057031,4.50466033838
2920,Kalmthout,Voetbooglaan,4,51.3907770359,4.47319515234
2920,Kalmthout,Kalmthoutlaan,13,51.3691548439,4.4619112237
2920,Kalmthout,Ericalaan,9,51.3630293322,4.4449586819
2920,Kalmthout,Withoeflei,24,51.3631627905,4.46138226964
2920,Kalmthout,Korenlaan,11,51.3755222304,4.47630926981
2920,Kalmthout,Putsesteenweg,23,51.3848187501,4.45464563099
2920,Kalmthout,Roosendaalsebaan,1,51.3970753799,4.50000998371
2920,Kalmthout,Hoveniersstraat,12,51.4331697191,4.52569271838
2920,Kalmthout,Turfvaartlaan,34,51.4166372972,4.47417362589
2920,Kalmthout,Boonsstraat,16,51.3994548225,4.46369607404
2920,Kalmthout,Wilgendreef,13,51.3666573985,4.46303128734
2920,Kalmthout,De Roerdomp,17,51.4351009954,4.52106998385
2920,Kalmthout,Withoeflei,77,51.3598695363,4.46241546897
2920,Kalmthout,Albert Peeterslei,49,51.3957484841,4.46739129312
2920,Kalmthout,Cassenboomlaan,29,51.3890245947,4.47011518941
2920,Kalmthout,Gomarus Van Geelstraat,69,51.3756744893,4.4814982415
2920,Kalmthout,Brasschaatsteenweg,304,51.3602881401,4.50543198721
2920,Kalmthout,Leopoldstraat,36,51.3691121712,4.46643506338
2920,Kalmthout,Brasschaatsteenweg,78,51.3912283753,4.50155924549
2920,Kalmthout,Boonsstraat,34,51.3996409999,4.46218217468
2920,Kalmthout,Korte Heuvelstraat,70,51.3875961081,4.44923950227
2920,Kalmthout,Kapellaan,43,51.3953860125,4.46877320355
2920,Kalmthout,Emmanuel De Bomlaan,8,51.3880037172,4.46805907129
2920,Kalmthout,Bloemstraat,67,51.3962566969,4.50600889471
2920,Kalmthout,Noordeind,18,51.3991998312,4.47204464404
2920,Kalmthout,Venetiaanse Heide,7,51.4466010148,4.51561175945
2920,Kalmthout,Jos Tilborghsstraat,32,51.4342990696,4.52243091195
2920,Kalmthout,Beauvoislaan,111,51.370761994,4.48738008672
2920,Kalmthout,Gomarus Van Geelstraat,16,51.3734110148,4.47862238614
2920,Kalmthout,Cassenboomlaan,12,51.3883922308,4.47144743708
2920,Kalmthout,Frans Raatsstraat,37,51.3999333581,4.46673469621
2920,Kalmthout,Meester Vorsselmanslaan,27,51.3876880479,4.4694583732
2920,Kalmthout,Pastorijdreef,15,51.4351234986,4.50745954975
2920,Kalmthout,Nieuwmoer-Dorp,21,51.4325873139,4.51511787547
2920,Kalmthout,Kalmthoutsesteenweg,325,51.396684465,4.50574091878
2920,Kalmthout,Nieuwstraat,11,51.3736177133,4.46320060343
2920,Kalmthout,Brasschaatsteenweg,96,51.3896868731,4.50196781812
2920,Kalmthout,Putsesteenweg,3,51.3873877366,4.45560997304
2920,Kalmthout,Essensteenweg,11,51.4328474214,4.51358003836
2920,Kalmthout,Beverdonkstraat,20,51.413937765,4.48305344005
2920,Kalmthout,Guido Gezellelaan,29,51.3681892446,4.45907315362
2920,Kalmthout,Statiestraat,34,51.3938098201,4.47222379689
2920,Kalmthout,Bakkersdreef,20,51.3638506619,4.47665710095
2920,Kalmthout,De Vletlaan,33,51.4154273238,4.47393341418
2920,Kalmthout,Beukendreef,10,51.3660853447,4.4724170918
2920,Kalmthout,Prins Albertlei,15,51.3556325895,4.46689976943
2920,Kalmthout,Putsesteenweg,58,51.383145804,4.45119748326
2920,Kalmthout,Turfvaartlaan,16,51.4155244926,4.46928157682
2920,Kalmthout,Cuylitshofstraat,49,51.3814319345,4.45567788917
2920,Kalmthout,Kempenlaan,10,51.4326280033,4.51123880196
2920,Kalmthout,Withoeflei,59,51.3612040927,4.46146059998
2920,Kalmthout,Heiken,112,51.3845809102,4.51239926652
2920,Kalmthout,Heikantstraat,51,51.3780758229,4.48162402411
2920,Kalmthout,Middendreef,17,51.3638978502,4.47547043457
2920,Kalmthout,René Willemestraat,11,51.3990278657,4.46518431334
2920,Kalmthout,Beauvoislaan,34,51.3679016421,4.47530279001
2920,Kalmthout,Pastoor Weytslaan,25,51.3923079509,4.47275341164
2920,Kalmthout,Drieslei,21,51.3950547529,4.47073314367
2920,Kalmthout,Leeuweriklaan,11,51.3805963506,4.46922128377
2920,Kalmthout,Zilverenhoeksteenweg,68,51.4283026772,4.50432164399
2920,Kalmthout,Frans Raatsstraat,19,51.3998458667,4.46881620943
2920,Kalmthout,Kauwenberg,9,51.3991501,4.46756998102
2920,Kalmthout,Meidoornlaan,8,51.3535968378,4.47457261197
2920,Kalmthout,Vuurkruiserslaan,22,51.3911942921,4.47015874369
2920,Kalmthout,Heidestatiestraat,25,51.3656085765,4.46517664819
2920,Kalmthout,Holleweg,86,51.430747821,4.50418604891
2920,Kalmthout,Hazendreef,3,51.3644424444,4.4478895166
2920,Kalmthout,Esdoornlaan,15,51.3568686517,4.48529652007
2920,Kalmthout,Handelaar,18,51.4083676143,4.48817515094
2920,Kalmthout,Rozendreef,7,51.3789821274,4.45616818356
2920,Kalmthout,Heidestatiestraat,78,51.3648329706,4.46096767295
2920,Kalmthout,Kapellensteenweg,436,51.3711902792,4.46980893715
2920,Kalmthout,Kempenlaan,45,51.4338851807,4.51057190067
2920,Kalmthout,Thillostraat,12,51.3698031509,4.47120304551
2920,Kalmthout,Kijkuitstraat,9,51.3797032726,4.47341023199
2920,Kalmthout,Boswachtersdreef,24,51.363098749,4.4731517861
2920,Kalmthout,Hollekelderstraat,19,51.3728123886,4.4743356266
2920,Kalmthout,Kievitstraat,2,51.3872049687,4.45066033198
2920,Kalmthout,Kapellensteenweg,329,51.3755972503,4.4733446283
2920,Kalmthout,Standaertlei,24,51.3883603214,4.46506389868
2920,Kalmthout,Groendreef,10,51.3579851335,4.47401978739
2920,Kalmthout,Ganzendries,4,51.3778330139,4.47379906956
2920,Kalmthout,Guido Gezellelaan,1,51.3665996999,4.46017791638
2920,Kalmthout,Missiehuislei,8,51.3581382679,4.4639010556
2920,Kalmthout,Heibloemlaan,76,51.3754476588,4.45360725412
2920,Kalmthout,Kinderwelzijnstraat,38,51.3751303131,4.46281437919
2920,Kalmthout,Kapellensteenweg,167,51.3821112513,4.47535124362
2920,Kalmthout,Handelaar,6,51.4095599016,4.49229867323
2920,Kalmthout,Essensteenweg,82,51.4394123031,4.50566607384
2920,Kalmthout,Rodeweg,32,51.3678060889,4.47718870656
2920,Kalmthout,Schooldreef,43,51.3953368592,4.47002518471
2920,Kalmthout,Schaliënberglaan,10,51.3883881742,4.47330164859
2920,Kalmthout,Korte Heuvelstraat,52,51.3878747536,4.45166346282
2920,Kalmthout,Achterbroeksteenweg,153,51.3962761287,4.49240853929
2920,Kalmthout,Riethoek,4,51.4259167012,4.52785676984
2920,Kalmthout,Canadezenlaan,6,51.3642651026,4.45854587417
2920,Kalmthout,Cassenboomlaan,1,51.3878403009,4.4712307379
2920,Kalmthout,Jos Tilborghsstraat,49,51.4350767983,4.52268226192
2920,Kalmthout,Vogelenzangstraat,42,51.3842598286,4.46604958675
2920,Kalmthout,Zilverenhoeksteenweg,122,51.4306582947,4.51010462863
2920,Kalmthout,Noordeind,36,51.4008267641,4.47031354859
2920,Kalmthout,Leopoldstraat,18,51.3672474991,4.4655202223
2920,Kalmthout,Ijzerenwegstraat,83,51.3978201688,4.47033968802
2920,Kalmthout,Statiestraat,87,51.3921841253,4.4685652802
2920,Kalmthout,Wipstraat,34,51.3756407615,4.47494152139
2920,Kalmthout,Boomgaardstraat,5,51.4361245567,4.51898945457
2920,Kalmthout,Minnedreef,12,51.3646296126,4.45300614974
2920,Kalmthout,Foxemaatstraat,54,51.3797779666,4.47854274544
2920,Kalmthout,Meidoornlaan,40,51.3555696052,4.48265656238
2920,Kalmthout,Jos Tilborghsstraat,14,51.4337157572,4.52147334734
2920,Kalmthout,Hertendreef,21,51.3614174979,4.47613027332
2920,Kalmthout,Kapellensteenweg,185,51.3812787229,4.4752397338
2920,Kalmthout,Canadezenlaan,116,51.362401777,4.43998069575
2920,Kalmthout,Kapellensteenweg,501,51.3616461982,4.46625502286
2920,Kalmthout,Dorpsstraat,33,51.3954191382,4.47377890563
2920,Kalmthout,Missiehuislei,40,51.3564236807,4.47063131532
2920,Kalmthout,Kapellaan,61,51.396084698,4.4689038803
2920,Kalmthout,Kapellensteenweg,122,51.3853864333,4.4750157957
2920,Kalmthout,Achterstraat,38,51.4000085653,4.50150229536
2920,Kalmthout,Heikantstraat,216,51.3727050205,4.50537750499
2920,Kalmthout,Duffelaarstraat,4,51.3974571351,4.51084274061
2920,Kalmthout,Mertensdreef,10,51.4286418851,4.50289051083
2920,Kalmthout,Achterbroeksteenweg,95,51.3954921409,4.48587659531
2920,Kalmthout,Meidoornlaan,37,51.3563699997,4.48383650701
2920,Kalmthout,Beauvoislaan,87,51.3700781631,4.4833261539
2920,Kalmthout,Cassenboomlaan,8,51.3879826231,4.47179673856
2920,Kalmthout,Bareelstraat,73,51.3744319004,4.46642076314
2920,Kalmthout,Prelaat Deckersstraat,14,51.4343986897,4.51826531565
2920,Kalmthout,Kapellensteenweg,240,51.3791484752,4.47459614019
2920,Kalmthout,Korte Heuvelstraat,24,51.3880998034,4.45368556981
2920,Kalmthout,Hortensiadreef,3,51.3648245395,4.47054863297
2920,Kalmthout,Prins Boudewijnlaan,13,51.3707626526,4.46572833895
2920,Kalmthout,Holleweg,126,51.4300727497,4.49965132246
2920,Kalmthout,Rozendreef,27,51.3771323051,4.45872933681
2920,Kalmthout,Van Geertenlaan,1,51.3968949624,4.46265691626
2920,Kalmthout,Roosendaalsebaan,47,51.3998228998,4.49922565744
2920,Kalmthout,Hilloweg,5,51.3890864547,4.49836647599
2920,Kalmthout,Roosendaalsebaan,12,51.3977952286,4.50047539067
2920,Kalmthout,Molenstraat,14,51.3944236364,4.47268548439
2920,Kalmthout,Turfvaartlaan,44,51.4172290226,4.47658417405
2920,Kalmthout,Eekhoornlaan,13,51.3693070094,4.46437625234
2920,Kalmthout,Schooldreef,33,51.3957841839,4.47106017271
2920,Kalmthout,Groeneweg,12,51.3932859917,4.47577328028
2920,Kalmthout,Gomarus Van Geelstraat,44,51.3746130228,4.4803699199
2920,Kalmthout,Hoveniersstraat,8,51.433663374,4.5259887317
2920,Kalmthout,Leopoldstraat,6,51.3670281633,4.46545012466
2920,Kalmthout,Spreeuwstraat,5,51.4287426653,4.52270659357
2920,Kalmthout,Noordeind,46,51.4011771896,4.46979689787
2920,Kalmthout,Meester Vorsselmanslaan,6,51.3878331488,4.47035619773
2920,Kalmthout,Beauvoislaan,69,51.369715767,4.48174948463
2920,Kalmthout,Heikantstraat,180,51.3717710916,4.4995897696
2920,Kalmthout,Frans Raatsstraat,65,51.4000538518,4.46280215001
2920,Kalmthout,Meidoornlaan,19,51.3550826942,4.47765594012
2920,Kalmthout,Meidoornlaan,1,51.3532056701,4.47388573699
2920,Kalmthout,Kapellensteenweg,464,51.3681784704,4.46735031739
2920,Kalmthout,Bareelstraat,55,51.374332627,4.46766302764
2920,Kalmthout,Achterstraat,1A,51.4040754808,4.49894265737
2920,Kalmthout,Foxemaatstraat,107,51.3849575872,4.48882578064
2920,Kalmthout,Foxemaatstraat,48,51.379665706,4.47815915141
2920,Kalmthout,Bremlaan,15,51.4326412303,4.51241429359
2920,Kalmthout,Kalmthoutsesteenweg,388,51.3972728321,4.5022620992
2920,Kalmthout,Beeklei,7,51.361330315,4.45685470473
2920,Kalmthout,Den Dijk,5,51.3990644691,4.46111632318
2920,Kalmthout,Guido Gezellelaan,8,51.3681305875,4.45996212512
2920,Kalmthout,Driehoekstraat,2,51.3812995171,4.47540279845
2920,Kalmthout,Standaertlei,7,51.3897264622,4.46495269086
2920,Kalmthout,Duinzichtlei,9,51.3889278699,4.45315257234
2920,Kalmthout,Den Dijk,39,51.3958409633,4.45816186014
2920,Kalmthout,Verbiststraat,56,51.3886279522,4.46855011674
2920,Kalmthout,Lorkendreef,6,51.3624617059,4.46334301681
2920,Kalmthout,Acacialaan,4,51.3712594922,4.47481269127
2920,Kalmthout,Blikstraat,62,51.4449864817,4.52691251154
2920,Kalmthout,Kauwenberg,12,51.3988496797,4.46795124221
2920,Kalmthout,Holleweg,58,51.4313061457,4.50819215553
2920,Kalmthout,Achterbroeksteenweg,188,51.3961506746,4.49719237117
2920,Kalmthout,Verbiststraat,21,51.3895893587,4.47108263786
2920,Kalmthout,Max Temmermanlaan,37,51.3677239316,4.44458178518
2920,Kalmthout,Ericalaan,2,51.3629676983,4.44711127334
2920,Kalmthout,Heiken,51,51.3930500616,4.50837427262
2920,Kalmthout,Eikelstraat,41,51.3753272036,4.46916888464
2920,Kalmthout,Rodeweg,14,51.3691874671,4.47427736832
2920,Kalmthout,Canadezenlaan,17,51.363473174,4.45749008398
2920,Kalmthout,Jubilélaan,13,51.3987024553,4.4632550052
2920,Kalmthout,Bevrijdingslei,22,51.3630972732,4.45906347044
2920,Kalmthout,Albert Peeterslei,60,51.3963616316,4.46834817741
2920,Kalmthout,Albert Peeterslei,42,51.3951925973,4.46792125224
2920,Kalmthout,Geusenbacklaan,14,51.3667101599,4.44421340796
2920,Kalmthout,Rodeweg,49,51.3683521297,4.47744988121
2920,Kalmthout,Voetbooglaan,21,51.392105248,4.47135068528
2920,Kalmthout,De Roerdomp,10,51.4357390503,4.52104965544
2920,Kalmthout,Withoeflei,70,51.3602793069,4.46126191825
2920,Kalmthout,Max Temmermanlaan,19,51.3663869975,4.45137311374
2920,Kalmthout,Emmanuel De Bomlaan,1,51.3880293781,4.46917182256
2920,Kalmthout,Putsesteenweg,86,51.3808217029,4.45060948706
2920,Kalmthout,Driehoekstraat,38,51.3816629621,4.47758980236
2920,Kalmthout,Molenbaan,65,51.375839557,4.47906861671
2920,Kalmthout,Distelvinklaan,5,51.3799800012,4.47023076013
2920,Kalmthout,Heikantstraat,144,51.3706853688,4.49232987188
2920,Kalmthout,Handelaar,26,51.4069078631,4.48599408139
2920,Kalmthout,Heikantstraat,108,51.3738838204,4.48531417129
2920,Kalmthout,Zwanenberg,5,51.3985646389,4.47540979784
2920,Kalmthout,Molenstraat,32,51.3940140353,4.47148882686
2920,Kalmthout,Bevrijdingslei,50,51.3608873136,4.45791436518
2920,Kalmthout,Culturalaan,4,51.3692670307,4.46108896778
2920,Kalmthout,Withoeflei,7,51.3640495027,4.46153480234
2920,Kalmthout,Maalderijstraat,9,51.4302238605,4.50346375048
2920,Kalmthout,Zilverenhoeksteenweg,61,51.4285897267,4.50402084998
2920,Kalmthout,Vogelenzangstraat,4,51.3861868398,4.4740642855
2920,Kalmthout,Kijkuitstraat,38,51.379350783,4.47093843344
2920,Kalmthout,Putsesteenweg,51,51.3816066206,4.45499454962
2920,Kalmthout,Bareelstraat,20,51.3747936258,4.47111977246
2920,Kalmthout,Groeneweg,40,51.3937867351,4.47740475923
2920,Kalmthout,Lindendreef,18,51.3919867656,4.46219439185
2920,Kalmthout,Canadezenlaan,55,51.3622662693,4.45298532041
2920,Kalmthout,Dorpsstraat,51,51.3963518351,4.47353247324
2920,Kalmthout,Roosendaalsebaan,40,51.399994078,4.49990893161
2920,Kalmthout,Kempenlaan,35,51.433415211,4.51050417107
2920,Kalmthout,Leeuweriklaan,18,51.3807342407,4.46835394373
2920,Kalmthout,Frans Raatsstraat,30,51.4002108132,4.46683773345
2920,Kalmthout,Brasschaatsteenweg,204,51.3776848663,4.5046320619
2920,Kalmthout,Kapellensteenweg,61,51.3910465463,4.47514131133
2920,Kalmthout,René Willemestraat,18,51.3992570243,4.46532861878
2920,Kalmthout,Heidestatiestraat,53,51.3648568428,4.46383723447
2920,Kalmthout,Dr. J. Goossenaertsstraat,14,51.3914517579,4.50366721413
2920,Kalmthout,Kapellensteenweg,212,51.3806294754,4.47470668017
2920,Kalmthout,Kapellensteenweg,411,51.3725310941,4.47176913977
2920,Kalmthout,Kijkuitstraat,115,51.3755539149,4.45878240829
2920,Kalmthout,Kneuterlaan,20,51.3814137422,4.47043039513
2920,Kalmthout,Blikstraat,24,51.4374206341,4.52374197491
2920,Kalmthout,Ijzerenwegstraat,1,51.3997258227,4.46652907454
2920,Kalmthout,Withoefstraat,27,51.3606907941,4.45891663151
2920,Kalmthout,Canadezenlaan,73,51.3616778056,4.45112118474
2920,Kalmthout,Minnedreef,8,51.3649842211,4.45370371847
2920,Kalmthout,Vogelenzangstraat,32,51.3848910855,4.46825576324
2920,Kalmthout,Antoine De Preterlaan,65,51.370658624,4.46221997236
2920,Kalmthout,Nieuwmoer-Dorp,28,51.4323053664,4.51541332299
2920,Kalmthout,Heiken,86,51.3895669785,4.50864933376
2920,Kalmthout,Middendreef,10,51.3649717755,4.47380814585
2920,Kalmthout,Boswachtersdreef,52,51.3590364863,4.47616636986
2920,Kalmthout,Petrus Janssensstraat,1,51.4017279111,4.45746215874
2920,Kalmthout,Kijkuitstraat,133,51.3748671122,4.45729947289
2920,Kalmthout,Witgoorsebaan,105,51.3911133419,4.50886131151
2920,Kalmthout,Wipstraat,44,51.3760444147,4.47522895335
2920,Kalmthout,Thillostraat,47,51.3719086264,4.4746761847
2920,Kalmthout,Kempenlaan,17,51.4326127949,4.51058222842
2920,Kalmthout,Heidestatiestraat,71,51.3646115544,4.46227836123
2920,Kalmthout,Salvialaan,20,51.3773406002,4.46954709491
2920,Kalmthout,Schooldreef,68,51.3957614254,4.46972771054
2920,Kalmthout,Molenstraat,4,51.3946738761,4.47327178404
2920,Kalmthout,Foxemaatstraat,26,51.3793213193,4.47657003157
2920,Kalmthout,Kapellensteenweg,536,51.3624536565,4.4642957227
2920,Kalmthout,Achterbroeksteenweg,135,51.3960856897,4.49093064201
2920,Kalmthout,Nieuwstraat,18,51.3732016195,4.46235953641
2920,Kalmthout,Vogelenzangstraat,100,51.3817112571,4.45667031267
2920,Kalmthout,Fazantenlaan,11,51.3635788652,4.43765750895
2920,Kalmthout,Beukendreef,17,51.3669350961,4.47439613273
2920,Kalmthout,Cuylitshofstraat,60,51.3840335903,4.45376181525
2920,Kalmthout,Hollekelderstraat,30,51.3724540274,4.47415329707
2920,Kalmthout,Kapellaan,33,51.3950624254,4.46880683896
2920,Kalmthout,Kinderwelzijnstraat,84,51.3785385286,4.45489603188
2920,Kalmthout,Vogelenzangstraat,14,51.3859174131,4.47097078621
2920,Kalmthout,Prins Boudewijnlaan,3,51.3698900093,4.4682244272
2920,Kalmthout,Withoeflei,52,51.3615279422,4.46063703882
2920,Kalmthout,Roosendaalsebaan,159,51.4087148004,4.49692580317
2920,Kalmthout,Ganzendries,21,51.3769868795,4.47158190285
2920,Kalmthout,Roosendaalsebaan,124,51.4077405676,4.4976387698
2920,Kalmthout,Tulpenlaan,16,51.376078765,4.46821493313
2920,Kalmthout,Leopoldstraat,46,51.3701158648,4.46694952581
2920,Kalmthout,Jos Tilborghsstraat,42,51.4346380507,4.52293790069
2920,Kalmthout,Kapellensteenweg,365,51.3741144006,4.47237150537
2920,Kalmthout,Roosendaalsebaan,177,51.4135265228,4.49417428578
2920,Kalmthout,Hortensiadreef,31,51.3618690621,4.47301276087
2920,Kalmthout,Roosendaalsebaan,106,51.4060173513,4.49813663644
2920,Kalmthout,Ericalaan,54,51.3651471559,4.44367774549
2920,Kalmthout,Leopoldstraat,11,51.3659108695,4.46403381305
2920,Kalmthout,Hertendreef,28,51.3614777286,4.47922913751
2920,Kalmthout,Karel Vanthillostraat,8,51.3869888641,4.50485678073
2920,Kalmthout,Kerkeneind,8,51.3827091043,4.47586337744
2920,Kalmthout,Bakkersdreef,27,51.3647734168,4.47678675235
2920,Kalmthout,Koninglaan,26,51.3696918076,4.47613170853
2920,Kalmthout,Dr. J. Goossenaertsstraat,56,51.3918387651,4.50662888331
2920,Kalmthout,Boswachtersdreef,7,51.3652398451,4.47243069982
2920,Kalmthout,Kapellensteenweg,482,51.3664329585,4.46689818481
2920,Kalmthout,Antoine De Preterlaan,23,51.3686183052,4.45780051361
2920,Kalmthout,Kapellensteenweg,43,51.3920283137,4.47579780308
2920,Kalmthout,Kapellensteenweg,383,51.3739284589,4.47225060402
2920,Kalmthout,Handelaar,11,51.4084693337,4.48969673986
2920,Kalmthout,Veldlaan,8,51.3843221661,4.46920081266
2920,Kalmthout,Kievitstraat,9,51.3866201324,4.45207173794
2920,Kalmthout,Max Temmermanlaan,1,51.3647974308,4.45892810477
2920,Kalmthout,Brasschaatsteenweg,139,51.3856055796,4.50373920703
2920,Kalmthout,Zilverenhoeksteenweg,43,51.4280240772,4.50249363156
2920,Kalmthout,Kijkuitstraat,2,51.3804985351,4.47439299084
2920,Kalmthout,Meester Vorsselmanslaan,20,51.3886240089,4.46959271746
2920,Kalmthout,Kapellaan,15,51.3942256844,4.46889194264
2920,Kalmthout,Karel Vanthillostraat,40,51.3876504918,4.50859368861
2920,Kalmthout,Kapellensteenweg,330,51.3758373918,4.47295340391
2920,Kalmthout,Statielei,27,51.3619693896,4.45964256615
2920,Kalmthout,Groeneweg,29,51.3961283591,4.47568059378
2920,Kalmthout,Cuylitshofstraat,42,51.3823749684,4.45611616006
2920,Kalmthout,Kerkendijk,12,51.3836460774,4.4775363056
2920,Kalmthout,Heuvel,53,51.3885560646,4.45882862911
2920,Kalmthout,Eekhoornlaan,3,51.3691360613,4.46514726043
2920,Kalmthout,Middendreef,45,51.3599107427,4.4784052263
2920,Kalmthout,Roosendaalsebaan,29,51.3985418945,4.4996177357
2920,Kalmthout,Achterbroeksteenweg,60,51.3945095743,4.48128693058
2920,Kalmthout,Hortensiadreef,13,51.3635401733,4.47148146071
2920,Kalmthout,Koningin Astridlaan,41,51.3707596521,4.45922206905
2920,Kalmthout,Jos Tilborghsstraat,60,51.4355948135,4.52483041926
2920,Kalmthout,Thillostraat,40,51.3713752585,4.4742084165
2920,Kalmthout,Zijwegel,15,51.4025833413,4.45961086351
2920,Kalmthout,Oudstrijderslaan,16,51.3833479802,4.46803425639
2920,Kalmthout,Putsesteenweg,119,51.3774600029,4.44955986393
2920,Kalmthout,Lindendreef,6,51.3911292094,4.46325212733
2920,Kalmthout,Standaertlei,16,51.3889216581,4.46478136094
2920,Kalmthout,Achterbroeksteenweg,50,51.3943686499,4.48005190891
2920,Kalmthout,Rodeweg,4,51.3704355378,4.4707857305
2920,Kalmthout,Heuvel,33,51.3898714962,4.46321047632
2920,Kalmthout,Jos Tilborghsstraat,50,51.4351055641,4.52364174941
2920,Kalmthout,Albert Peeterslei,22,51.3940654875,4.46776352563
2920,Kalmthout,Minnedreef,19,51.3638910404,4.45381096341
2920,Kalmthout,Groendreef,7,51.3578564134,4.47563218643
2920,Kalmthout,Achterbroeksteenweg,211,51.3968313391,4.49774827484
2920,Kalmthout,Kijkuitstraat,74,51.3785084938,4.46501173556
2920,Kalmthout,Kapelstraat,27A,51.4017291819,4.50644142051
2920,Kalmthout,Leeuweriklaan,6,51.3810706687,4.46960450609
2920,Kalmthout,Heikantstraat,101,51.3724076532,4.48837227721
2920,Kalmthout,Canadezenlaan,106,51.3626339927,4.44106069604
2920,Kalmthout,Blikstraat,77,51.449487675,4.52531751003
2920,Kalmthout,Hazendreef,13,51.3654256951,4.44818668873
2920,Kalmthout,René Willemestraat,6,51.3988063656,4.46578371893
2920,Kalmthout,Pater Antonissenstraat,6,51.3883588263,4.50813083967
2920,Kalmthout,Lindendreef,54,51.3952503959,4.4582581229
2920,Kalmthout,Rozendreef,10,51.3785425216,4.45606380107
2920,Kalmthout,Schaliënberglaan,7,51.3880667148,4.47275635098
2920,Kalmthout,Brasschaatsteenweg,15,51.3955332143,4.50094032713
2920,Kalmthout,Beeklei,16,51.3621003546,4.45606554858
2920,Kalmthout,Kapellensteenweg,544,51.3615954149,4.46350476287
2920,Kalmthout,Driehoekstraat,56,51.3810065272,4.47852297383
2920,Kalmthout,Kijkuitstraat,92,51.3778250116,4.46194410223
2920,Kalmthout,Kapellensteenweg,285,51.3768819864,4.47413181186
2920,Kalmthout,Achterbroeksteenweg,145,51.3961421441,4.49212931133
2920,Kalmthout,Standaertlei,34,51.3879384829,4.46533551722
2920,Kalmthout,Zilverenhoeksteenweg,25,51.4273516429,4.50087916405
2920,Kalmthout,Thillostraat,19,51.3709115451,4.47242003131
2920,Kalmthout,Handbooglaan,6,51.3885754275,4.47203494037
2920,Kalmthout,Achterbroeksteenweg,181,51.3965619623,4.49476585011
2920,Kalmthout,Heuvel,15,51.3903082074,4.4647720372
2920,Kalmthout,Hollekelderstraat,12,51.3728108536,4.47262418881
2920,Kalmthout,Zandstraat,1,51.3933806439,4.50230242979
2920,Kalmthout,Kapellensteenweg,322,51.3760961317,4.47307677532
2920,Kalmthout,Canadezenlaan,20,51.3638633693,4.45696909003
2920,Kalmthout,Canadezenlaan,88,51.3622286377,4.44476698604
2920,Kalmthout,Kerkeneind,19,51.3826630428,4.47718970519
2920,Kalmthout,Bareelstraat,47,51.3742313737,4.468256618
2920,Kalmthout,Bakkersdreef,45,51.3624333676,4.47850381661
2920,Kalmthout,Kapellensteenweg,562,51.3594850239,4.46197640102
2920,Kalmthout,Vogelenzangstraat,67,51.381520348,4.4629573938
2920,Kalmthout,Heikantstraat,208,51.3725665089,4.50445044401
2920,Kalmthout,Nieuwmoer-Dorp,7,51.4320023929,4.51329830398
2920,Kalmthout,Koningin Elisabethlaan,38,51.3721136006,4.46563496707
2920,Kalmthout,Kwade Weide,7,51.3661571193,4.50403779507
2920,Kalmthout,Nieuwe dreef,8,51.3894879533,4.45651750417
2920,Kalmthout,Eikelstraat,23,51.3757058642,4.47094156543
2920,Kalmthout,Kruisstraat,43,51.3745901506,4.5174816288
2920,Kalmthout,Blikstraat,59,51.4464076053,4.52562018563
2920,Kalmthout,Statielei,45,51.3602035343,4.45859955602
2920,Kalmthout,Canadezenlaan,124,51.3626811077,4.43850322431
2920,Kalmthout,Wuustwezelsteenweg,20,51.4313824671,4.51832500093
2920,Kalmthout,Kalmthoutsesteenweg,317,51.3966808744,4.50635554848
2920,Kalmthout,Cuylitshofstraat,50,51.3833164443,4.45464340578
2920,Kalmthout,Heiken,119,51.3878983261,4.50969291109
2920,Kalmthout,Turfvaartlaan,24,51.4159944362,4.47128942037
2920,Kalmthout,Brasschaatsteenweg,312,51.3584752544,4.5065387631
2920,Kalmthout,Bareelstraat,88,51.3747438692,4.46652726165
2920,Kalmthout,Pastoor De Keyserlaan,16,51.3951098301,4.46162201957
2920,Kalmthout,Verbiststraat,38,51.3895492504,4.46985934765
2920,Kalmthout,Ericalaan,48,51.3653438848,4.44242233538
2920,Kalmthout,Canadezenlaan,47,51.3624690818,4.45379541897
2920,Kalmthout,Kievitstraat,18,51.3866602859,4.45017700851
2920,Kalmthout,Achterbroeksteenweg,4,51.3938508263,4.47512795011
2920,Kalmthout,Zwanenberg,32,51.4083705134,4.47948769757
2920,Kalmthout,Eikelstraat,58,51.3751965734,4.46718939284
2920,Kalmthout,Gomarus Van Geelstraat,24,51.3735759133,4.47942121211
2920,Kalmthout,Frans Raatsstraat,12,51.4001539158,4.46855695097
2920,Kalmthout,Putsesteenweg,31,51.3836963821,4.45324396579
2920,Kalmthout,Essensteenweg,6,51.4327108491,4.51435303643
2920,Kalmthout,Hilloweg,14,51.3887207515,4.4999852482
2920,Kalmthout,Kalmthoutsesteenweg,335,51.3968804533,4.50460359129
2920,Kalmthout,De Roerdomp,1,51.4357921749,4.52257119051
2920,Kalmthout,Withoeflei,34,51.3626221256,4.46166717418
2920,Kalmthout,Boomgaardstraat,14,51.4359378949,4.51982789878
2920,Kalmthout,Holleweg,41,51.4305751586,4.50590974758
2920,Kalmthout,Molenbaan,3,51.3785962738,4.47597806562
2920,Kalmthout,Korte Heuvelstraat,5,51.3877504606,4.45391835217
2920,Kalmthout,Noordeind,97,51.4065530903,4.46262744362
2920,Kalmthout,Cuylitshofstraat,22,51.3784939434,4.45991641409
2920,Kalmthout,Kapelstraat,51,51.4039959966,4.50947242914
2920,Kalmthout,Cassenboomlaan,19,51.3886006359,4.47043517124
2920,Kalmthout,Molenbaan,29,51.3778853048,4.47631075358
2920,Kalmthout,Kalmthoutsesteenweg,343,51.3969535543,4.50402881671
2920,Kalmthout,Franseweg,31,51.3657857986,4.50049159519
2920,Kalmthout,Heikantstraat,76,51.3767481804,4.48214755189
2920,Kalmthout,Wilgendreef,23,51.3669201851,4.46237823646
2920,Kalmthout,Kalmthoutsesteenweg,296,51.3966143762,4.51104890898
2920,Kalmthout,Nieuwstraat,6,51.3741794847,4.46293565351
2920,Kalmthout,Karel Vanthillostraat,37,51.3877526789,4.50676364652
2920,Kalmthout,De Pleyte,23,51.3704177615,4.46411132706
2920,Kalmthout,Jos Tilborghsstraat,4,51.4330991403,4.52047888783
2920,Kalmthout,Kempenlaan,1,51.4319119807,4.51084952713
2920,Kalmthout,De Roerdomp,27,51.4344492538,4.52055090402
2920,Kalmthout,Driehoekstraat,74,51.3803950671,4.47902621577
2920,Kalmthout,Frans Raatsstraat,40,51.4002310238,4.46576602588
2920,Kalmthout,Kapellensteenweg,304,51.3768473548,4.47335665198
2920,Kalmthout,Kalmthoutlaan,23,51.3700406703,4.46227026995
2920,Kalmthout,Mertensdreef,7,51.4268254442,4.49784746076
2920,Kalmthout,Vogelenzangstraat,39,51.3845027375,4.46813269071
2920,Kalmthout,Kijkuitstraat,56,51.3791310362,4.4689439224
2920,Kalmthout,Thillostraat,37,51.3716274765,4.47388489384
2920,Kalmthout,Kapellensteenweg,580,51.3582673344,4.46176348808
2920,Kalmthout,Den Dijk,14,51.3969307031,4.45913363889
2920,Kalmthout,Kapellensteenweg,350,51.3748578445,4.47230194506
2920,Kalmthout,Kapellensteenweg,497,51.3630644586,4.4656320509
2920,Kalmthout,Kapellensteenweg,239,51.3789265776,4.47508293306
2920,Kalmthout,Brasschaatsteenweg,165,51.3824821116,4.50439394734
2920,Kalmthout,Kapellaan,71,51.3976501511,4.46904492232
2920,Kalmthout,Bevrijdingslei,60,51.3595358182,4.45706489383
2920,Kalmthout,Middendreef,8,51.365212074,4.47354666396
2920,Kalmthout,Wuustwezelsteenweg,7,51.4317450543,4.51879994078
2920,Kalmthout,Zilverenhoeksteenweg,78,51.428810916,4.50573370417
2920,Kalmthout,Meester Vorsselmanslaan,17,51.3873700394,4.46853231296
2920,Kalmthout,Kinderwelzijnstraat,28,51.374860002,4.46399169345
2920,Kalmthout,Beauvoislaan,121,51.3707862487,4.48916617841
2920,Kalmthout,Kapellensteenweg,96,51.3879488199,4.47514609386
2920,Kalmthout,Schaliënberglaan,20,51.3891779174,4.47270512969
2920,Kalmthout,Meester Vorsselmanslaan,35,51.3881055621,4.46952550625
2920,Kalmthout,Statiestraat,24,51.3939599645,4.47267898069
2920,Kalmthout,Kijkuitstraat,21,51.3793395733,4.4722486627
2920,Kalmthout,Eikenlaan,33,51.3610895259,4.45293191796
2920,Kalmthout,Den Dijk,49,51.3950556334,4.45658456942
2920,Kalmthout,Cederlaan,10,51.4337138941,4.51160291953
2920,Kalmthout,Hollekelderstraat,40,51.3722179112,4.47496078941
2920,Kalmthout,Bevrijdingslei,42,51.361670207,4.4583221713
2920,Kalmthout,Withoefstraat,10,51.3609019812,4.45942095383
2920,Kalmthout,Nieuwmoer-Dorp,11,51.4319371724,4.51364131195
2920,Kalmthout,Molenbaan,12,51.3777639345,4.4757565435
2920,Kalmthout,Bosbeslaan,5,51.3572655083,4.48108812199
2920,Kalmthout,Achterbroeksteenweg,22,51.3940180652,4.4765389956
2920,Kalmthout,Ericalaan,36,51.3651690364,4.44146798572
2920,Kalmthout,Darm,42,51.4243021368,4.50500009322
2920,Kalmthout,Drieslei,9,51.3947647372,4.46987681209
2920,Kalmthout,Pastoor Weytslaan,15,51.3926736844,4.47242237627
2920,Kalmthout,Cuylitshofstraat,4,51.3775942971,4.46125701015
2920,Kalmthout,Blikstraat,5,51.4359514393,4.52291294946
2920,Kalmthout,Kapellaan,53,51.3958324376,4.46887416721
2920,Kalmthout,Magermanse Heide,9,51.4409639946,4.50528712931
2920,Kalmthout,Kapellensteenweg,114,51.386367597,4.47505123601
2920,Kalmthout,Guido Gezellelaan,19,51.3676292846,4.45979558064
2920,Kalmthout,Frans Raatsstraat,29,51.3998552847,4.46788141917
2920,Kalmthout,Withoeflei,69,51.3604812405,4.46186227156
2920,Kalmthout,Zilverenhoeksteenweg,114,51.4301824092,4.50919305489
2920,Kalmthout,Brasschaatsteenweg,68,51.3925202903,4.50114605178
2920,Kalmthout,Groenendriesstraat,1,51.421731413,4.41318193021
2920,Kalmthout,Ijzerenwegstraat,75,51.397308284,4.47006543174
2920,Kalmthout,Kapellensteenweg,193,51.3809863081,4.47518649213
2920,Kalmthout,Augustijnsdreef,5,51.3719342693,4.46878240384
2920,Kalmthout,Roggebos,9,51.3804235613,4.47698624376
2920,Kalmthout,Driehoekstraat,48,51.3812898649,4.47828407759
2920,Kalmthout,Leopoldstraat,26,51.3675399317,4.4658866888
2920,Kalmthout,Withoeflei,16,51.3635091711,4.4611683249
2920,Kalmthout,Hollekelderstraat,3,51.3732432709,4.47291509448
2920,Kalmthout,Bareelstraat,35,51.3742318122,4.46911710114
2920,Kalmthout,Kapelstraat,23,51.401142939,4.50580083469
2920,Kalmthout,Dr. J. Goossenaertsstraat,39,51.3920486054,4.50548999523
2920,Kalmthout,Kapellensteenweg,132,51.385028635,4.47501008829
2920,Kalmthout,Kapellensteenweg,408,51.3728039632,4.47104858566
2920,Kalmthout,Ericalaan,18,51.3641460086,4.44478177979
2920,Kalmthout,Bakkersdreef,10,51.3653055539,4.47564124273
2920,Kalmthout,Van Nu en Strakslaan,8,51.3842713655,4.47058521147
2920,Kalmthout,Korte Heuvelstraat,62,51.3882700752,4.44993062386
2920,Kalmthout,Zilverenhoeksteenweg,132,51.4308882427,4.51074184909
2920,Kalmthout,Begonialaan,10,51.3671887608,4.47027529453
2920,Kalmthout,Heidestatiestraat,15,51.365744215,4.46592784947
2920,Kalmthout,Roosendaalsebaan,30,51.40349564,4.49881916922
2920,Kalmthout,Emmanuel De Bomlaan,28,51.386798649,4.46772451608
2920,Kalmthout,Kapellensteenweg,157,51.3830667454,4.47534885386
2920,Kalmthout,Ganzendries,38,51.3764904251,4.46851223589
2920,Kalmthout,Epiceadreef,11,51.3580131068,4.48081962542
2920,Kalmthout,Korte Heuvelstraat,44,51.3879895024,4.45233407295
2920,Kalmthout,Leemdreef,1,51.3621552216,4.50679680665
2920,Kalmthout,Distelvinklaan,14,51.3800472504,4.46915761222
2920,Kalmthout,Kempenlaan,20,51.4330079797,4.51118001495
2920,Kalmthout,Pastoor Celensstraat,5,51.3935392757,4.50919909442
2920,Kalmthout,Wipstraat,24,51.3750744053,4.47467942699
2920,Kalmthout,Noordeind,26,51.4000279952,4.47128324384
2920,Kalmthout,Holleweg,76,51.430932239,4.50567457642
2920,Kalmthout,Kapellensteenweg,426,51.3716530958,4.47029315506
2920,Kalmthout,Heidestatiestraat,68,51.3651567656,4.46124456256
2920,Kalmthout,Gomarus Van Geelstraat,5,51.3726039488,4.47584338242
2920,Kalmthout,Berkendreef,17,51.3691835892,4.47185543389
2920,Kalmthout,Stofzandstraat,10,51.3823091772,4.51230746735
2920,Kalmthout,Koningin Astridlaan,58,51.3712388237,4.46149354744
2920,Kalmthout,Roosendaalsebaan,65,51.4011098446,4.49882495298
2920,Kalmthout,Esdoornlaan,25,51.3555751948,4.48612081013
2920,Kalmthout,Kapellensteenweg,175,51.3817318985,4.47522756536
2920,Kalmthout,Holleweg,94,51.4305259437,4.50290202278
2920,Kalmthout,Driehoeven,2,51.3624375187,4.43017199636
2920,Kalmthout,Vuurkruiserslaan,32,51.3904052247,4.4698824844
2920,Kalmthout,Achterbroeksteenweg,163,51.3963345493,4.49317792402
2920,Kalmthout,Nieuwmoer-Dorp,46,51.4326143925,4.51682930184
2920,Kalmthout,Mertensdreef,20,51.4281795583,4.50186090921
2920,Kalmthout,Achterstraat,28,51.4009067694,4.50088701878
2920,Kalmthout,Foxemaatstraat,64,51.3799405534,4.47921902115
2920,Kalmthout,Putsesteenweg,102,51.3631011086,4.4336480121
2920,Kalmthout,Geusenbacklaan,22,51.3658643558,4.44470579124
2920,Kalmthout,Bareelstraat,45,51.3742037012,4.46835119408
2920,Kalmthout,Eekhoornlaan,23,51.3694782595,4.4635588595
2920,Kalmthout,Molenbaan,57,51.3761943608,4.47814173552
2920,Kalmthout,Bevrijdingslei,14,51.3634063008,4.45926521943
2920,Kalmthout,Foxemaatstraat,89,51.383112021,4.48616105004
2920,Kalmthout,Albert Peeterslei,39,51.3953811893,4.46735071091
2920,Kalmthout,Violetlaan,14,51.3763740036,4.46970740879
2920,Kalmthout,Anjelierenlaan,19,51.3767371981,4.47044263974
2920,Kalmthout,Rozendreef,17,51.3779926786,4.45770329404
2920,Kalmthout,Tulpenlaan,24,51.3777631797,4.46841689755
2920,Kalmthout,Schooldreef,25,51.3962744808,4.47176439724
2920,Kalmthout,Kijkuitstraat,143,51.3745765995,4.45601105451
2920,Kalmthout,Kalmthoutsesteenweg,396,51.3973397463,4.50174390694
2920,Kalmthout,Kempenlaan,47,51.4339469359,4.51056317532
2920,Kalmthout,Antoine De Preterlaan,3,51.3673092829,4.45640723382
2920,Kalmthout,Noordeind,54,51.4021877871,4.46872027507
2920,Kalmthout,Bezemheidelaan,59,51.3739862958,4.47362287399
2920,Kalmthout,De Roerdomp,20,51.4353965653,4.52004455247
2920,Kalmthout,Bloemstraat,32,51.3956185605,4.50351760509
2920,Kalmthout,Heikantstraat,118,51.3728528136,4.48686303473
2920,Kalmthout,Rodeweg,22,51.3688438017,4.47554145437
2920,Kalmthout,Merellaan,7,51.3593682524,4.46062871809
2920,Kalmthout,Vredelaan,4,51.3664954935,4.45964559773
2920,Kalmthout,Bevrijdingslei,32,51.3622280962,4.45842418299
2920,Kalmthout,Turfvaartlaan,5,51.4155367033,4.4669498242
2920,Kalmthout,Sparrendreef,6,51.3609770147,4.48056294405
2920,Kalmthout,Thillostraat,30,51.3711626839,4.473718844
2920,Kalmthout,Prins Boudewijnlaan,23,51.3713300185,4.46456439177
2920,Kalmthout,Frans Raatsstraat,93,51.4003719863,4.45940146452
2920,Kalmthout,Achterbroeksteenweg,218,51.3967795004,4.49985110069
2920,Kalmthout,Kinderwelzijnstraat,74,51.3781075596,4.45587814205
2920,Kalmthout,Turfvaartlaan,52,51.4176531549,4.47843135567
2920,Kalmthout,Kapellensteenweg,250,51.3787879864,4.47448257254
2920,Kalmthout,Statiestraat,59,51.3927659327,4.46979542782
2920,Kalmthout,Achterbroeksteenweg,198,51.3964269861,4.49831796216
2920,Kalmthout,Elzendreef,12,51.3656763331,4.44823593757
2920,Kalmthout,Dorpsstraat,15,51.3947600537,4.47379421478
2920,Kalmthout,Kruisbos,25,51.3916633641,4.49661028855
2920,Kalmthout,Meidoornlaan,29,51.3556601766,4.48052510017
2920,Kalmthout,Zilverenhoeksteenweg,104,51.4294830711,4.50814064296
2920,Kalmthout,Hortensiadreef,41,51.3596151729,4.47452495814
2920,Kalmthout,Frans Raatsstraat,101,51.4006247888,4.45789914196
2920,Kalmthout,Korte Heuvelstraat,34,51.3880101467,4.45312848232
2920,Kalmthout,Kapelstraat,58,51.4017522948,4.50727460623
2920,Kalmthout,Missiehuislei,29,51.3572623005,4.47150539223
2920,Kalmthout,Max Temmermanlaan,40,51.3678705711,4.44711300763
2920,Kalmthout,Kalmthoutsesteenweg,378,51.3973694657,4.50304110673
2920,Kalmthout,Salvialaan,10,51.3769081641,4.46842323692
2920,Kalmthout,Kapellensteenweg,454,51.3691649323,4.46847012566
2920,Kalmthout,Heibloemlaan,58,51.3741687668,4.4562067342
2920,Kalmthout,Roggebos,12,51.3807532693,4.47733861157
2920,Kalmthout,Driehoekstraat,28,51.3814660689,4.47687407299
2920,Kalmthout,Kruisstraat,15,51.3740770077,4.51093791673
2920,Kalmthout,Molenstraat,22,51.3941437445,4.47229235642
2920,Kalmthout,Frans Raatsstraat,75,51.4000917257,4.46173809532
2920,Kalmthout,Statieplein,7,51.3910582042,4.46752851243
2920,Kalmthout,Ijzerenwegstraat,12,51.3970139666,4.46673323537
2920,Kalmthout,Kinderwelzijnstraat,56,51.3766234204,4.45930882575
2920,Kalmthout,Canadezenlaan,81,51.3614246608,4.4501551104
2920,Kalmthout,Nieuwmoer-Dorp,36,51.4322895857,4.51596166873
2920,Kalmthout,Petrus Janssensstraat,12,51.4026535108,4.45882342033
2920,Kalmthout,Kapellensteenweg,401,51.3730379294,4.47165294844
2920,Kalmthout,Canadezenlaan,27,51.3626473843,4.4572312189
2920,Kalmthout,Blikstraat,16,51.4368405918,4.52304231584
2920,Kalmthout,Blikstraat,52,51.4421774211,4.52731593337
2920,Kalmthout,Kruisstraat,33,51.3744646579,4.51519860718
2920,Kalmthout,Prelaat Deckersstraat,22,51.4355933753,4.51750864957
2920,Kalmthout,Jubilélaan,23,51.3985994922,4.46454590715
2920,Kalmthout,Canadezenlaan,63,51.3620635055,4.45235181709
2920,Kalmthout,Duinzichtlei,11,51.3891095362,4.45324484183
2920,Kalmthout,Frans Greefslaan,11,51.3849246277,4.47261065939
2920,Kalmthout,Groenendriesstraat,8,51.4241847284,4.40347881739
2920,Kalmthout,Cuylitshofstraat,39,51.3794546833,4.45740034492
2920,Kalmthout,Kerkeneind,30,51.381945894,4.47661594632
2920,Kalmthout,Beauvoislaan,103,51.3704634199,4.4853049673
2920,Kalmthout,Pastoor Celensstraat,16,51.3931438594,4.50999048598
2920,Kalmthout,St. Jozeflaan,13,51.3659147938,4.45799415124
2920,Kalmthout,Bareelstraat,7,51.37455269,4.47160405256
2920,Kalmthout,Kapellensteenweg,357,51.3745744542,4.47271518254
2920,Kalmthout,Heiken,120,51.3834807882,4.51591645948
2920,Kalmthout,Kneuterlaan,7,51.3808826245,4.47025543782
2920,Kalmthout,Lijsterbeslaan,6,51.354083947,4.48167924835
2920,Kalmthout,Heikantstraat,172,51.3716409155,4.49815184902
2920,Kalmthout,Karel Vanthillostraat,30,51.3874583882,4.50740371712
2920,Kalmthout,Zilverenhoeksteenweg,6,51.421649496,4.49176004573
2920,Kalmthout,Vissersstraat,2,51.4315144817,4.53264401827
2920,Kalmthout,Frans Raatsstraat,57,51.4000329254,4.46345673588
2920,Kalmthout,Eikelstraat,51,51.375085067,4.46800771948
2920,Kalmthout,Kievitstraat,11,51.3866411068,4.45253186597
2920,Kalmthout,Berkendreef,7,51.3688106194,4.47048175195
2920,Kalmthout,Max Temmermanlaan,29,51.3667442929,4.44780114701
2920,Kalmthout,Ijzerenwegstraat,40,51.3971809084,4.47081744022
2920,Kalmthout,Putsesteenweg,76,51.3814385388,4.45073309716
2920,Kalmthout,Heiken,41,51.3937342975,4.50822362297
2920,Kalmthout,Brasschaatsteenweg,61,51.3929756147,4.50186121884
2920,Kalmthout,Kapellensteenweg,222,51.3799383645,4.47434962742
2920,Kalmthout,Dorpsstraat,19A,51.3949563481,4.47389264405
2920,Kalmthout,Foxemaatstraat,36,51.3794896924,4.4771237982
2920,Kalmthout,Schooldreef,78,51.3954317433,4.46932111915
2920,Kalmthout,Kijkuitstraat,125,51.3748249792,4.45822422092
2920,Kalmthout,Potterijlaan,5,51.3889181397,4.47171665948
2920,Kalmthout,Kempenlaan,8,51.4325111044,4.51121414155
2920,Kalmthout,Max Temmermanlaan,12,51.3663909735,4.4539887343
2920,Kalmthout,Canadezenlaan,142,51.3623279445,4.43514476946
2920,Kalmthout,Venetiaanse Heide,16,51.4520159683,4.51635900121
2920,Kalmthout,Kapellensteenweg,508,51.3645655555,4.46580907171
2920,Kalmthout,Heiken,94,51.3886832771,4.50882105049
2920,Kalmthout,Meester Vorsselmanslaan,10,51.3880640572,4.47013275906
2920,Kalmthout,Groeneweg,1,51.3946586168,4.47713269248
2920,Kalmthout,Achterstraat,9,51.4030145568,4.50001133925
2920,Kalmthout,Koninglaan,18,51.3699939629,4.47515828236
2920,Kalmthout,Kapellensteenweg,490,51.3657324092,4.46650917561
2920,Kalmthout,Vogelenzangstraat,22,51.385495898,4.46960096337
2920,Kalmthout,Boswachtersdreef,44,51.3600915815,4.47536588408
2920,Kalmthout,Venetiaanse Heide,34,51.4529311959,4.52024599236
2920,Kalmthout,Roggebos,2,51.3799815882,4.47791028319
2920,Kalmthout,Heikantstraat,154,51.3710670772,4.49454570905
2920,Kalmthout,Gomarus Van Geelstraat,34,51.3740266434,4.47971797404
2920,Kalmthout,Magermanse Heide,11,51.4415779336,4.50536588528
2920,Kalmthout,Dorpsstraat,61,51.3970776782,4.47303254922
2920,Kalmthout,Statiestraat,5,51.3935560407,4.47238916079
2920,Kalmthout,Jos Tilborghsstraat,39,51.4347162326,4.52197762768
2920,Kalmthout,Kerkstraat,12,51.4325977327,4.51941638856
2920,Kalmthout,Standaertlei,44,51.3876041993,4.46558935886
2920,Kalmthout,Geusenbacklaan,50,51.3632605612,4.44745763451
2920,Kalmthout,Canadezenlaan,45,51.3626720139,4.45455728551
2920,Kalmthout,Kauwenberg,19,51.3988397711,4.46893385701
2920,Kalmthout,Vogelenzangstraat,110,51.3810829383,4.45445252946
2920,Kalmthout,Kapellensteenweg,204,51.3808894019,4.4747074204
2920,Kalmthout,Kruisbeklaan,7,51.3572064891,4.48301919188
2920,Kalmthout,De Roerdomp,8,51.435740781,4.52131065029
2920,Kalmthout,Rodeweg,50,51.3652169535,4.4781661324
2920,Kalmthout,Kinderwelzijnstraat,9,51.3737612058,4.46403509114
2920,Kalmthout,Nieuwmoer-Dorp,18,51.4318887433,4.51421543218
2920,Kalmthout,Heuvel,61,51.3881955054,4.45712856511
2920,Kalmthout,Withoefstraat,17,51.3603289806,4.45991698355
2920,Kalmthout,Putsesteenweg,41,51.3829314173,4.45276211415
2920,Kalmthout,Geusenbacklaan,17A,51.3647477113,4.44689017887
2920,Kalmthout,Esdoornlaan,6,51.3577132064,4.48377898527
2920,Kalmthout,Zilverenhoeksteenweg,150,51.431263696,4.51190001517
2920,Kalmthout,Nieuwe dreef,1,51.3886065668,4.45658003725
2920,Kalmthout,Zandstraat,8,51.3930962754,4.50324906939
2920,Kalmthout,Heidestatiestraat,61,51.3647211266,4.46316645594
2920,Kalmthout,Heuvel,43,51.3889881448,4.461100161
2920,Kalmthout,Missiehuislei,12,51.3579088663,4.46581072203
2920,Kalmthout,Kapellensteenweg,53,51.3909547322,4.4751956893
2920,Kalmthout,Kapellensteenweg,393,51.373375772,4.47186967977
2920,Kalmthout,Groeneweg,37,51.396569441,4.4749248835
2920,Kalmthout,Boonsstraat,5,51.3991350152,4.46428206977
2920,Kalmthout,Dr. J. Goossenaertsstraat,66,51.3918923921,4.50734547514
2920,Kalmthout,Antoine De Preterlaan,31,51.3690412268,4.45833519455
2920,Kalmthout,Meidoornlaan,12,51.3540897531,4.47544877924
2920,Kalmthout,Statielei,35,51.3614236023,4.459349622
2920,Kalmthout,Bakkersdreef,17,51.3658594743,4.47623550746
2920,Kalmthout,Kapellensteenweg,472,51.367463741,4.46736932305
2920,Kalmthout,Kwade Weide,7A,51.3663870424,4.5038690421
2920,Kalmthout,Zilverenhoeksteenweg,53,51.4282404178,4.50304059315
2920,Kalmthout,Scham,10,51.4409950604,4.5218947662
2920,Kalmthout,Merellaan,10,51.3591342063,4.45982130961
2920,Kalmthout,Ericalaan,64,51.3661898837,4.44289491937
2920,Kalmthout,René Willemestraat,26,51.3995522444,4.46514144279
2920,Kalmthout,Bevrijdingslei,4,51.363831014,4.45956755614
2920,Kalmthout,Middendreef,20,51.3635324278,4.47484648707
2920,Kalmthout,Lindendreef,26,51.392678347,4.46131643714
2920,Kalmthout,Violetlaan,4,51.3758395595,4.46963601437
2920,Kalmthout,Kapellensteenweg,71,51.3895513433,4.47583572886
2920,Kalmthout,Ericalaan,46,51.3656281936,4.44209815919
2920,Kalmthout,Hortensiadreef,23,51.3625993179,4.47220683271
2920,Kalmthout,Kneuterlaan,10,51.3806028628,4.47095054136
2920,Kalmthout,Brasschaatsteenweg,43,51.3941605162,4.50197956548
2920,Kalmthout,Zilverenhoeksteenweg,71,51.4288937562,4.50482227641
2920,Kalmthout,Bakkersdreef,35,51.3639262668,4.4776159169
2920,Kalmthout,Kapellensteenweg,139,51.3839133574,4.47539016492
2920,Kalmthout,Koninglaan,36,51.3692836693,4.47721199146
2920,Kalmthout,Ericalaan,11,51.3632144217,4.4446353789
2920,Kalmthout,Groeneweg,19,51.3956074638,4.47633510259
2920,Kalmthout,Bareelstraat,10,51.3754639137,4.47155984088
2920,Kalmthout,Epiceadreef,18,51.358305341,4.47963915544
2920,Kalmthout,Kijkuitstraat,99,51.3763691247,4.46096948358
2920,Kalmthout,Rodeweg,39,51.3691468172,4.47589868781
2920,Kalmthout,Goudvinklaan,2,51.354571149,4.47943942264
2920,Kalmthout,Emmanuel De Bomlaan,21,51.3869592031,4.46821957221
2920,Kalmthout,Bareelstraat,63,51.3744174467,4.46726427268
2920,Kalmthout,Zwanenberg,42,51.4093188043,4.47929581594
2920,Kalmthout,Statielei,17,51.3627039899,4.4600785985
2920,Kalmthout,Essensteenweg,79,51.4387413556,4.50506614342
2920,Kalmthout,Berkendreef,10,51.3683752963,4.47084177054
2920,Kalmthout,Nieuwstraat,26,51.3724820048,4.46185490267
2920,Kalmthout,Antoine De Preterlaan,13,51.3682107565,4.45677825202
2920,Kalmthout,Roosendaalsebaan,19,51.3980274382,4.49985938311
2920,Kalmthout,Kapellaan,25,51.3948384467,4.46881181257
2920,Kalmthout,Antoine De Preterlaan,57,51.3703359796,4.46151413285
2920,Kalmthout,Withoeflei,44,51.3620568786,4.46121063963
2920,Kalmthout,St. Jozeflaan,3,51.3654683361,4.4576788514
2920,Kalmthout,Pastoor Weytslaan,18,51.3919414066,4.4736931271
2920,Kalmthout,Kijkuitstraat,7,51.3795684079,4.47376696971
2920,Kalmthout,Brasschaatsteenweg,180,51.3804409563,4.50449467124
2920,Kalmthout,Kapellensteenweg,425,51.3717976809,4.47115764383
2920,Kalmthout,Esdoornlaan,17,51.3566103499,4.48546784252
2920,Kalmthout,Vuurkruiserslaan,28,51.3905726142,4.47046566244
2920,Kalmthout,Boswachtersdreef,26,51.3628444289,4.47331330164
2920,Kalmthout,Hollekelderstraat,13,51.372879663,4.47368095985
2920,Kalmthout,Hortensiadreef,30,51.3595205134,4.47363926485
2920,Kalmthout,Kapellensteenweg,332,51.3757546479,4.4729150169
2920,Kalmthout,Achterbroeksteenweg,164,51.3960936723,4.49462434798
2920,Kalmthout,Holleweg,38,51.4314791742,4.50976853332
2920,Kalmthout,Standaertlei,26,51.3882380284,4.46513647309
2920,Kalmthout,Helleven,4,51.3626829111,4.50304834353
2920,Kalmthout,Kapellensteenweg,407,51.3728049524,4.47156425823
2920,Kalmthout,Canadezenlaan,21,51.3632595061,4.45716692472
2920,Kalmthout,Kapelstraat,4,51.3976639177,4.50175834569
2920,Kalmthout,Beauvoislaan,18,51.3670757724,4.47163506488
2920,Kalmthout,Nieuwe dreef,7,51.3887846342,4.45655351398
2920,Kalmthout,Vogelenzangstraat,93,51.3813037412,4.45835183857
2920,Kalmthout,Mariënvillestraat,18,51.4491657568,4.52853305251
2920,Kalmthout,Rodeweg,38,51.3671820886,4.47755050746
2920,Kalmthout,Ijzerenwegstraat,6,51.3973002273,4.46662321262
2920,Kalmthout,Albert Peeterslei,12,51.3937421441,4.46814828609
2920,Kalmthout,Guido Gezellelaan,14,51.3686736515,4.45970588933
2920,Kalmthout,Venetiaanse Heide,22,51.4523417448,4.51759497009
2920,Kalmthout,Noordeind,34,51.4007345144,4.47035501475
2920,Kalmthout,Kalmthoutsesteenweg,318,51.3968596398,4.50895444769
2920,Kalmthout,Bareelstraat,34,51.3746123475,4.47028171456
2920,Kalmthout,Foxemaatstraat,43,51.3810192343,4.48190970943
2920,Kalmthout,Koningin Elisabethlaan,41,51.3716115957,4.46578612595
2920,Kalmthout,Heiken,12,51.3954204811,4.50700736568
2920,Kalmthout,Withoeflei,47,51.361947821,4.46182503229
2920,Kalmthout,Dorpsstraat,5,51.3943013518,4.47395939362
2920,Kalmthout,Kapellensteenweg,295,51.3765885507,4.47391213302
2920,Kalmthout,Ganzendries,22,51.3770881781,4.470018172
2920,Kalmthout,Boonsstraat,18,51.3995945403,4.46363572727
2920,Kalmthout,Schooldreef,54,51.3961318721,4.47069975009
2920,Kalmthout,Eikenlaan,18,51.3606046066,4.45556168175
2920,Kalmthout,Cuylitshofstraat,40,51.3817165407,4.4562134412
2920,Kalmthout,Van Dammedreef,10,51.3589842219,4.47250537354
2920,Kalmthout,Bezemheidelaan,3,51.3752818572,4.47801305485
2920,Kalmthout,Vuurkruiserslaan,4,51.392473044,4.47081305955
2920,Kalmthout,Kapellensteenweg,170,51.3826889612,4.47438076812
2920,Kalmthout,Schaliënberglaan,8,51.3882271105,4.47330501858
2920,Kalmthout,Putsesteenweg,109,51.3778577002,4.44944796626
2920,Kalmthout,Turfvaartlaan,48,51.4174845452,4.47746157913
2920,Kalmthout,St. Jozeflaan,5,51.365581615,4.45787433647
2920,Kalmthout,Wipstraat,27,51.3756766401,4.4744223114
2920,Kalmthout,Boswachtersdreef,2,51.3667848998,4.47052639306
2920,Kalmthout,Achterstraat,32,51.4004962755,4.50122983022
2920,Kalmthout,Boonsstraat,36,51.3996670589,4.46207547043
2920,Kalmthout,Pastoor De Keyserlaan,35,51.3968857009,4.46344811671
2920,Kalmthout,Ericalaan,33,51.3647341631,4.44021646681
2920,Kalmthout,Middendreef,24,51.3629824183,4.47529144041
2920,Kalmthout,Frans Raatsstraat,22,51.4001988267,4.46752280022
2920,Kalmthout,Bezemheidelaan,27,51.3748920127,4.47718323145
2920,Kalmthout,Paridantlei,8,51.3694050962,4.47262112114
2920,Kalmthout,Max Temmermanlaan,6,51.3655770928,4.45731638204
2920,Kalmthout,Bloemstraat,56,51.3948268565,4.50490486242
2920,Kalmthout,Koninglaan,8,51.3704042629,4.47405183587
2920,Kalmthout,Nieuwmoer-Dorp,49,51.4328839146,4.51755787082
2920,Kalmthout,Pastorijdreef,17,51.4351224445,4.50728541241
2920,Kalmthout,Putsesteenweg,127,51.3772551413,4.44907796529
2920,Kalmthout,Koningin Astridlaan,37,51.370506327,4.45869817333
2920,Kalmthout,Achterbroeksteenweg,210,51.3966217011,4.49934161424
2920,Kalmthout,Jos Tilborghsstraat,29,51.4344128035,4.5216366981
2920,Kalmthout,Ericalaan,68,51.3664855403,4.44353117289
2920,Kalmthout,Leopoldstraat,25,51.3672157664,4.46464802966
2920,Kalmthout,Statiestraat,3,51.3935402175,4.47239458451
2920,Kalmthout,Achterstraat,14,51.401849243,4.50022370807
2920,Kalmthout,Beauvoislaan,82,51.3693046942,4.48765893042
2920,Kalmthout,Frans Raatsstraat,50,51.4002498793,4.46469086613
2920,Kalmthout,Bloemenlei,12,51.3771813458,4.46611565817
2920,Kalmthout,Pastoor De Keyserlaan,17,51.3955112618,4.46145789394
2920,Kalmthout,Holleweg,111,51.4296334688,4.49633458708
2920,Kalmthout,Vinkenlaan,12,51.3562275532,4.47922160698
2920,Kalmthout,Kinderwelzijnstraat,23,51.3748936592,4.46225583904
2920,Kalmthout,Statiestraat,27,51.3931965851,4.47129938177
2920,Kalmthout,Kapellensteenweg,152,51.3838173826,4.47487587419
2920,Kalmthout,Koningin Astridlaan,19,51.3692438867,4.45596291144
2920,Kalmthout,Achterstraat,49,51.3993132903,4.5026032071
2920,Kalmthout,Cuylitshofstraat,12,51.3785521757,4.46165244609
2920,Kalmthout,Eikenlaan,36,51.3613568272,4.45343000356
2920,Kalmthout,Kijkuitstraat,95,51.3765532083,4.46141059788
2920,Kalmthout,Roosendaalsebaan,51,51.4001851762,4.49916130366
2920,Kalmthout,Kapellensteenweg,314,51.3765487541,4.47328416918
2920,Kalmthout,Brasschaatsteenweg,116,51.3879674501,4.50250010453
2920,Kalmthout,Zilverenhoeksteenweg,152,51.4312876563,4.51222676177
2920,Kalmthout,Molenbaan,13,51.3783740211,4.47605955531
2920,Kalmthout,Lorkendreef,1,51.3619858755,4.46257252055
2920,Kalmthout,Meidoornlaan,6,51.3533238125,4.47454227357
2920,Kalmthout,Irisdreef,11,51.3787514186,4.45432252779
2920,Kalmthout,Prins Albertlei,45,51.3527736226,4.47538444811
2920,Kalmthout,De Roerdomp,15,51.4351736277,4.52126937789
2920,Kalmthout,Statiestraat,73,51.3926859067,4.46920551912
2920,Kalmthout,Zandstraat,33,51.3938685672,4.50654543458
2920,Kalmthout,Rodeweg,84,51.3608194752,4.48251675288
2920,Kalmthout,Albert Peeterslei,40,51.3950315933,4.46785424346
2920,Kalmthout,Blikstraat,48,51.4414412376,4.52739221645
