PKANCODE,COMMUNE_NL,STREET_NL,HUISNR,LAT,LON
2980,Zoersel,Bremlaan,67,51.2716043419,4.70521529257
2980,Zoersel,Stoppelveld,57,51.2731512914,4.63177614165
2980,Zoersel,De Hulsten,127,51.2737966861,4.68798267591
2980,Zoersel,Halmolenweg,10,51.2389973451,4.64539608368
2980,Zoersel,Krekelenberg,80,51.2738821909,4.70974807752
2980,Zoersel,Gagelaars,22,51.2618739703,4.63787762264
2980,Zoersel,Kievitheide,3,51.2782574847,4.71279414546
2980,Zoersel,Korenbloemlaan,51,51.2595699718,4.63279557483
2980,Zoersel,Risschotlei,8,51.2723177943,4.65086161244
2980,Zoersel,Achterstraat,116,51.263175538,4.63471717288
2980,Zoersel,Violetlaan,46,51.2599148407,4.64339686881
2980,Zoersel,Ronkaartweg,1,51.2434197776,4.64425572628
2980,Zoersel,Zandstraat,46,51.2648620523,4.71195588592
2980,Zoersel,Brakkebos,12,51.2363913444,4.64840685974
2980,Zoersel,Azalealaan,20,51.2541760954,4.63980841252
2980,Zoersel,Einhovensebaan,9,51.2503183194,4.72349658983
2980,Zoersel,Doelen,19,51.2720093667,4.71118544986
2980,Zoersel,Rozenlaan,8,51.2562545972,4.64092292876
2980,Zoersel,Kapellei,100,51.2599032762,4.62959403357
2980,Zoersel,Kapelstraat,2,51.2655568263,4.71399948279
2980,Zoersel,Halle-Dorp,124,51.2404853973,4.64136887427
2980,Zoersel,Zonnebloemlaan,46,51.2602103239,4.63665347571
2980,Zoersel,Emiel Vermeulenstraat,25,51.2737462469,4.63767113065
2980,Zoersel,Priorijlaan,4,51.2647961021,4.69988841153
2980,Zoersel,Achterstraat,134,51.2621211167,4.63347967129
2980,Zoersel,Schriekbos,75,51.2577448966,4.68028364054
2980,Zoersel,Baron de Caterslaan,7,51.2603638702,4.63888999824
2980,Zoersel,Molenbaan,20,51.2735995913,4.71303565693
2980,Zoersel,Tortelstraat,3,51.2791195032,4.71487212035
2980,Zoersel,De Hulsten,109,51.274804466,4.68724486971
2980,Zoersel,Korte Maalstraat,7,51.2763415303,4.72049076236
2980,Zoersel,Salvialaan,41,51.2604807322,4.63308754741
2980,Zoersel,Hertendreef,8,51.2701079778,4.69919478235
2980,Zoersel,Nieuwstraat,2,51.2693825492,4.63738853625
2980,Zoersel,Emiel Vermeulenstraat,160,51.2827466152,4.62753578687
2980,Zoersel,Stoppelveld,75,51.2725872539,4.63178713393
2980,Zoersel,Turfstraat,35,51.2764926732,4.7061742837
2980,Zoersel,Lotelinglaan,8,51.2407543855,4.64856355413
2980,Zoersel,Krokuslaan,7,51.2568713727,4.63477420057
2980,Zoersel,Kwikaard,24,51.2648066463,4.6302095372
2980,Zoersel,Schriekbos,57,51.2603365516,4.68236990152
2980,Zoersel,Velsterheide,2,51.2361688659,4.63778366422
2980,Zoersel,Nieuwstraat,26,51.2703712897,4.63618721434
2980,Zoersel,Salphensebaan,23,51.2725803621,4.71782957548
2980,Zoersel,Tulpenlaan,10,51.2564824302,4.64167156218
2980,Zoersel,Kastanjeweg,23,51.2756111851,4.63910305185
2980,Zoersel,St. Antoniusbaan,311,51.2667057538,4.64640021335
2980,Zoersel,Gestelbos,4,51.2782426713,4.7194832018
2980,Zoersel,Boordeken,6,51.2367750561,4.63864368967
2980,Zoersel,Zonnebloemlaan,64,51.260935071,4.63489631274
2980,Zoersel,Zandstraat,64,51.2639992587,4.7114000885
2980,Zoersel,Krekelenberg,44,51.2718719783,4.70783658801
2980,Zoersel,Halle-Dorp,106,51.2402333771,4.64268233904
2980,Zoersel,Drengel,42,51.2546049862,4.71644803657
2980,Zoersel,Kerkhofweg,3,51.2390225695,4.64880113588
2980,Zoersel,Langebaan,87,51.2625849385,4.69774664892
2980,Zoersel,De Schaaf,9,51.2810524602,4.71961633888
2980,Zoersel,Kapellei,82,51.2604413004,4.63041317864
2980,Zoersel,Kapellei,225,51.2537824501,4.61471884934
2980,Zoersel,Hooidonkbos,14,51.2419430133,4.66091226949
2980,Zoersel,Hendrikvoort,31,51.2345299211,4.62823453649
2980,Zoersel,Akker,15,51.2720279839,4.63328479523
2980,Zoersel,Zonstraat,2,51.2368444855,4.64937592576
2980,Zoersel,Manderleylaan,35,51.2648330033,4.66804826767
2980,Zoersel,Valerialaan,19,51.2687526125,4.65566667008
2980,Zoersel,Cyriel Buysselaan,2,51.2758092285,4.70682607964
2980,Zoersel,Hoge Dreef,20,51.2608356765,4.64459878921
2980,Zoersel,Sinjorendreef,40,51.2624387435,4.66161430192
2980,Zoersel,Kievitheide,91,51.2811085004,4.71711067807
2980,Zoersel,Antwerpsedreef,101,51.2631577436,4.67077396161
2980,Zoersel,Herentalsebaan,160,51.2586367687,4.72058746448
2980,Zoersel,Koekoekdreef,33,51.2431143193,4.62083281133
2980,Zoersel,Epicialaan,7,51.2690628742,4.66051423591
2980,Zoersel,Zandstraat,100,51.2615081098,4.71091527716
2980,Zoersel,Epicialaan,42,51.2710638036,4.66270549481
2980,Zoersel,Hoge Dreef,73,51.2630404486,4.63804526344
2980,Zoersel,Nachtegalendreef,25,51.2511279334,4.61690575849
2980,Zoersel,Vogelzang,25,51.2369740144,4.65009047568
2980,Zoersel,Kapellei,278,51.2529535718,4.61457767492
2980,Zoersel,Rodendijk,58,51.2469084615,4.70346312517
2980,Zoersel,Brakenberg,57,51.2458882074,4.64889433802
2980,Zoersel,Westmallebaan,13,51.2714922387,4.71231062051
2980,Zoersel,Zoerselsteenweg,28,51.2670406621,4.64278192758
2980,Zoersel,Orchideeënlaan,20,51.2549340103,4.64174998789
2980,Zoersel,Handelslei,170,51.2675563193,4.6404878066
2980,Zoersel,Einhoven,2,51.2526905472,4.72376090156
2980,Zoersel,Westmallebaan,31,51.2733015149,4.71094047693
2980,Zoersel,Vlasgaard,10,51.238183701,4.64130898521
2980,Zoersel,Molenheide,3,51.2775881017,4.71119430939
2980,Zoersel,Liersebaan,69,51.2578028349,4.62974038745
2980,Zoersel,Hendrik Consciencelaan,34,51.2653483599,4.66968787941
2980,Zoersel,Kerkstraat,5,51.2670877402,4.71049886486
2980,Zoersel,Platanenlaan,38,51.2713139896,4.66000407693
2980,Zoersel,Handelslei,152,51.2671955725,4.63972619063
2980,Zoersel,Spechtendreef,43,51.2441940483,4.62030522837
2980,Zoersel,Achterstraat,98,51.2636871823,4.6355400083
2980,Zoersel,Akker,33,51.2723315771,4.63349873915
2980,Zoersel,Medelaar,156,51.2653453303,4.64779226582
2980,Zoersel,Spartalaan,25,51.2782627105,4.62894375973
2980,Zoersel,Schaddestraat,12,51.2761261053,4.70454297241
2980,Zoersel,Einhoven,26,51.2572236484,4.72423971592
2980,Zoersel,Goudbloemlaan,1,51.2516076775,4.63693732269
2980,Zoersel,Manderleylaan,17,51.2669876691,4.66936108056
2980,Zoersel,Sinjorendreef,12,51.2641547932,4.66363557923
2980,Zoersel,Maalstraat,33,51.2749166578,4.72098984272
2980,Zoersel,Brakenberg,5,51.2404268372,4.64981653317
2980,Zoersel,Koekoekdreef,15,51.245108747,4.62305189611
2980,Zoersel,Halmolenweg,45,51.2350541897,4.64591011041
2980,Zoersel,Amazonelaan,7,51.2625885703,4.64735667112
2980,Zoersel,Voorne,61,51.2688137297,4.69684923421
2980,Zoersel,Mathias Joostenslaan,9,51.26156492,4.62891213916
2980,Zoersel,Victorielaan,4,51.2689998003,4.64333938544
2980,Zoersel,Berkemei,7,51.2435857739,4.64778309547
2980,Zoersel,Zandstraat,11,51.2669409081,4.71265394289
2980,Zoersel,Violetlaan,11,51.2544178396,4.64290087104
2980,Zoersel,Boterbloemlaan,22,51.2534115923,4.63849451205
2980,Zoersel,Bethaniënlei,185,51.2764060128,4.62857524143
2980,Zoersel,Jacobslaan,3,51.2664841368,4.65927391285
2980,Zoersel,Groenlaan,35,51.2692285722,4.64967324244
2980,Zoersel,Kerkstraat,29,51.2676724984,4.70860601939
2980,Zoersel,Spartalaan,8,51.2774539582,4.62889881641
2980,Zoersel,Jan Jozeflaan,17,51.2735587028,4.65434378088
2980,Zoersel,Zonnebloemlaan,11,51.2589875402,4.63717416188
2980,Zoersel,Kleine Wandelweg,5,51.2524273751,4.63449080475
2980,Zoersel,Medelaar,121,51.26265168,4.64943864773
2980,Zoersel,Goudbloemlaan,25,51.253798316,4.63598527773
2980,Zoersel,Distellaan,7,51.2693207327,4.65143044459
2980,Zoersel,Kwikaard,52,51.2664371067,4.6278105704
2980,Zoersel,Zoerselbosdreef,18,51.2535256075,4.70225759933
2980,Zoersel,Stoppelveld,5,51.2704946076,4.63359602158
2980,Zoersel,Lindedreef,53,51.2448785083,4.64636135799
2980,Zoersel,Liefkenshoek,85,51.2374605074,4.63070980259
2980,Zoersel,Schriekbos,29,51.2643530375,4.68544745553
2980,Zoersel,De Beemdekens,37,51.2618362679,4.71409820991
2980,Zoersel,Hendrik Consciencelaan,16,51.2670866706,4.6712108397
2980,Zoersel,De Beemdekens,19,51.2603992244,4.71264624039
2980,Zoersel,Spechtendreef,33,51.2454373257,4.61958359696
2980,Zoersel,Graffendonk,3,51.2722687007,4.715522666
2980,Zoersel,Kievitheide,55,51.2799486155,4.71350776579
2980,Zoersel,Oostmallebaan,101,51.2801491988,4.71713559039
2980,Zoersel,Sporkenlaan,43,51.2703099886,4.65281358175
2980,Zoersel,Schriekbos,5,51.2679355328,4.68820777185
2980,Zoersel,Lotelinglaan,61,51.2413737172,4.64237903754
2980,Zoersel,Kardinaal Cardijnlaan,27,51.2704705163,4.62516980712
2980,Zoersel,Lage Weg,2,51.2456963109,4.64373318366
2980,Zoersel,Boskant,14,51.2591120893,4.64871748771
2980,Zoersel,Stoppelveld,29,51.2717273609,4.63178097534
2980,Zoersel,Lage Weg,26,51.2458612443,4.64760313308
2980,Zoersel,Kempstraat,30,51.2701926244,4.70278211195
2980,Zoersel,Herentalsebaan,195,51.2547212714,4.72208877054
2980,Zoersel,Kievitheide,73,51.2807842381,4.71578556166
2980,Zoersel,Halle-Velden,9,51.2384286181,4.64697692756
2980,Zoersel,Gestelsebaan,31,51.2557091686,4.6358551739
2980,Zoersel,Handelslei,206,51.268446296,4.64202496013
2980,Zoersel,Halle-Dorp,152,51.2408127858,4.63959875709
2980,Zoersel,Berkemei,113,51.2475594198,4.65827673362
2980,Zoersel,De Hulsten,155,51.2708525946,4.68877202885
2980,Zoersel,Meerheide,5,51.277175355,4.70795567678
2980,Zoersel,Achterstraat,187,51.2613557877,4.63210261278
2980,Zoersel,Raymond Delbekestraat,95,51.2775744041,4.6240797615
2980,Zoersel,Kiwilaan,8,51.2691708603,4.66772244161
2980,Zoersel,Wandelweg,77,51.2559603333,4.64490274562
2980,Zoersel,Frans Janssenslaan,9,51.2697474991,4.64631450938
2980,Zoersel,Halle-Dorp,35,51.2398930465,4.64798703369
2980,Zoersel,Goudveld,119,51.26499166,4.67760708273
2980,Zoersel,Heidehoeven,29,51.2601235924,4.64706254748
2980,Zoersel,Groenlaan,17,51.2689332082,4.64789591335
2980,Zoersel,Ten Otter,30,51.2568393285,4.62862225581
2980,Zoersel,Hoogveld,3,51.262676073,4.70978994907
2980,Zoersel,Het Klooster,21,51.2559073494,4.63314590188
2980,Zoersel,Salvialaan,13,51.2591124525,4.63548036585
2980,Zoersel,De Hulsten,38,51.2715938062,4.68802758315
2980,Zoersel,Meerheide,29,51.2766206801,4.70433918272
2980,Zoersel,Emiel Vermeulenstraat,1,51.2726799705,4.63672209119
2980,Zoersel,Salphensebaan,6,51.2711041529,4.71531624009
2980,Zoersel,Bethaniënlei,68,51.2749346737,4.63241045378
2980,Zoersel,Heideweg,111,51.2467846779,4.64382454744
2980,Zoersel,Kasteeldreef,13,51.2530937396,4.62048446524
2980,Zoersel,Kapellei,64,51.2608313815,4.63118738397
2980,Zoersel,Withoevelaan,32,51.2697614713,4.64983092451
2980,Zoersel,De Ster,4,51.2731327987,4.71785464529
2980,Zoersel,Oudstrijderslaan,64,51.2608672834,4.65369433919
2980,Zoersel,Jacobslaan,98,51.2592208027,4.65962875651
2980,Zoersel,Gagelhoflaan,57,51.2643111054,4.67364880984
2980,Zoersel,Rietakker,14,51.2379696675,4.63763557798
2980,Zoersel,Ronkaartweg,25,51.2451882426,4.64386866075
2980,Zoersel,Halle-Dorp,88,51.2400717017,4.64398458276
2980,Zoersel,Kardinaal Cardijnlaan,3,51.2690182932,4.62779960382
2980,Zoersel,Salvialaan,31,51.259997797,4.63396624091
2980,Zoersel,Wandelweg,24,51.2532935667,4.63481602717
2980,Zoersel,Emiel Vermeulenstraat,132,51.2808808664,4.62924076419
2980,Zoersel,Bethaniënlei,33,51.2699999375,4.63944179277
2980,Zoersel,Bieshoeve,8,51.2771908249,4.71212159011
2980,Zoersel,St. Antoniusbaan,221,51.2672058558,4.65697998855
2980,Zoersel,Kasteeldreef,31,51.252096377,4.62334164618
2980,Zoersel,Sniederspad,35,51.239055971,4.64059156464
2980,Zoersel,Korenbloemlaan,23,51.2580122473,4.63505848912
2980,Zoersel,Sint Martinusstraat,47,51.2423753747,4.63697986036
2980,Zoersel,Vennenlaan,62,51.2744630185,4.70084932254
2980,Zoersel,Smissestraat,52,51.2695432818,4.70677291276
2980,Zoersel,Frans Van Looverenlaan,10,51.2678390325,4.64469796499
2980,Zoersel,Zandstraat,82,51.2631184939,4.71118256911
2980,Zoersel,Herentalsebaan,1,51.2704623614,4.71452782046
2980,Zoersel,Kapellei,46,51.2615517621,4.63160547013
2980,Zoersel,Oudstrijderslaan,11,51.2590086721,4.6550350897
2980,Zoersel,Halmolenweg,98,51.2283143927,4.63713281279
2980,Zoersel,Oude Heide,4,51.2471176827,4.64815388199
2980,Zoersel,Kievit,19,51.2781937322,4.71128719437
2980,Zoersel,Oudstrijderslaan,46,51.260689944,4.65532823384
2980,Zoersel,Paul Edwinlaan,30,51.2570554082,4.66498560325
2980,Zoersel,Hertendreef,43,51.272601719,4.70011497214
2980,Zoersel,Klein Herentals,12,51.2373974497,4.63426986961
2980,Zoersel,Berkenlaan,32,51.2386270196,4.65422773681
2980,Zoersel,Goudveld,6,51.2647634427,4.6757473698
2980,Zoersel,Sporkenlaan,61,51.2720958363,4.65409434652
2980,Zoersel,Parklaan,4,51.2542978842,4.69155361005
2980,Zoersel,Krimveldweg,24,51.2435997932,4.63909645566
2980,Zoersel,Hallebaan,4,51.2690282306,4.68180011771
2980,Zoersel,Het Moer,4,51.2631421476,4.66725759458
2980,Zoersel,Bethaniënlei,15,51.269220755,4.64029823595
2980,Zoersel,Herentalsebaan,25,51.2689810593,4.71616125075
2980,Zoersel,Handelslei,224,51.2691482094,4.64271483645
2980,Zoersel,Jukschot,51,51.269682317,4.6338055998
2980,Zoersel,Sniederspad,6A,51.2397065142,4.64351733473
2980,Zoersel,Grasmuslaan,10,51.2618587689,4.65853786907
2980,Zoersel,Heybleukenstraat,46,51.2669385648,4.63686678117
2980,Zoersel,Frans Hensbergenstraat,20,51.2686794107,4.63817122411
2980,Zoersel,Antwerpsedreef,65,51.2648462023,4.66609702911
2980,Zoersel,Achterstraat,169,51.261834335,4.63258094655
2980,Zoersel,Handelslei,81,51.266513512,4.63745848514
2980,Zoersel,Kapellei,11,51.2629316185,4.63218188663
2980,Zoersel,Gagelhoflaan,75,51.262665023,4.6723089673
2980,Zoersel,Medelaar,85,51.260302689,4.65094138629
2980,Zoersel,Alfons Butsstraat,35,51.269590917,4.63808996689
2980,Zoersel,Binnenweg,8,51.2626711791,4.64224170557
2980,Zoersel,Liersebaan,70,51.258633066,4.6299115067
2980,Zoersel,Sint Martinusstraat,35,51.2423604167,4.63810102726
2980,Zoersel,Duifstraat,12,51.2785356637,4.71620630178
2980,Zoersel,Kortestraat,7,51.2698444069,4.70007324928
2980,Zoersel,Uilendreef,1,51.2486090453,4.62306746923
2980,Zoersel,Molenheide,10,51.277145125,4.71086487834
2980,Zoersel,Boterbloemlaan,75,51.2588279841,4.64020642139
2980,Zoersel,Hoekstraat,25A,51.2618753187,4.66615996726
2980,Zoersel,Bethaniënlei,104,51.276412717,4.62948898709
2980,Zoersel,Kromme Weg,7,51.2703275514,4.62336648591
2980,Zoersel,Kwikaard,113,51.2696972775,4.62362423719
2980,Zoersel,Uilendreef,35,51.2457594642,4.61622319546
2980,Zoersel,Gagelaars,29,51.2617962046,4.63697678699
2980,Zoersel,Beukenlaan,15,51.2686017014,4.65607236818
2980,Zoersel,Hertendreef,25,51.2711236176,4.69885467158
2980,Zoersel,Antwerpsedreef,126,51.2629340478,4.6700964493
2980,Zoersel,Lindedreef,17,51.2411394674,4.64665348963
2980,Zoersel,Hoekstraat,18,51.2625186498,4.66585936606
2980,Zoersel,Ter Beuken,1,51.2645548156,4.64105378332
2980,Zoersel,Lotelinglaan,25,51.241409287,4.64616178956
2980,Zoersel,Azalealaan,3,51.2517901612,4.63976126874
2980,Zoersel,Westmallebaan,84,51.276495693,4.70978674212
2980,Zoersel,Sporkenlaan,8,51.2680211191,4.65202975315
2980,Zoersel,Vlasgaard,27,51.2378240423,4.64186759209
2980,Zoersel,Jacobslaan,45,51.2637569029,4.65938551636
2980,Zoersel,Rietakker,7,51.2376222934,4.63778147912
2980,Zoersel,Sint Martinusstraat,17,51.2416042887,4.6405036502
2980,Zoersel,Vogelzang,43,51.235099005,4.64987667817
2980,Zoersel,Olmenlei,29,51.2748957945,4.65304080689
2980,Zoersel,Vrijgeweide,16,51.270606678,4.63239720959
2980,Zoersel,Kapellenhoflaan,18,51.2562270714,4.61498719197
2980,Zoersel,Dorp,87,51.2695278288,4.71281020402
2980,Zoersel,Handelslei,242,51.26959792,4.64347674709
2980,Zoersel,Antwerpsedreef,20,51.2667871054,4.65888266064
2980,Zoersel,Melkweg,16,51.2592090969,4.65344293726
2980,Zoersel,Azalealaan,19,51.253890088,4.63925944317
2980,Zoersel,Gestelsebaan,66,51.2587665476,4.63850152978
2980,Zoersel,Zoerselhoek,21,51.2623544501,4.65449125108
2980,Zoersel,Hallebaan,82,51.2635114951,4.67697648012
2980,Zoersel,Dennenlaan,14,51.2546489735,4.62413083204
2980,Zoersel,Kievitheide,10,51.278539418,4.71320510021
2980,Zoersel,Uilendreef,17,51.2471199449,4.61949873022
2980,Zoersel,Bethaniënlei,86,51.2756922703,4.63088672385
2980,Zoersel,St. Antoniusbaan,203,51.2674287528,4.66006168035
2980,Zoersel,Smissestraat,34,51.2699193279,4.7085983749
2980,Zoersel,Halle-Dorp,71,51.2402342301,4.64459254075
2980,Zoersel,Baron de Caterslaan,24,51.2606961592,4.63700195347
2980,Zoersel,St. Antoniusbaan,50,51.2696634335,4.68443394298
2980,Zoersel,Kerkhoflei,91,51.2702939925,4.62751513189
2980,Zoersel,Stijn Streuvelslaan,13,51.2645148516,4.65271397322
2980,Zoersel,Bethaniënlei,122,51.2775979969,4.62711715913
2980,Zoersel,Handelslei,10,51.263194623,4.63318364463
2980,Zoersel,Kapellei,107,51.2596808303,4.62820094039
2980,Zoersel,Watermolen,24,51.2404691137,4.63352104078
2980,Zoersel,Raymond Delbekestraat,77,51.2791019972,4.62678874131
2980,Zoersel,Oudstrijderslaan,48,51.2607394337,4.6552689444
2980,Zoersel,Krekelenberg,9,51.2691285313,4.70599731761
2980,Zoersel,Kempendreef,5,51.2541894825,4.63235076561
2980,Zoersel,Sinjorendreef,5,51.2634497658,4.66463553443
2980,Zoersel,Kastanjeweg,41,51.2762971888,4.6391725343
2980,Zoersel,Emiel Vermeulenstraat,43A,51.274482659,4.63786641051
2980,Zoersel,Handelslei,124,51.2660640919,4.63805275927
2980,Zoersel,Zoerselhofdreef,38,51.2576452721,4.70402359201
2980,Zoersel,Kermisplein,5,51.2686870475,4.7100889462
2980,Zoersel,Kapellei,99,51.2599671915,4.62857141767
2980,Zoersel,Achterstraat,63,51.265625762,4.63961173119
2980,Zoersel,Achterstraat,27,51.2661726881,4.64222864652
2980,Zoersel,Hoge Dreef,3,51.2597506943,4.64609636378
2980,Zoersel,Hoge Dreef,19,51.2604358249,4.64431305683
2980,Zoersel,Handelslei,45,51.2653903047,4.63541110201
2980,Zoersel,Peggerstraat,8,51.2404645027,4.6535634298
2980,Zoersel,Kluisbaan,11,51.252750801,4.73100189797
2980,Zoersel,Vogelzang,61,51.2344831919,4.6473453344
2980,Zoersel,Heybleukenstraat,48,51.2670015827,4.63694150476
2980,Zoersel,Populierenlaan,33,51.2705530804,4.66468850162
2980,Zoersel,Wandelweg,95,51.2583430497,4.64551554094
2980,Zoersel,Ten Otter,40,51.2576991921,4.6281947461
2980,Zoersel,Dennenlaan,32,51.2520072313,4.62577934849
2980,Zoersel,Verscheurde Hoeve,4,51.2442056533,4.64882791926
2980,Zoersel,Halle-Dorp,53,51.2399378759,4.64632040172
2980,Zoersel,Akker,51,51.2722892402,4.63445998475
2980,Zoersel,Schalmeidreef,12,51.2812769369,4.71884539561
2980,Zoersel,Rubenslaan,13,51.2663530601,4.66657273936
2980,Zoersel,Emiel Vermeulenstraat,149,51.2802145626,4.62916221615
2980,Zoersel,Langebaan,16,51.2673961559,4.70462992064
2980,Zoersel,Halle-Velden,97,51.2332798306,4.64791310272
2980,Zoersel,Zoerselsteenweg,11,51.2667617077,4.63968726851
2980,Zoersel,Driesheide,29,51.2418728431,4.63554913211
2980,Zoersel,Krekelenberg,79,51.2739222948,4.7092750609
2980,Zoersel,Zandstraat,107,51.26121493,4.7115284134
2980,Zoersel,Raymond Delbekestraat,59,51.2807896695,4.62627515174
2980,Zoersel,Groenlaan,1,51.2677422508,4.64683380447
2980,Zoersel,Oostmallebaan,73,51.2777213804,4.71695101024
2980,Zoersel,Heideweg,65,51.2452245783,4.63860395957
2980,Zoersel,St. Antoniusbaan,336,51.2673795673,4.65425551357
2980,Zoersel,Akker,8,51.2712976291,4.63383186746
2980,Zoersel,Jachthoornlaan,19,51.2667846594,4.69912430648
2980,Zoersel,Heideweg,30,51.243924846,4.63644032823
2980,Zoersel,Liersebaan,16,51.2549554342,4.63099391666
2980,Zoersel,Van Der Graesenlaan,32,51.2632168996,4.66050962639
2980,Zoersel,Kerkhoflei,101,51.2706789727,4.62648203047
2980,Zoersel,Ten Otter,12,51.2563623459,4.626313812
2980,Zoersel,Doornlaan,29,51.2705199798,4.65122954568
2980,Zoersel,Brakenberg,22,51.2424323271,4.65056900119
2980,Zoersel,Amazonelaan,24,51.263771565,4.64771834602
2980,Zoersel,Westmallebaan,66,51.2753274724,4.71094149248
2980,Zoersel,Achterstraat,81,51.2651547554,4.63789146802
2980,Zoersel,Platanenlaan,21,51.2690089769,4.65768637591
2980,Zoersel,Rodendijk,41,51.2486623851,4.70720790728
2980,Zoersel,Epicialaan,24,51.2693536977,4.66154612199
2980,Zoersel,Orchideeënlaan,19,51.2544313969,4.64088775816
2980,Zoersel,Handelslei,106,51.2657996747,4.63725563893
2980,Zoersel,Schaddestraat,5,51.2757027788,4.70532506931
2980,Zoersel,Meerheideweg,30,51.2740827347,4.70526046077
2980,Zoersel,Olmenlei,57,51.2746735572,4.65842348188
2980,Zoersel,Rodenbachlaan,28,51.2628708954,4.65375690954
2980,Zoersel,Zonnebloemlaan,28,51.2595247191,4.6382621153
2980,Zoersel,Dorp,16,51.2679785488,4.71273641095
2980,Zoersel,Sparrenlaan,1,51.267856903,4.65818211887
2980,Zoersel,Dageraadstraat,12,51.2360108466,4.64814928094
2980,Zoersel,Otterdreef,21,51.2536502051,4.62295884336
2980,Zoersel,Paardenmarkt,13,51.2382658794,4.64370026198
2980,Zoersel,Oostmallebaan,91,51.279074656,4.71710331569
2980,Zoersel,Withoevelaan,7,51.2713229994,4.64809052877
2980,Zoersel,Handelslei,98,51.2654732749,4.63687566134
2980,Zoersel,Herentalsebaan,214,51.2542830757,4.72170228214
2980,Zoersel,Langebaan,34,51.265671301,4.70326712105
2980,Zoersel,Schriekbos,22,51.2666129313,4.68609727346
2980,Zoersel,Begijnenstraat,16,51.2658797654,4.63882951432
2980,Zoersel,Zandstraat,125,51.259606993,4.71125397578
2980,Zoersel,Lelielaan,18,51.2556653321,4.6403336239
2980,Zoersel,Kattenberg,13,51.2422234034,4.64221735479
2980,Zoersel,Meerheideweg,5,51.2731736105,4.70688285534
2980,Zoersel,Kerkstraat,22,51.267594359,4.71064128224
2980,Zoersel,Handelslei,195,51.2725807085,4.64699459417
2980,Zoersel,Boerenkrijglaan,13,51.2619944464,4.70020712322
2980,Zoersel,Boterbloemlaan,29,51.2541007962,4.6376372358
2980,Zoersel,Sparrenlaan,17,51.2696321613,4.65961583977
2980,Zoersel,Bremlaan,32,51.2714099354,4.704453448
2980,Zoersel,Eikenlaan,42,51.250488889,4.62020495943
2980,Zoersel,Gestelsebaan,6,51.2550845779,4.6323336409
2980,Zoersel,Halle-Velden,123,51.2320240679,4.64866850608
2980,Zoersel,Kwikaard,69,51.2675862143,4.62701004156
2980,Zoersel,Hendrik Consciencelaan,9,51.2682180063,4.67289872674
2980,Zoersel,Heidehoeven,22,51.2597986896,4.64758533862
2980,Zoersel,St. Antoniusbaan,374,51.2670907611,4.64897073162
2980,Zoersel,Kwikaard,87,51.2684941576,4.62555062518
2980,Zoersel,Oostmallebaan,126,51.278231616,4.71884667599
2980,Zoersel,Oosterenberg,65,51.2548108703,4.70345856178
2980,Zoersel,Voetbalstraat,1,51.2734063076,4.71498533964
2980,Zoersel,Kattenberg,31,51.2434082502,4.64480369551
2980,Zoersel,De Knod,20,51.2759132702,4.625166179
2980,Zoersel,Berkemei,24,51.2435893631,4.65129876309
2980,Zoersel,Medelaar,128,51.263618372,4.64921153775
2980,Zoersel,Olmenlei,75,51.2743167237,4.66210100818
2980,Zoersel,Orchideeënlaan,3,51.2523408194,4.64146390761
2980,Zoersel,De Hulsten,56,51.2752130758,4.68794311007
2980,Zoersel,Achterstraat,144,51.2616698763,4.63301079245
2980,Zoersel,Spechtendreef,8,51.2470883246,4.62159578627
2980,Zoersel,Van Der Graesenlaan,49,51.2621213772,4.66022969443
2980,Zoersel,De Beemdekens,20,51.2606313288,4.71211232149
2980,Zoersel,Liefkenshoek,103,51.2358753977,4.63152157679
2980,Zoersel,Liersebaan,34,51.256094731,4.63098158143
2980,Zoersel,Dorp,113,51.2704244743,4.71322076544
2980,Zoersel,Hoogveld,10,51.2630578943,4.71044402742
2980,Zoersel,Violetlaan,28,51.2574329233,4.64377197374
2980,Zoersel,Drengel,39,51.2574657429,4.71677296817
2980,Zoersel,Distellaan,24,51.2681300846,4.64995015019
2980,Zoersel,Stoppelveld,22,51.2722062494,4.63270992233
2980,Zoersel,De Reiger,15,51.2656642153,4.7069546
2980,Zoersel,Kievit,20,51.2775960119,4.71271028586
2980,Zoersel,De Bruelen,20,51.2672776094,4.71404077467
2980,Zoersel,Jukschot,33,51.2706280024,4.63495083976
2980,Zoersel,Kapellei,196,51.2558165168,4.62084657571
2980,Zoersel,Parklaan,11,51.2560767655,4.69139020288
2980,Zoersel,Het Klooster,4,51.2566123065,4.63442520898
2980,Zoersel,Bethaniënlei,51,51.2705221021,4.6387980411
2980,Zoersel,Kerkhoflei,55,51.2678760058,4.63002822809
2980,Zoersel,Het Moer,11,51.26329358,4.66576876272
2980,Zoersel,De Hulsten,21,51.271606333,4.68674923636
2980,Zoersel,Vrijgeweide,34,51.2715361562,4.63102432821
2980,Zoersel,Hallebaan,46,51.2663031289,4.67871040777
2980,Zoersel,Wandelweg,60,51.2511871946,4.64020404757
2980,Zoersel,Berkenlaan,39,51.2379740651,4.65778777818
2980,Zoersel,Kapellei,28,51.2620893959,4.63215032191
2980,Zoersel,Kerkhoflei,73,51.2689997499,4.62887482792
2980,Zoersel,Den Haan,7,51.2453948834,4.70539973773
2980,Zoersel,Klein Herentals,5,51.2379934123,4.63441502773
2980,Zoersel,De Hulsten,74,51.2759883713,4.68581937641
2980,Zoersel,Oudstrijderslaan,28,51.2601368981,4.65588108055
2980,Zoersel,Karel Uytroevenlaan,13,51.2691661407,4.64558574235
2980,Zoersel,Achterstraat,45,51.2662559163,4.64032217105
2980,Zoersel,Ten Boslaan,3,51.2542986147,4.69269807679
2980,Zoersel,Meerheide,22,51.2773836424,4.70665954407
2980,Zoersel,Oude Heide,11,51.246739746,4.64783997856
2980,Zoersel,Frans Hensbergenstraat,19,51.268792222,4.63761551855
2980,Zoersel,Emiel Vermeulenstraat,43,51.2745181194,4.63812183061
2980,Zoersel,Brakkebos,5,51.2367160924,4.64806646388
2980,Zoersel,Wandelweg,42,51.2514556658,4.63619309435
2980,Zoersel,Medelaar,29,51.2565492679,4.6538547996
2980,Zoersel,Frans Hensbergenstraat,37,51.2700715512,4.63693114314
2980,Zoersel,Kardinaal Cardijnlaan,45,51.2694521239,4.62563472652
2980,Zoersel,Liefkenshoek,39,51.2414524444,4.6307416067
2980,Zoersel,Sporkenlaan,25,51.2688023067,4.65194811722
2980,Zoersel,Achterste Hoeven,19,51.2564357597,4.69957618694
2980,Zoersel,Karel Uytroevenlaan,31,51.2680059247,4.64635525611
2980,Zoersel,Kardinaal Cardijnlaan,10,51.2696573972,4.62646805216
2980,Zoersel,Baron de Caterslaan,42,51.2613845021,4.63524772046
2980,Zoersel,Melkweg,34,51.2580095966,4.6542655679
2980,Zoersel,St. Antoniusbaan,238,51.268554494,4.6672761697
2980,Zoersel,Kievit,55,51.2769609228,4.71553130626
2980,Zoersel,Jukschot,15,51.2714769274,4.63591316236
2980,Zoersel,Felix Timmermanslaan,6,51.2640607935,4.65378297507
2980,Zoersel,Olympiadelaan,5,51.2782364409,4.62707169872
2980,Zoersel,St. Antoniusbaan,85,51.2689960779,4.67896320699
2980,Zoersel,Drengel,50,51.2541823531,4.71708858181
2980,Zoersel,Voetbalstraat,17,51.2751297409,4.71445735975
2980,Zoersel,Goudveld,23,51.2631456626,4.67518382941
2980,Zoersel,Rozenlaan,25,51.2577370161,4.64120621515
2980,Zoersel,Olmenlei,93,51.2740144892,4.66543090233
2980,Zoersel,Gagelhoflaan,5,51.2682819629,4.67697029224
2980,Zoersel,Jacobslaan,81,51.2604656134,4.66194668483
2980,Zoersel,Oostmallebaan,40,51.273183997,4.71566963702
2980,Zoersel,Zandstraat,74,51.2637496878,4.71132604302
2980,Zoersel,Sint Martinusstraat,8,51.2407139318,4.64309241609
2980,Zoersel,Wandelweg,16,51.2538995069,4.6342008639
2980,Zoersel,Zoerselhoek,28,51.2622189647,4.6554312118
2980,Zoersel,St. Antoniusbaan,301,51.2666801885,4.64752275936
2980,Zoersel,Kwikaard,16,51.2644285595,4.63091629676
2980,Zoersel,Salphensebaan,31,51.2730390051,4.71869035154
2980,Zoersel,Korenbloemlaan,61,51.2600311497,4.63211702306
2980,Zoersel,Liersebaan,77,51.2584109582,4.62946733269
2980,Zoersel,Schriekbos,85,51.2573228596,4.6776970852
2980,Zoersel,Kievit,12,51.2777907483,4.71167259217
2980,Zoersel,De Hulsten,99,51.2748180372,4.68907346853
2980,Zoersel,Achterstraat,88,51.2644093213,4.63691966524
2980,Zoersel,Meidoornlaan,11,51.2733326412,4.65255707909
2980,Zoersel,Wandelweg,34,51.2525152185,4.63547472994
2980,Zoersel,Pastorijstraat,32,51.2660482223,4.70766673846
2980,Zoersel,Stoppelveld,67,51.273153897,4.63250179866
2980,Zoersel,Emiel Vermeulenstraat,15,51.2732471959,4.63724681228
2980,Zoersel,Zandstraat,92,51.2624116013,4.71104484529
2980,Zoersel,Bethaniënlei,1,51.2687406897,4.64084548499
2980,Zoersel,Gagelhoflaan,37,51.2663938779,4.67538333517
2980,Zoersel,Einhoven,18,51.2550247784,4.72553684048
2980,Zoersel,Kerkhoflei,116,51.2710607916,4.6266889072
2980,Zoersel,Ruiterslaan,6,51.2616786674,4.6490724741
2980,Zoersel,Schriekbos,67,51.2588803563,4.68124974076
2980,Zoersel,Heimeulenweg,8,51.2660983277,4.63396768259
2980,Zoersel,Medelaar,164,51.2659512153,4.64711349862
2980,Zoersel,Emiel Vermeulenstraat,33,51.2741912625,4.63818055014
2980,Zoersel,Hallebaan,48,51.2658381417,4.67902694693
2980,Zoersel,Populierenlaan,6,51.2689103592,4.66555707204
2980,Zoersel,Zandstraat,110,51.2606661203,4.71071597083
2980,Zoersel,Vrijgeweide,9,51.2699284177,4.63239980813
2980,Zoersel,Azalealaan,30,51.2551241775,4.63867390385
2980,Zoersel,Brakkebos,20,51.2364031803,4.64925198769
2980,Zoersel,Felix Wyterslaan,36,51.2538621066,4.60921504327
2980,Zoersel,Zoerselhoek,41,51.2614212705,4.65660588056
2980,Zoersel,Gagelhoflaan,50,51.2656322962,4.67385762737
2980,Zoersel,Kwikaard,34,51.2653451165,4.62940480987
2980,Zoersel,Salphensebaan,13,51.2720295542,4.71676493865
2980,Zoersel,Gagelaars,32,51.2624009043,4.63746550349
2980,Zoersel,Doornlaan,14,51.2715524119,4.64879803859
2980,Zoersel,Doornlaan,32,51.2703067305,4.65083578979
2980,Zoersel,Vogelzang,15,51.2373138036,4.64989021233
2980,Zoersel,Zoerselhoek,4,51.2614102387,4.65187556577
2980,Zoersel,Sint Martinusstraat,45,51.2423926228,4.63706315893
2980,Zoersel,Kapellei,2,51.2628002613,4.63276221433
2980,Zoersel,Maalstraat,25,51.2756271,4.72005143566
2980,Zoersel,Spechtendreef,1,51.248229214,4.62214092123
2980,Zoersel,Einhoven,36,51.2562458358,4.7282676838
2980,Zoersel,De Knod,40,51.2748833202,4.62718015718
2980,Zoersel,Gestelbos,18,51.2781922043,4.72061612031
2980,Zoersel,Handelslei,304,51.2734954847,4.64955932953
2980,Zoersel,Ten Otter,5,51.2570251936,4.62649697171
2980,Zoersel,Meerheideweg,19,51.2736389424,4.70518001093
2980,Zoersel,Veldstraat,79,51.2743503662,4.69515183009
2980,Zoersel,Olmenlei,49,51.2747642034,4.65667780028
2980,Zoersel,Verscheurde Hoeve,11,51.2448783881,4.64801225275
2980,Zoersel,Platanenlaan,28,51.2703337194,4.65931445935
2980,Zoersel,Dennenlaan,57,51.2520194518,4.62697495065
2980,Zoersel,Handelslei,160,51.2674156034,4.64000113237
2980,Zoersel,Akker,25,51.2721650145,4.63386375575
2980,Zoersel,Nachtegalendreef,15,51.2499208802,4.61827439408
2980,Zoersel,Kapellei,110,51.2597762828,4.62934477649
2980,Zoersel,Hoge Dreef,65,51.2624818245,4.63914685864
2980,Zoersel,Heybleukenstraat,2,51.2652946692,4.63445451157
2980,Zoersel,Kievitheide,17,51.2792172855,4.712288618
2980,Zoersel,Dageraadstraat,20,51.2360109807,4.64930488928
2980,Zoersel,Krekelenberg,72,51.2733275835,4.70941571886
2980,Zoersel,Nieuwedreef,2,51.2738415086,4.6580222227
2980,Zoersel,Dorp,60,51.2697490281,4.71358185188
2980,Zoersel,Halle-Dorp,114,51.2403207025,4.64219656875
2980,Zoersel,Violetlaan,56,51.2604041488,4.642009183
2980,Zoersel,Nieuwstraat,18,51.2700180133,4.63632273396
2980,Zoersel,Olmenlei,14,51.2743625287,4.65396955504
2980,Zoersel,Boogstraat,13,51.2715349325,4.70892542511
2980,Zoersel,Spartalaan,15,51.277631007,4.62968155342
2980,Zoersel,Hofeinde,18,51.2521628219,4.62766940873
2980,Zoersel,Sparrenlaan,8,51.2683254806,4.65952828389
2980,Zoersel,Uilendreef,10,51.2478899,4.61966142532
2980,Zoersel,Heideweg,19,51.2438531494,4.63463797668
2980,Zoersel,Voorne,1,51.2681289501,4.7058368999
2980,Zoersel,Dageraadstraat,5,51.2356541111,4.64719284857
2980,Zoersel,Korenbloemlaan,43,51.2590749005,4.63351574937
2980,Zoersel,Zonnebloemlaan,56,51.260618671,4.63569759224
2980,Zoersel,Dorp,42,51.2692336093,4.71309889056
2980,Zoersel,Van Der Graesenlaan,7,51.2645674258,4.66230909931
2980,Zoersel,Velsterheide,18,51.2318435559,4.63580698085
2980,Zoersel,De Beemdekens,12,51.2613440471,4.71225554312
2980,Zoersel,Vogelzang,33,51.236179796,4.65012976986
2980,Zoersel,St. Antoniusbaan,131,51.2684383429,4.6716967594
2980,Zoersel,Kapelstraat,44,51.2640309505,4.71700592495
2980,Zoersel,Langebaan,9,51.2670940693,4.70538394974
2980,Zoersel,De Hulsten,137,51.2732418194,4.68808991809
2980,Zoersel,Guido Gezellelaan,44,51.2644210175,4.65557559951
2980,Zoersel,Koekoekdreef,25,51.2439836429,4.62181260597
2980,Zoersel,Knodseplas,21,51.2705643973,4.63091997431
2980,Zoersel,Emiel Vermeulenstraat,152,51.2820461145,4.62792687785
2980,Zoersel,De Knod,12,51.2761364412,4.62467229777
2980,Zoersel,Brakenberg,39,51.244284081,4.64982796711
2980,Zoersel,Medelaar,146,51.2647119302,4.64832213713
2980,Zoersel,Handelslei,142,51.2667564143,4.63901642571
2980,Zoersel,De Maey,16,51.2614940587,4.72544737743
2980,Zoersel,Geleg,61,51.2727334664,4.68258123622
2980,Zoersel,Hoge Dreef,30,51.2611444991,4.64379651843
2980,Zoersel,Lindedreef,10,51.240593281,4.64717145203
2980,Zoersel,Turfstraat,27,51.2755892759,4.70629497748
2980,Zoersel,Platanenlaan,4,51.2678691671,4.65776210354
2980,Zoersel,Akker,1,51.2716712563,4.63299647097
2980,Zoersel,Groenlaan,8,51.2674969348,4.64779716354
2980,Zoersel,Sinjorendreef,19,51.2623432737,4.66339013984
2980,Zoersel,Emiel Vermeulenstraat,106,51.2794275232,4.63120561097
2980,Zoersel,Brakenstraat,16,51.2732620404,4.62515082681
2980,Zoersel,Lotelinglaan,51,51.2412849933,4.64350446845
2980,Zoersel,Rodenbachlaan,11,51.2639467306,4.65737238142
2980,Zoersel,Schalmeidreef,20,51.282178399,4.71889632993
2980,Zoersel,Smissestraat,42,51.2697447429,4.70773366673
2980,Zoersel,Kardinaal Cardijnlaan,17,51.2700690935,4.6262054027
2980,Zoersel,Hooidonkeinde,4,51.2430896867,4.65647491317
2980,Zoersel,Schaddestraat,19,51.2756061185,4.70347132609
2980,Zoersel,Beukenlaan,61,51.272296151,4.65861070193
2980,Zoersel,Gestelsebaan,23,51.2554939183,4.63497114864
2980,Zoersel,Stoppelveld,39,51.2721441786,4.63087744866
2980,Zoersel,Kardinaal Cardijnlaan,35,51.2703219299,4.62434566831
2980,Zoersel,Donker Woud,5,51.2523853241,4.62973173375
2980,Zoersel,Otterdreef,4,51.2529052553,4.62486977938
2980,Zoersel,Zoerselsteenweg,38,51.2669976583,4.64357241101
2980,Zoersel,Medelaar,111,51.2622121752,4.64969343267
2980,Zoersel,Kievit,40,51.276473703,4.71551935936
2980,Zoersel,Driesheide,49,51.2424493347,4.63348406152
2980,Zoersel,Bethaniënlei,175,51.2759148856,4.62951728922
2980,Zoersel,Kerkstraat,39,51.2678860451,4.70757898304
2980,Zoersel,Dorp,34,51.2687544469,4.71328232331
2980,Zoersel,Paddenklank,4,51.2376210768,4.63578489934
2980,Zoersel,Hertendreef,51,51.2727783347,4.6989930957
2980,Zoersel,Beukenlaan,43,51.2713780326,4.65793710447
2980,Zoersel,Jacobslaan,88,51.2600466055,4.66081147407
2980,Zoersel,Mostheuvelstraat,10,51.2761958079,4.66271618157
2980,Zoersel,Handelslei,53,51.2655122817,4.63624277274
2980,Zoersel,Goudbloemlaan,15,51.2530070691,4.63654234205
2980,Zoersel,Kapellei,56,51.2611204258,4.63131737503
2980,Zoersel,Rodenbachlaan,41,51.2627363029,4.65470175919
2980,Zoersel,Berkemei,103,51.2468772648,4.65748108664
2980,Zoersel,Berkemei,138,51.2483445059,4.66182842168
2980,Zoersel,Zandstraat,21,51.2664400134,4.71279995903
2980,Zoersel,Spechtendreef,25,51.2459780109,4.6209580435
2980,Zoersel,Violetlaan,21,51.2562341418,4.64308075445
2980,Zoersel,Schriekbos,39,51.2628754945,4.68435589599
2980,Zoersel,Lage Weg,36,51.2463553679,4.64997539643
2980,Zoersel,Essendreef,2,51.2720792515,4.66702598737
2980,Zoersel,Heidehoeven,39,51.2607749825,4.64804890038
2980,Zoersel,Handelslei,232,51.2693208593,4.64303093287
2980,Zoersel,Krekelenberg,24,51.2706590953,4.70711631913
2980,Zoersel,Het Klooster,11,51.2561957787,4.63418962948
2980,Zoersel,Goudbloemlaan,33,51.25446338,4.63558016088
2980,Zoersel,Wandelweg,87,51.2573066917,4.64501889617
2980,Zoersel,Wandelweg,148,51.2581909529,4.64632556413
2980,Zoersel,Peggerstraat,1,51.240859427,4.65264138114
2980,Zoersel,Priorijlaan,18,51.2655434924,4.6978260429
2980,Zoersel,Emiel Vermeulenstraat,124,51.2804111481,4.62976696792
2980,Zoersel,Gestelsebaan,102,51.2617510301,4.64232654338
2980,Zoersel,Valerialaan,12,51.2683853753,4.65473050494
2980,Zoersel,Smissestraat,60,51.2692939272,4.70536320085
2980,Zoersel,De Bergen,34,51.2384961006,4.63909813571
2980,Zoersel,Oude Baan,11,51.2537038207,4.61336973847
2980,Zoersel,De Wervenlaan,6,51.2551991453,4.61209533635
2980,Zoersel,Ten Otter,20,51.2563424612,4.62730966719
2980,Zoersel,Goudveld,109,51.2654356353,4.67631644029
2980,Zoersel,St. Antoniusbaan,390,51.2670757171,4.64670344626
2980,Zoersel,Medelaar,14,51.2507388103,4.65413082101
2980,Zoersel,Halle-Dorp,142,51.2406596267,4.64034047111
2980,Zoersel,De Hulsten,165,51.2691924871,4.68975454922
2980,Zoersel,Boterbloemlaan,32,51.2542978252,4.63822621767
2980,Zoersel,Vlust,3,51.2355922469,4.63413886016
2980,Zoersel,Korenbloemlaan,13,51.2574741784,4.63582692898
2980,Zoersel,Frans Hensbergenstraat,30,51.2694426846,4.63786042801
2980,Zoersel,Elzenlaan,9,51.2615825242,4.63907758892
2980,Zoersel,Ronkaartweg,15,51.2444855433,4.6440566848
2980,Zoersel,Herentalsebaan,33,51.2685676653,4.71619913963
2980,Zoersel,Hertendreef,47,51.2727075686,4.69958138558
2980,Zoersel,Paul Edwinlaan,20,51.2576891072,4.6633604943
2980,Zoersel,Bethaniënlei,96,51.2761454815,4.63006499995
2980,Zoersel,Sporkenlaan,51,51.2710925588,4.65335225755
2980,Zoersel,Boterbloemlaan,49,51.2566590338,4.63866921054
2980,Zoersel,Risschotplein,1,51.2723814864,4.6660797632
2980,Zoersel,Kapellei,92,51.2601496057,4.6299372211
2980,Zoersel,Gagelhoflaan,67,51.2634654864,4.672951437
2980,Zoersel,Eekhoornlaan,9,51.2764433875,4.7135932565
2980,Zoersel,Alfons Butsstraat,27,51.269058171,4.63860656122
2980,Zoersel,Graffendonk,17,51.2707882556,4.71759244552
2980,Zoersel,Koekoekdreef,6,51.2464031965,4.62432425676
2980,Zoersel,Lotelinglaan,47,51.2414822206,4.64395770695
2980,Zoersel,Halle-Dorp,98,51.2401924452,4.64308418386
2980,Zoersel,Medelaar,32,51.2568058911,4.65426118175
2980,Zoersel,Azalealaan,40,51.2554482018,4.63702021939
2980,Zoersel,De Hulsten,147,51.2720019862,4.68851786384
2980,Zoersel,Duifstraat,20,51.2783507418,4.71480878418
2980,Zoersel,Graffendonk,35,51.2691526386,4.71869132859
2980,Zoersel,Eikenlaan,16,51.2478056296,4.62445728327
2980,Zoersel,Melkweg,42,51.2574097413,4.65447804123
2980,Zoersel,Korenbloemlaan,31,51.2584441504,4.63445373154
2980,Zoersel,Dorp,95,51.2698455966,4.71270695516
2980,Zoersel,De Wagenmaker,21,51.2701408052,4.71586085102
2980,Zoersel,Jacobslaan,101,51.2588466545,4.66012464014
2980,Zoersel,Jacobslaan,17,51.2656687801,4.65859071175
2980,Zoersel,Salvialaan,23,51.2596057351,4.63464187462
2980,Zoersel,Kasteeldreef,23,51.2526385007,4.62215493854
2980,Zoersel,Kapellei,74,51.2606791313,4.63073713027
2980,Zoersel,Medelaar,75,51.2596808933,4.65142323837
2980,Zoersel,Bethaniënlei,25,51.2696520536,4.63981087029
2980,Zoersel,Jacobslaan,35,51.2643728803,4.65905297658
2980,Zoersel,Violetlaan,48,51.2600610865,4.64312368805
2980,Zoersel,Schriekbos,50,51.263838338,4.68408105906
2980,Zoersel,Zandstraat,48,51.2645981212,4.71193660196
2980,Zoersel,Sniederspad,27,51.2390910059,4.64118471772
2980,Zoersel,Ketelheide,20,51.2448174272,4.64226426366
2980,Zoersel,De Hulsten,28,51.2730473155,4.68752328527
2980,Zoersel,Boterbloemlaan,14,51.2527151591,4.638737974
2980,Zoersel,Schriekbos,118,51.2590951868,4.67947515404
2980,Zoersel,Kapellei,217,51.2544484424,4.61624340496
2980,Zoersel,Jukschot,61,51.2688961578,4.63294357658
2980,Zoersel,D'Eike,22,51.243456516,4.64019384643
2980,Zoersel,Mereldreef,16,51.2506385542,4.61590400784
2980,Zoersel,Raymond Delbekestraat,141,51.2737003236,4.62210419584
2980,Zoersel,Boslaan,7,51.2699426997,4.66881493797
2980,Zoersel,Winkelhoeve,4,51.2430796332,4.63799722037
2980,Zoersel,Oudstrijderslaan,21,51.2591706623,4.6543214061
2980,Zoersel,Withoevelaan,22,51.2704489999,4.6488409649
2980,Zoersel,Boskant,22,51.2585851028,4.64917256855
2980,Zoersel,Baron de Caterslaan,16,51.2603810944,4.63776325422
2980,Zoersel,Kapellei,21,51.2625762054,4.63174564521
2980,Zoersel,Herentalsebaan,15,51.2695480425,4.71536553434
2980,Zoersel,Hallebaan,38,51.2672025192,4.67887358003
2980,Zoersel,Korte Kwikaardweg,14,51.2580929445,4.61520693925
2980,Zoersel,Halle-Velden,81B,51.2318467686,4.64716933492
2980,Zoersel,Bethaniënlei,193,51.2767730795,4.62792683161
2980,Zoersel,Hertendreef,15,51.2703705849,4.69869142205
2980,Zoersel,Kardinaal Cardijnlaan,53,51.2687347359,4.62754341288
2980,Zoersel,Antwerpsedreef,116,51.2635073456,4.66853356487
2980,Zoersel,Zoerselsteenweg,56,51.2670666842,4.64496073044
2980,Zoersel,Hallebaan,100,51.2620891223,4.67572368959
2980,Zoersel,Ten Halvelaan,3,51.2673203233,4.66441359914
2980,Zoersel,Herentalsebaan,8,51.26988247,4.71454686237
2980,Zoersel,Krokuslaan,16,51.2572171349,4.63498159368
2980,Zoersel,Lijsterbeslaan,9,51.2629615812,4.63560904942
2980,Zoersel,Liersebaan,42,51.2565468848,4.63092239518
2980,Zoersel,Lotelinglaan,15,51.2418460465,4.64828859682
2980,Zoersel,Emiel Vermeulenstraat,159,51.280812543,4.62851218309
2980,Zoersel,Driesheide,7,51.2412932765,4.63811890123
2980,Zoersel,Beukenlaan,25,51.2697470316,4.65668181612
2980,Zoersel,Tulpenlaan,3,51.2558291811,4.64274833663
2980,Zoersel,Vlasgaard,17,51.2383003755,4.64188972055
2980,Zoersel,Jachthoornlaan,40,51.267985007,4.69810911022
2980,Zoersel,Drengel,57,51.2536522884,4.71828191248
2980,Zoersel,Hoge Dreef,65A,51.2626892219,4.63877715983
2980,Zoersel,Ten Hoflaan,10,51.2558625637,4.69053728861
2980,Zoersel,Ten Boslaan,12,51.2556993201,4.69388957524
2980,Zoersel,Kerkhoflei,5,51.2658369466,4.63308693158
2980,Zoersel,Lotelinglaan,33,51.2414222319,4.64531872393
2980,Zoersel,St. Antoniusbaan,231,51.2671569179,4.6558533923
2980,Zoersel,Victorielaan,56,51.2676834538,4.6438084337
2980,Zoersel,Handelslei,132,51.2663444113,4.63826069771
2980,Zoersel,Hoge Dreef,40,51.2615363569,4.64288298536
2980,Zoersel,Kwikaard,121,51.2698970048,4.62253579997
2980,Zoersel,De Bruelen,5,51.2681229263,4.71343696957
2980,Zoersel,Kapellei,135,51.2586871633,4.6252861328
2980,Zoersel,Antwerpsedreef,30,51.2662535832,4.66036937155
2980,Zoersel,Handelslei,114,51.2658503391,4.63754505432
2980,Zoersel,Gagelhoflaan,20,51.2672438867,4.67538894326
2980,Zoersel,Broekstraat,7,51.2718705579,4.71892228417
2980,Zoersel,Bethaniënlei,112,51.2770257304,4.62829897449
2980,Zoersel,Boterbloemlaan,67,51.2581379386,4.63974256403
2980,Zoersel,Akker,43,51.2724993813,4.63410223954
2980,Zoersel,Uilendreef,27,51.2463755974,4.61772690698
2980,Zoersel,Hertendreef,33,51.2718381763,4.69911566387
2980,Zoersel,Goudveld,31,51.262504381,4.67461586626
2980,Zoersel,Epicialaan,69,51.2758042113,4.66558233684
2980,Zoersel,Emiel Vermeulenstraat,8,51.2747560768,4.63869540439
2980,Zoersel,Hazenpad,5,51.273334496,4.70404649002
2980,Zoersel,Karel Uytroevenlaan,4,51.2694787251,4.64444520891
2980,Zoersel,Gestelsebaan,94,51.2608992153,4.64107977987
2980,Zoersel,Baron de Caterslaan,34,51.2610770396,4.63603071981
2980,Zoersel,Halle-Velden,89,51.2324240868,4.64797110299
2980,Zoersel,Brakenberg,14,51.2416638134,4.65045923575
2980,Zoersel,Sint Martinusstraat,27,51.2420896459,4.63902309077
2980,Zoersel,Herentalsebaan,86,51.2651902161,4.71747952158
2980,Zoersel,Smissestraat,24,51.270055042,4.70963102169
2980,Zoersel,Langebaan,60,51.2641231385,4.7009475188
2980,Zoersel,Frans Hensbergenstraat,12,51.2680057652,4.63831747356
2980,Zoersel,De Knod,83,51.2737429874,4.63048223253
2980,Zoersel,De Hulsten,46,51.270398031,4.68841641477
2980,Zoersel,Bieshoeve,1,51.2774347178,4.71318831443
2980,Zoersel,Doelen,30,51.2722355099,4.71186775329
2980,Zoersel,Driesheide,85,51.2445749076,4.63025741126
2980,Zoersel,Begijnenstraat,24,51.265351493,4.63876440757
2980,Zoersel,Herentalsebaan,124,51.2619199681,4.71818676706
2980,Zoersel,Monnikenheide,10,51.2642848625,4.69766326369
2980,Zoersel,Westmallebaan,76,51.2757965611,4.71019934045
2980,Zoersel,Heideweg,20,51.2432483422,4.63502775088
2980,Zoersel,De Knod,5,51.2769341663,4.62404084527
2980,Zoersel,Olympiadelaan,14,51.278648248,4.6283574839
2980,Zoersel,Kwikaard,77,51.2679661567,4.62638932305
2980,Zoersel,Meerheideweg,55,51.274889311,4.70101687724
2980,Zoersel,Platanenlaan,64,51.2750340519,4.66265337412
2980,Zoersel,Rubenslaan,23,51.2654278184,4.66585375154
2980,Zoersel,Oostmallebaan,30,51.2725599659,4.71556882991
2980,Zoersel,Oostmallebaan,65,51.2766554936,4.71672606013
2980,Zoersel,Dorp,9,51.2679508056,4.71229347382
2980,Zoersel,Achterstraat,154,51.2610267518,4.63237293615
2980,Zoersel,Krekelenberg,89,51.27485802,4.70957138278
2980,Zoersel,Van Der Graesenlaan,22,51.2639438879,4.66101261334
2980,Zoersel,De Beemdekens,5,51.2618303655,4.71291784613
2980,Zoersel,Hoekstraat,26,51.2629627824,4.66492110942
2980,Zoersel,Westmallebaan,94,51.2772940837,4.70933258313
2980,Zoersel,Vlasgaard,3,51.2389350987,4.64186667318
2980,Zoersel,Gagelaars,7,51.2609990914,4.63935311609
2980,Zoersel,Handelslei,149,51.2683967436,4.64055705458
2980,Zoersel,Driesheide,67,51.2435451267,4.63190790639
2980,Zoersel,Raymond Delbekestraat,87,51.2787500002,4.6248152499
2980,Zoersel,Dorp,24,51.2684707662,4.71300813111
2980,Zoersel,Pittinckxlaan,4,51.2407194633,4.65543583069
2980,Zoersel,Alfons Butsstraat,45,51.2706676272,4.63785104562
2980,Zoersel,Herentalsebaan,177,51.2560529398,4.72165383509
2980,Zoersel,Vogelzang,51,51.2346211423,4.64951570604
2980,Zoersel,Kattenberg,4,51.241744114,4.64226880738
2980,Zoersel,Zandstraat,117,51.2603159928,4.71134715757
2980,Zoersel,Voorne,68,51.2691643071,4.69903017627
2980,Zoersel,Emiel Vermeulenstraat,86,51.2785169677,4.63308041662
2980,Zoersel,Achterstraat,35,51.2661228579,4.64154451252
2980,Zoersel,Gagelhoflaan,49,51.2649991395,4.67424803517
2980,Zoersel,Distellaan,16,51.2687823957,4.65050243415
2980,Zoersel,Nachtegalendreef,8,51.2491548165,4.62017396623
2980,Zoersel,Ten Halvelaan,35,51.2655825871,4.66467647832
2980,Zoersel,Olmenlei,50,51.2739401616,4.65979369995
2980,Zoersel,Otterdreef,11,51.2528192927,4.62409757321
2980,Zoersel,Herentalsebaan,159,51.2580208402,4.7217477004
2980,Zoersel,Dennenlaan,22,51.2534291263,4.6251037025
2980,Zoersel,Spartalaan,1,51.2767894308,4.62874777644
2980,Zoersel,Halle-Dorp,3,51.2404461952,4.6517957325
2980,Zoersel,Zoerselhofdreef,28,51.2576294631,4.70578813908
2980,Zoersel,Achterstraat,71,51.265454785,4.63918908896
2980,Zoersel,Dorp,59,51.2692591115,4.71143828698
2980,Zoersel,Berkemei,16,51.2433013569,4.64946115506
2980,Zoersel,Dageraadstraat,19,51.2356929035,4.64944672207
2980,Zoersel,Meidoornlaan,18,51.2733277989,4.65195334784
2980,Zoersel,Wilgenlaan,23,51.2756893218,4.66694598439
2980,Zoersel,Zoerselsteenweg,21,51.2667546396,4.64041620873
2980,Zoersel,Oostmallebaan,83,51.2783385675,4.71778640753
2980,Zoersel,Baron de Borrekenslaan,22,51.2505635065,4.62483725165
2980,Zoersel,Oostmallebaan,5,51.2707924387,4.71390396538
2980,Zoersel,Handelslei,185,51.2719964542,4.64608492397
2980,Zoersel,Dorp,103,51.2701605823,4.71272562045
2980,Zoersel,Beukenlaan,78,51.2736944117,4.6602717728
2980,Zoersel,Wandelweg,52,51.2509034826,4.63849671322
2980,Zoersel,Valerialaan,5,51.2688205385,4.65341184477
2980,Zoersel,Boterbloemlaan,39,51.2553121061,4.63781541539
2980,Zoersel,Gestelsebaan,127,51.2645277881,4.6467496674
2980,Zoersel,Kattenberg,23,51.2428881199,4.64313517572
2980,Zoersel,St. Antoniusbaan,93,51.268916576,4.67757442099
2980,Zoersel,De Knod,30,51.2753483429,4.62628854626
2980,Zoersel,Kerkhoflei,144,51.2724393362,4.62436763663
2980,Zoersel,Boerenkrijglaan,4,51.2622617064,4.69865306776
2980,Zoersel,Sparrenlaan,27,51.2708570463,4.66061462625
2980,Zoersel,Ten Otter,19,51.2573990633,4.62774872187
2980,Zoersel,Salphensebaan,66,51.273972465,4.72245478314
2980,Zoersel,Handelslei,88,51.2653412657,4.63662546598
2980,Zoersel,Paddenklank,11,51.2374374662,4.63633052317
2980,Zoersel,Jachthoornlaan,12,51.2672804653,4.70187258296
2980,Zoersel,Kleistraat,46,51.2719297057,4.68031740082
2980,Zoersel,Meerheide,32,51.2774450449,4.70476431147
2980,Zoersel,Sniederspad,10,51.2397279493,4.64322864396
2980,Zoersel,Olmenlei,67,51.2743940757,4.66008256667
2980,Zoersel,Smissestraat,59,51.2690253587,4.70555167797
2980,Zoersel,Raymond Delbekestraat,16,51.2863994699,4.6301270006
2980,Zoersel,Heidehoeven,32,51.2606314674,4.64856834322
2980,Zoersel,Raymond Delbekestraat,131,51.2744174883,4.6226516375
2980,Zoersel,Emiel Vermeulenstraat,51,51.274749951,4.6374009468
2980,Zoersel,Einhoven,32A,51.2543119526,4.73136627874
2980,Zoersel,Herentalsebaan,47,51.267703086,4.71653282016
2980,Zoersel,Epicialaan,16,51.268853887,4.66113591067
2980,Zoersel,Kwikaard,59,51.2670205343,4.62777026809
2980,Zoersel,Halmolenweg,53,51.2329432839,4.64212612421
2980,Zoersel,Goudbloemlaan,8,51.2522509679,4.63753200188
2980,Zoersel,Schalmeidreef,19,51.2820299401,4.71837108179
2980,Zoersel,Westmallebaan,41,51.2740777087,4.71054897003
2980,Zoersel,Paardenmarkt,23,51.2377586067,4.64357082928
2980,Zoersel,Fazantendreef,6,51.247530562,4.61646377677
2980,Zoersel,Ernest Claeslaan,5,51.2636453446,4.6539731186
2980,Zoersel,Watermolen,34,51.2400167558,4.63218391106
2980,Zoersel,Hoge Dreef,12,51.2604755277,4.64547666918
2980,Zoersel,Kerkstraat,32,51.2678838257,4.7096934735
2980,Zoersel,Langebaan,24,51.2664620064,4.70294843822
2980,Zoersel,Ketelheide,19,51.2449820091,4.64117413234
2980,Zoersel,Violetlaan,38,51.2591219128,4.64342656293
2980,Zoersel,Kerkhoflei,162,51.2737055451,4.62347871877
2980,Zoersel,Amazonelaan,16,51.2633594621,4.64702834686
2980,Zoersel,Hertendreef,68,51.2731585672,4.69914382098
2980,Zoersel,De Wagenmaker,2,51.2692768448,4.71699221033
2980,Zoersel,Handelslei,3,51.2634422721,4.63277245254
2980,Zoersel,Medelaar,118,51.2629374162,4.64993047628
2980,Zoersel,Schriekbos,32,51.2661836536,4.68572770631
2980,Zoersel,Alfons Butsstraat,10,51.2683473637,4.63986830744
2980,Zoersel,Kempendreef,20,51.2537789602,4.63316573427
2980,Zoersel,Handelslei,167,51.2708463296,4.64365750675
2980,Zoersel,Abdijlaan,8,51.2659586606,4.7016116671
2980,Zoersel,St. Antoniusbaan,384,51.2671326957,4.64803954803
2980,Zoersel,Liefkenshoek,113,51.2348688714,4.63156471107
2980,Zoersel,Halle-Dorp,81,51.2403544619,4.64360507557
2980,Zoersel,Bethaniënlei,43,51.2703703333,4.63905421358
2980,Zoersel,Emiel Vermeulenstraat,47,51.2748435653,4.63749893186
2980,Zoersel,Schriekbos,49,51.2614888576,4.68328120909
2980,Zoersel,Graffendonk,53,51.2676616995,4.7198582812
2980,Zoersel,Mereldreef,9,51.2498533324,4.61577580074
2980,Zoersel,Paul Edwinlaan,37,51.255786806,4.66591116419
2980,Zoersel,Priorijlaan,11,51.2649618565,4.69827809579
2980,Zoersel,Sporkenlaan,68,51.2720445786,4.65484745597
2980,Zoersel,Sporkenlaan,15,51.2680644478,4.65142753009
2980,Zoersel,Berkenlaan,29,51.2382882866,4.65554584364
2980,Zoersel,Lotelinglaan,1,51.2422431224,4.65139554671
2980,Zoersel,Sniederspad,81,51.238628614,4.63525516288
2980,Zoersel,Zoerselsteenweg,48,51.2671173105,4.64437431698
2980,Zoersel,Wilgenlaan,4,51.273505038,4.66614412758
2980,Zoersel,Lelielaan,26,51.2562205577,4.63777512408
2980,Zoersel,Kerkhoflei,83,51.2697480918,4.62819010986
2980,Zoersel,Winkelhoeve,11,51.2436504124,4.63676539527
2980,Zoersel,Wandelweg,9,51.2540560487,4.63473531054
2980,Zoersel,Frans Van Looverenlaan,3,51.2681029522,4.64426439461
2980,Zoersel,St. Antoniusbaan,366,51.2672737648,4.65025444486
2980,Zoersel,Halle-Velden,18,51.237112302,4.64639030279
2980,Zoersel,Schriekbos,14,51.2678341576,4.68596878094
2980,Zoersel,Karel Uytroevenlaan,23,51.2684767835,4.64602680599
2980,Zoersel,Stoppelveld,49,51.2726398314,4.63126384013
2980,Zoersel,De Hulsten,11,51.2702769314,4.6871287316
2980,Zoersel,Risschotlei,68,51.2714835593,4.66176387333
2980,Zoersel,Azalealaan,12,51.2530893593,4.64010271981
2980,Zoersel,Meester de Beenhouwerstraat,17,51.2669260201,4.70688311595
2980,Zoersel,Hallebaan,92,51.2627215232,4.67628286519
2980,Zoersel,Boterbloemlaan,7,51.2521647751,4.6383178349
2980,Zoersel,Rodenbachlaan,4,51.2640687042,4.65659821036
2980,Zoersel,De Reiger,25,51.2654215421,4.70845402899
2980,Zoersel,Kerkstraat,14,51.2677881731,4.7112527871
2980,Zoersel,Veldstraat,97,51.2757771737,4.69482336984
2980,Zoersel,Kerkhoflei,65,51.2684941126,4.6291407898
2980,Zoersel,Jacobslaan,53,51.263022994,4.65993836432
2980,Zoersel,Jan Jozeflaan,10,51.2738359729,4.6555749696
2980,Zoersel,Stoppelveld,14,51.2711816792,4.63335162014
2980,Zoersel,Eikenlaan,9,51.2498658061,4.622728321
2980,Zoersel,Kiwilaan,33,51.2714994025,4.66606967716
2980,Zoersel,Kleine Wandelweg,14,51.2519731638,4.63430487429
2980,Zoersel,Bethaniënlei,61,51.2710849578,4.63820337217
2980,Zoersel,Jacobslaan,71,51.2613718966,4.66078957478
2980,Zoersel,Herentalsebaan,224,51.2533619718,4.72235517084
2980,Zoersel,Wandelweg,70,51.2517860847,4.6422297905
2980,Zoersel,Withoevelaan,29,51.2697551811,4.6505467331
2980,Zoersel,Bethaniënlei,108B,51.2772411423,4.63018939231
2980,Zoersel,Kapellei,38,51.2617742829,4.6317800727
2980,Zoersel,Rodenbachlaan,18,51.2631642897,4.65512458515
2980,Zoersel,Violetlaan,2,51.253518114,4.64351662645
2980,Zoersel,Antwerpsedreef,134,51.2625165234,4.67129828789
2980,Zoersel,Kanunnik Ullenslaan,10,51.2444901107,4.63377851661
2980,Zoersel,Rozenlaan,15,51.2569248309,4.64062188663
2980,Zoersel,Wandelweg,138,51.2568401926,4.6459413374
2980,Zoersel,Zandstraat,2,51.2667830205,4.71214686973
2980,Zoersel,Bremlaan,57,51.271885297,4.70405237098
2980,Zoersel,Korenbloemlaan,6,51.2575537734,4.63655923194
2980,Zoersel,Jagersdreef,3,51.2597068995,4.70145946688
2980,Zoersel,Risschotlei,1,51.273049156,4.64901770284
2980,Zoersel,Herentalsebaan,51,51.2674131348,4.7167729329
2980,Zoersel,Handelslei,250,51.2695492064,4.64397723409
2980,Zoersel,Antwerpsedreef,19,51.2669853085,4.65949926639
2980,Zoersel,Duifstraat,5,51.2775226452,4.71643361113
2980,Zoersel,Voetbalstraat,27,51.2744174854,4.71498714001
2980,Zoersel,Goudveld,13,51.2639334988,4.67580248962
2980,Zoersel,Vrijgeweide,24,51.2710626347,4.63188152514
2980,Zoersel,Pijlstraat,18,51.2711405964,4.70874486121
2980,Zoersel,Zonnebloemlaan,2,51.2577905558,4.63618915689
2980,Zoersel,Medelaar,39,51.2572074799,4.65337180284
2980,Zoersel,Meester de Beenhouwerstraat,3,51.267584009,4.70708734476
2980,Zoersel,Duifstraat,19,51.2780751577,4.71536191548
2980,Zoersel,Heidehoeven,14,51.2586848302,4.64480548125
2980,Zoersel,Kastanjeweg,31,51.2758660167,4.64011539206
2980,Zoersel,Kievit,30,51.2772253142,4.71379639247
2980,Zoersel,De Bruelen,30,51.2681653412,4.71414809408
2980,Zoersel,Hallebaan,74,51.2641466293,4.67755361636
2980,Zoersel,Rozenlaan,1,51.2558136017,4.63968517886
2980,Zoersel,Korte Kwikaardweg,7,51.2590653227,4.61411723144
2980,Zoersel,Grasmuslaan,3,51.2617042468,4.65949373417
2980,Zoersel,St. Antoniusbaan,75,51.2687574279,4.67975338548
2980,Zoersel,Graffendonk,9A,51.271361169,4.71689204747
2980,Zoersel,Halle-Dorp,68,51.2398543975,4.64527674959
2980,Zoersel,Akker,47,51.2724145564,4.63425135188
2980,Zoersel,Goudbloemlaan,3,51.2518332599,4.63698775185
2980,Zoersel,Manderleylaan,37,51.2646284254,4.66794351049
2980,Zoersel,Epicialaan,5,51.2686437592,4.66025599181
2980,Zoersel,Achterstraat,239,51.2597309392,4.63001451638
2980,Zoersel,Kapellei,62,51.2609838915,4.6311565856
2980,Zoersel,De Hulsten,89,51.276045666,4.68913595595
2980,Zoersel,Het Klooster,6,51.2565622309,4.63419029022
2980,Zoersel,Raymond Delbekestraat,29,51.2848873812,4.63146479241
2980,Zoersel,Medelaar,70,51.2593929444,4.65241966762
2980,Zoersel,Kerkhoflei,47,51.2674110865,4.63073827121
2980,Zoersel,Koekoekdreef,31,51.2433234762,4.62108612533
2980,Zoersel,Kapellenhoflaan,21,51.2575262684,4.61471560724
2980,Zoersel,Beukenlaan,84,51.2760623253,4.66210443441
2980,Zoersel,Vogelzang,23,51.2371710137,4.65002608949
2980,Zoersel,Rietakker,16,51.2379401286,4.63738440197
2980,Zoersel,Nachtegalendreef,23,51.2509305234,4.61717454173
2980,Zoersel,Kievit,47,51.2773521713,4.71464600336
2980,Zoersel,Zoerselhoek,18,51.2619387152,4.65416750615
2980,Zoersel,Halle-Dorp,86,51.2400561785,4.64408873508
2980,Zoersel,Oosterenberg,10,51.2553900555,4.70517516783
2980,Zoersel,Baron de Caterslaan,57,51.2624071376,4.63363401737
2980,Zoersel,Handelslei,172,51.2676470377,4.64051527333
2980,Zoersel,Zoerselsteenweg,26,51.2670864635,4.64252745352
2980,Zoersel,Westmallebaan,15,51.2716531459,4.71227398117
2980,Zoersel,De Bergen,50,51.2364276372,4.63943604345
2980,Zoersel,Kardinaal Cardijnlaan,12,51.2698529319,4.62677891717
2980,Zoersel,Molenheide,1,51.2777442676,4.71111864641
2980,Zoersel,Manderleylaan,19,51.266626654,4.66948468366
2980,Zoersel,Kapellei,44,51.2615910653,4.63163491726
2980,Zoersel,Hoekstraat,21,51.2619501932,4.66712114844
2980,Zoersel,Spechtendreef,41,51.2445714056,4.62020860169
2980,Zoersel,Goudveld,4,51.2649141595,4.67592673555
2980,Zoersel,Salvialaan,4,51.2588029488,4.63676612186
2980,Zoersel,Platanenlaan,36,51.2711282189,4.65988785204
2980,Zoersel,Risschotlei,76,51.2712231751,4.66399882263
2980,Zoersel,Handelslei,154,51.2672792521,4.63976593636
2980,Zoersel,Westmallebaan,33,51.2734590038,4.71087357084
2980,Zoersel,Gagelhoflaan,60,51.2647853664,4.6733554978
2980,Zoersel,Amazonelaan,29,51.2638808442,4.64704063818
2980,Zoersel,Kapellei,186,51.2569494456,4.62296385824
2980,Zoersel,St. Antoniusbaan,87,51.2688699878,4.67844354323
2980,Zoersel,Doornlaan,24,51.270796428,4.64999995979
2980,Zoersel,Kwikaard,128,51.2695952935,4.62063593489
2980,Zoersel,Turfstraat,19,51.2745987822,4.70628964692
2980,Zoersel,Hendrik Consciencelaan,48,51.2643570138,4.66892128309
2980,Zoersel,Emiel Vermeulenstraat,144,51.2815566165,4.62845844352
2980,Zoersel,Hendrik Consciencelaan,32,51.2656599939,4.66993087998
2980,Zoersel,Kasteeldreef,4,51.2534822593,4.61758193383
2980,Zoersel,Amazonelaan,5,51.2624712087,4.6475361905
2980,Zoersel,Maalstraat,31,51.274974029,4.72064936537
2980,Zoersel,Berkenlaan,16,51.2358207599,4.65589172415
2980,Zoersel,Felix Wyterslaan,28,51.2549568887,4.6099609645
2980,Zoersel,Halmolenweg,12,51.2389522439,4.64465796124
2980,Zoersel,Dageraadstraat,10,51.2360127268,4.64784861378
2980,Zoersel,Halle-Velden,60,51.2309228123,4.64649880353
2980,Zoersel,Jacobslaan,40,51.263638099,4.65879194196
2980,Zoersel,Dorp,50,51.2695054922,4.71331926896
2980,Zoersel,Krekelenberg,82,51.2740820333,4.70989241153
2980,Zoersel,Uilendreef,20,51.2469732485,4.61750626592
2980,Zoersel,Brakkebos,10,51.2363982165,4.64812397462
2980,Zoersel,Otterdreef,18,51.254337393,4.62327815244
2980,Zoersel,Eikenlaan,22,51.248385949,4.62348673662
2980,Zoersel,St. Antoniusbaan,118,51.2706916242,4.67937529876
2980,Zoersel,Kwikaard,50,51.2662877358,4.62804971997
2980,Zoersel,Handelslei,19,51.2640671136,4.63334534364
2980,Zoersel,Hendrik Consciencelaan,14,51.2672822306,4.67122070902
2980,Zoersel,Kievitheide,53,51.2798305246,4.71322527487
2980,Zoersel,Halle-Dorp,122,51.2404968143,4.64148478512
2980,Zoersel,Lindedreef,55,51.2449737494,4.64645286366
2980,Zoersel,Emiel Vermeulenstraat,23,51.2736634428,4.63764141894
2980,Zoersel,Azalealaan,47,51.2546589396,4.63519396971
2980,Zoersel,Gestelsebaan,43,51.256594865,4.63752360688
2980,Zoersel,Halle-Velden,7,51.2384778812,4.64701216017
2980,Zoersel,Grasmuslaan,8,51.261934282,4.65878947463
2980,Zoersel,Gestelsebaan,4,51.2549631313,4.63193732777
2980,Zoersel,Sint Martinusstraat,20,51.2408586953,4.64279986365
2980,Zoersel,Olmenlei,59,51.2746321646,4.65884523943
2980,Zoersel,Liefkenshoek,87,51.2372109398,4.63085372783
2980,Zoersel,Achterstraat,132,51.2625117737,4.63374865008
2980,Zoersel,Halmolenweg,83,51.2262398081,4.6354538565
2980,Zoersel,Heybleukenstraat,62,51.2674216528,4.63751331113
2980,Zoersel,Tortelstraat,1,51.2789957879,4.71509935315
2980,Zoersel,Salvialaan,43,51.2606087279,4.63296607844
2980,Zoersel,Halle-Dorp,150,51.2406762005,4.63981704889
2980,Zoersel,Liersebaan,48,51.2568911498,4.63091674554
2980,Zoersel,Baron de Caterslaan,5,51.2603091814,4.63910370302
2980,Zoersel,Van Der Graesenlaan,3B,51.2649024815,4.66264560588
2980,Zoersel,Pastorijstraat,24,51.2665881885,4.70781008143
2980,Zoersel,Jukschot,84,51.2683616054,4.6315833929
2980,Zoersel,Kapellei,80,51.2604804453,4.6305546488
2980,Zoersel,Handelslei,190,51.2681429809,4.64103541116
2980,Zoersel,De Bergen,2,51.2407659205,4.63898718563
2980,Zoersel,Kasteeldreef,43,51.2514236573,4.62493508945
2980,Zoersel,Hoogveld,12,51.2631928395,4.71043355809
2980,Zoersel,Turfstraat,37,51.2767016572,4.70604610925
2980,Zoersel,Emiel Vermeulenstraat,116,51.2799176493,4.63027482612
2980,Zoersel,Nieuwstraat,28,51.2705052954,4.63631035215
2980,Zoersel,Raymond Delbekestraat,111,51.2759612797,4.62329132601
2980,Zoersel,Halmolenweg,30,51.237925143,4.64530980615
2980,Zoersel,Gagelhoflaan,42,51.2663658986,4.67452666027
2980,Zoersel,Jacobslaan,12,51.2663153701,4.65834559207
2980,Zoersel,Kastanjeweg,25,51.2757620095,4.63953383671
2980,Zoersel,Halle-Dorp,104,51.2402509275,4.64278854861
2980,Zoersel,Sint Martinusstraat,55,51.2429632793,4.63588131721
2980,Zoersel,Vogelzang,58,51.2349496535,4.64755101095
2980,Zoersel,Raymond Delbekestraat,75,51.2796045685,4.62631788049
2980,Zoersel,Akker,17,51.2720673609,4.63320076438
2980,Zoersel,De Hulsten,36,51.2718764898,4.68792707224
2980,Zoersel,Hallebaan,26,51.2675169736,4.6804275147
2980,Zoersel,Emiel Vermeulenstraat,3,51.2727254943,4.63678225027
2980,Zoersel,Draverslaan,24,51.2610588157,4.64607380032
2980,Zoersel,Emiel Vermeulenstraat,134,51.281003375,4.62911891407
2980,Zoersel,Salvialaan,15,51.2592085528,4.63531445933
2980,Zoersel,Kardinaal Cardijnlaan,40,51.2697890143,4.62471971593
2980,Zoersel,Kardinaal Cardijnlaan,1,51.268858666,4.628165943
2980,Zoersel,Melkweg,39,51.2584031446,4.65454646172
2980,Zoersel,Handelslei,126,51.266119085,4.63817758198
2980,Zoersel,Withoevelaan,34,51.2695779208,4.65002381987
2980,Zoersel,Kapellei,258,51.2542403824,4.61764429085
2980,Zoersel,Meester de Beenhouwerstraat,20,51.2669727545,4.7062877149
2980,Zoersel,Kerkhoflei,17,51.2662139722,4.63253905186
2980,Zoersel,Alfons Butsstraat,19,51.2686510492,4.6385859999
2980,Zoersel,Hoge Dreef,53,51.2618948085,4.64070769548
2980,Zoersel,Ronkaartweg,23,51.2450711176,4.64391007073
2980,Zoersel,Hoge Dreef,71,51.2629776032,4.63821036801
2980,Zoersel,Vennenlaan,11,51.2722595515,4.70554373245
2980,Zoersel,Salvialaan,33,51.2600996405,4.63380351247
2980,Zoersel,Baron de Caterslaan,29,51.2613157189,4.6365286246
2980,Zoersel,Korenbloemlaan,25,51.2581207757,4.63492144969
2980,Zoersel,Wandelweg,22,51.2534254868,4.63462928959
2980,Zoersel,Halle-Dorp,15,51.240320608,4.65045166998
2980,Zoersel,Verscheurde Hoeve,6,51.244372668,4.6487475845
2980,Zoersel,Kasteeldreef,33,51.2519332611,4.62353955434
2980,Zoersel,Sniederspad,37,51.2390329161,4.64037678886
2980,Zoersel,Diamantstraat,15,51.2759279442,4.72326915422
2980,Zoersel,Ten Otter,10,51.2564995955,4.62619109728
2980,Zoersel,Halle-Velden,95,51.2329767762,4.64786045768
2980,Zoersel,Lelielaan,21,51.2554681466,4.63926891501
2980,Zoersel,Olmenlei,131,51.273817896,4.67072287983
2980,Zoersel,Herentalsebaan,3,51.270361084,4.71467422217
2980,Zoersel,Akker,35,51.2727466804,4.6340079324
2980,Zoersel,Zandstraat,80,51.2632660762,4.71124669252
2980,Zoersel,Lotelinglaan,41,51.241376681,4.64454204059
2980,Zoersel,Tulpenlaan,8,51.2564346335,4.64201205642
2980,Zoersel,Driesheide,77,51.2440483591,4.63103147802
2980,Zoersel,Berkenlaan,34,51.2385050794,4.65440010233
2980,Zoersel,Handelslei,108,51.2657605384,4.63719294636
2980,Zoersel,Westmallebaan,68,51.2753850366,4.71049323846
2980,Zoersel,Krimveldweg,22,51.2434001678,4.63921143223
2980,Zoersel,Kasteeldreef,15,51.2529292506,4.62073838388
2980,Zoersel,Krekelenberg,14,51.270006149,4.70665792518
2980,Zoersel,Kievit,17,51.2782884913,4.71109327683
2980,Zoersel,Bethaniënlei,13,51.2691673788,4.64033116543
2980,Zoersel,Paddenklank,18,51.2387449934,4.63613801453
2980,Zoersel,Herentalsebaan,23,51.2691452836,4.71563863682
2980,Zoersel,De Bruelen,17,51.2685865441,4.71432889197
2980,Zoersel,Raymond Delbekestraat,57,51.2810307025,4.62633066268
2980,Zoersel,Emiel Vermeulenstraat,58,51.2769363501,4.63497667416
2980,Zoersel,Risschotlei,41,51.2722360864,4.65818030899
2980,Zoersel,Duifstraat,10,51.2783228168,4.71636063277
2980,Zoersel,Berkemei,5,51.2435842992,4.6476464705
2980,Zoersel,Spechtendreef,13,51.2468181188,4.62385808791
2980,Zoersel,Groenlaan,37,51.2690587452,4.64991593803
2980,Zoersel,Drengel,34,51.2552950332,4.71543561914
2980,Zoersel,Nachtegalendreef,3,51.2483356065,4.61996902909
2980,Zoersel,Zandstraat,44,51.2649870264,4.71200523372
2980,Zoersel,Goudbloemlaan,23,51.2536379125,4.63612715997
2980,Zoersel,Achterstraat,114,51.2632355256,4.63490075066
2980,Zoersel,De Beemdekens,17,51.2606774797,4.71268525872
2980,Zoersel,Oostmallebaan,152,51.2803587534,4.72100328464
2980,Zoersel,Mathias Joostenslaan,46,51.262580974,4.62292261204
2980,Zoersel,Distellaan,5,51.26947508,4.65157280403
2980,Zoersel,Schriekbos,60,51.2623999394,4.68323780544
2980,Zoersel,Stoppelveld,42,51.272716051,4.63275566374
2980,Zoersel,Violetlaan,44,51.2596616778,4.64338061756
2980,Zoersel,Kerkhoflei,106,51.270701869,4.62768404639
2980,Zoersel,Stoppelveld,7,51.2705832308,4.63343618936
2980,Zoersel,Kleine Wandelweg,7,51.2524726832,4.63472710801
2980,Zoersel,Boterbloemlaan,59,51.2574799204,4.63922604903
2980,Zoersel,Sinjorendreef,27,51.2614387534,4.66239062169
2980,Zoersel,Jan Jozeflaan,19,51.273141569,4.65437618068
2980,Zoersel,Gestelsebaan,15,51.255282728,4.63415734204
2980,Zoersel,Spechtendreef,31,51.245629273,4.61985773358
2980,Zoersel,Graffendonk,1,51.2723008597,4.71540669584
2980,Zoersel,Antwerpsedreef,45,51.2658751875,4.66275691905
2980,Zoersel,Bethaniënlei,165,51.2753485602,4.63048139175
2980,Zoersel,Boterbloemlaan,77,51.2591151124,4.64030550943
2980,Zoersel,Sporkenlaan,41,51.2700699396,4.65272728951
2980,Zoersel,Jacobslaan,132,51.2576147015,4.65509769705
2980,Zoersel,Oostmallebaan,88,51.2762320622,4.71721170142
2980,Zoersel,Molenheide,12,51.277007466,4.7109436869
2980,Zoersel,Medelaar,141,51.2638430613,4.64846146492
2980,Zoersel,Schriekbos,42,51.2649688574,4.68496639755
2980,Zoersel,Kerkhoflei,159,51.2726212002,4.62134645359
2980,Zoersel,Schriekbos,7,51.2676703037,4.68793601346
2980,Zoersel,Gestelsebaan,33,51.2557772319,4.63604407009
2980,Zoersel,Mathias Joostenslaan,64,51.2641706079,4.62584363247
2980,Zoersel,Kortestraat,16,51.2707389592,4.7007963494
2980,Zoersel,Groenlaan,19,51.2691599691,4.64790157416
2980,Zoersel,Dorp,85,51.2694197698,4.71263173276
2980,Zoersel,St. Antoniusbaan,254,51.2681243945,4.66388313783
2980,Zoersel,De Hulsten,157,51.2705428215,4.68891819759
2980,Zoersel,St. Antoniusbaan,201,51.2674476234,4.66042772794
2980,Zoersel,Lage Weg,28,51.2459840359,4.64832049675
2980,Zoersel,Raymond Delbekestraat,93,51.2774249476,4.62465274258
2980,Zoersel,Eksterdreef,14,51.2491577962,4.61647073238
2980,Zoersel,Gestelsebaan,68,51.2589284842,4.63855518601
2980,Zoersel,Smissestraat,48,51.2695828838,4.70703684309
2980,Zoersel,Berkemei,29,51.2437497651,4.64999872953
2980,Zoersel,Zandstraat,9,51.2670729696,4.71280034522
2980,Zoersel,Zandstraat,62,51.2641499009,4.71171051271
2980,Zoersel,Halle-Dorp,33,51.2398904652,4.64816615154
2980,Zoersel,Drengel,87,51.2527401773,4.72231807242
2980,Zoersel,Voorne,31,51.2684526921,4.70210564741
2980,Zoersel,De Hulsten,18,51.2723647516,4.68705433653
2980,Zoersel,Mathias Joostenslaan,11,51.2617088172,4.62866983427
2980,Zoersel,Watermolen,5,51.2405346219,4.63568264114
2980,Zoersel,Krekelenberg,46,51.2720333886,4.7079685906
2980,Zoersel,Heidehoeven,7,51.2589714486,4.64211005883
2980,Zoersel,Bethaniënlei,130,51.2781774857,4.62595656463
2980,Zoersel,Gestelbos,6,51.2782202858,4.719757186
2980,Zoersel,Kerkhoflei,124,51.2714292797,4.62554851065
2980,Zoersel,Hoogveld,1,51.2624892773,4.70985849071
2980,Zoersel,Eikenlaan,2,51.246128983,4.6266278754
2980,Zoersel,Bethaniënlei,66,51.2747804834,4.63259013569
2980,Zoersel,Zoerselhofdreef,36,51.2573795429,4.70438351606
2980,Zoersel,Kastanjeweg,43,51.2764542315,4.63908617609
2980,Zoersel,De Bergen,49,51.2373674847,4.63997459061
2980,Zoersel,Herentalsebaan,94,51.2646470101,4.71767616657
2980,Zoersel,Gagelhoflaan,59,51.2641454922,4.67349356825
2980,Zoersel,Hoge Dreef,17,51.2603665056,4.64455231147
2980,Zoersel,Kerkhoflei,53,51.267757634,4.63018889302
2980,Zoersel,Kievitheide,30,51.2795745248,4.7136921597
2980,Zoersel,Kermisplein,7,51.2688275016,4.71010043711
2980,Zoersel,Berkemei,156,51.2512136412,4.67030077382
2980,Zoersel,Kapellei,97,51.2599725803,4.62865496472
2980,Zoersel,Ruiterslaan,13,51.2629644641,4.64685979632
2980,Zoersel,Oudstrijderslaan,79,51.2613808847,4.65268322001
2980,Zoersel,Hoge Dreef,1,51.2597263603,4.6464301415
2980,Zoersel,Kerkhoflei,71,51.2688531241,4.62896871566
2980,Zoersel,Kastanjeweg,4,51.2759983563,4.63746792419
2980,Zoersel,Populierenlaan,31,51.2703158306,4.66477983988
2980,Zoersel,Monnikenheide,8,51.2641610508,4.69790436584
2980,Zoersel,Gestelsebaan,86,51.260252382,4.64015829984
2980,Zoersel,Hallebaan,44,51.2667738434,4.67802582698
2980,Zoersel,Akker,53,51.2723760764,4.63453556639
2980,Zoersel,Herentalsebaan,169,51.2568768775,4.72256353409
2980,Zoersel,Kapellei,79,51.2604923777,4.62942758313
2980,Zoersel,Handelslei,47,51.2652117517,4.63578916934
2980,Zoersel,Dennenlaan,34,51.2516804971,4.62652490615
2980,Zoersel,Handelslei,8,51.2631294533,4.63314559544
2980,Zoersel,Ten Hoflaan,20,51.2575429322,4.69155895199
2980,Zoersel,Hendrik Consciencelaan,39,51.2655270357,4.67078377086
2980,Zoersel,Orchideeënlaan,17,51.2541670386,4.64097071943
2980,Zoersel,Wandelweg,57,51.2527455769,4.64293254439
2980,Zoersel,Abdijlaan,10,51.2660775864,4.70132081474
2980,Zoersel,Rubenslaan,15,51.2660574744,4.66680652874
2980,Zoersel,Ruiterslaan,31,51.2628744741,4.64499125459
2980,Zoersel,Oude Heide,6,51.2474646672,4.64791164207
2980,Zoersel,Parklaan,6,51.25460221,4.69172517314
2980,Zoersel,Frans Van Looverenlaan,12,51.2678981369,4.64479130357
2980,Zoersel,Van Der Graesenlaan,34,51.2631102766,4.66026368975
2980,Zoersel,Akker,6,51.2713817259,4.63372660016
2980,Zoersel,Amazonelaan,22,51.2636846396,4.6475317226
2980,Zoersel,Baron de Caterslaan,40,51.2613177822,4.63545849995
2980,Zoersel,St. Antoniusbaan,338,51.2673566262,4.65396667025
2980,Zoersel,Vrijgeweide,2,51.269928314,4.63345036852
2980,Zoersel,Kapelstraat,11,51.2660676083,4.71456089518
2980,Zoersel,Molenheide,30,51.2755903586,4.71169275624
2980,Zoersel,Brakenberg,24,51.2425876685,4.65063495582
2980,Zoersel,Bremlaan,16,51.2699943927,4.70453965553
2980,Zoersel,Melkweg,2,51.2596009254,4.65223614103
2980,Zoersel,Kievit,53,51.2770780115,4.71529600992
2980,Zoersel,Hallebaan,6,51.2688361756,4.68162115518
2980,Zoersel,Felix Timmermanslaan,4,51.2639578457,4.653386356
2980,Zoersel,Het Moer,6,51.2632776279,4.66703368326
2980,Zoersel,Grasmuslaan,12,51.2618427824,4.65809294808
2980,Zoersel,Rodendijk,43,51.2467333169,4.70468361986
2980,Zoersel,Handelslei,83,51.2665393526,4.63763643758
2980,Zoersel,Heideweg,103,51.2461866776,4.64266744064
2980,Zoersel,Bethaniënlei,219,51.2780635129,4.62521373436
2980,Zoersel,Schaddestraat,7,51.2755839713,4.70490848887
2980,Zoersel,Jacobslaan,83,51.2602517146,4.66175638239
2980,Zoersel,Heidehoeven,42,51.260787382,4.64922596919
2980,Zoersel,Medelaar,87,51.260451996,4.65093670593
2980,Zoersel,Achterstraat,195,51.2609403364,4.63170486957
2980,Zoersel,Heybleukenstraat,9,51.2657041516,4.63438521764
2980,Zoersel,Dorp,14,51.2679266219,4.7126967683
2980,Zoersel,Heideweg,45,51.2444912708,4.63637069819
2980,Zoersel,Nieuwedreef,9,51.272843227,4.65804051085
2980,Zoersel,Victorielaan,6,51.2689208448,4.64343319794
2980,Zoersel,Lindedreef,3,51.2402809047,4.64638316365
2980,Zoersel,Lindedreef,19,51.2415302155,4.64687248265
2980,Zoersel,Voorne,58,51.2690832931,4.70006768075
2980,Zoersel,Sint Martinusstraat,37,51.2424350122,4.63790756685
2980,Zoersel,Olmenlei,42,51.2741181456,4.65770066601
2980,Zoersel,Liefkenshoek,70,51.2395341395,4.62948675271
2980,Zoersel,Herentalsebaan,216,51.2540998575,4.72177422857
2980,Zoersel,Herentalsebaan,187,51.2554388474,4.72192691806
2980,Zoersel,Uilendreef,3,51.248445585,4.62263262345
2980,Zoersel,Oudstrijderslaan,9,51.258773851,4.65509122985
2980,Zoersel,Handelslei,30,51.2634354011,4.63439273386
2980,Zoersel,Eikenlaan,29,51.2516624086,4.62011907075
2980,Zoersel,Begijnenstraat,14,51.2659853055,4.63886107461
2980,Zoersel,Kromme Weg,5,51.2703101355,4.6236065369
2980,Zoersel,Emiel Vermeulenstraat,94,51.2789022225,4.63226759389
2980,Zoersel,Lotelinglaan,23,51.2414901271,4.64641458511
2980,Zoersel,Nieuwstraat,11,51.269636877,4.63613928522
2980,Zoersel,Westmallebaan,86,51.27663184,4.70973328501
2980,Zoersel,Halle-Velden,77,51.2321018401,4.6466820859
2980,Zoersel,Kapellei,9,51.263217541,4.63189755335
2980,Zoersel,Azalealaan,35,51.2550579158,4.63710505555
2980,Zoersel,Hertendreef,23,51.2709457312,4.69879322724
2980,Zoersel,Kwikaard,67,51.2674787361,4.62716446955
2980,Zoersel,Vogelzang,41,51.2352878994,4.64993194148
2980,Zoersel,Handelslei,244,51.2695660471,4.6436159733
2980,Zoersel,Antwerpsedreef,98,51.2639571747,4.66698589566
2980,Zoersel,St. Antoniusbaan,372,51.2670847654,4.64933805444
2980,Zoersel,Jozef Cornelissenslaan,21,51.2656894649,4.6318324684
2980,Zoersel,Oostmallebaan,124,51.2775872986,4.71925340502
2980,Zoersel,Meerheideweg,10,51.2735113848,4.70713593728
2980,Zoersel,Lindedreef,37,51.2435754621,4.64662981623
2980,Zoersel,Medelaar,131,51.2631947399,4.64902803887
2980,Zoersel,Liersebaan,2,51.2528620726,4.63275903861
2980,Zoersel,Halmolenweg,19,51.236852547,4.64581272738
2980,Zoersel,Oosterenberg,27,51.25410371,4.70593905026
2980,Zoersel,St. Antoniusbaan,111,51.2682281794,4.67452831036
2980,Zoersel,Kwikaard,85,51.2683992757,4.62570011442
2980,Zoersel,Antwerpsedreef,47,51.2657604502,4.66310033196
2980,Zoersel,Hallebaan,80,51.2636697519,4.67709027948
2980,Zoersel,Uilendreef,19,51.2469727826,4.61908634004
2980,Zoersel,Handelslei,65,51.266056638,4.63670695758
2980,Zoersel,Handelslei,179,51.2716067449,4.64550098512
2980,Zoersel,Korte Kievitstraat,2,51.2764253456,4.71496784751
2980,Zoersel,Liefkenshoek,101,51.2360273535,4.63149823823
2980,Zoersel,Wandelweg,75,51.2557010036,4.64464079314
2980,Zoersel,Smissestraat,32,51.269917367,4.70874880974
2980,Zoersel,St. Antoniusbaan,52,51.2697859413,4.68443491838
2980,Zoersel,Jan Jozeflaan,8,51.2738626362,4.65595787951
2980,Zoersel,Azalealaan,17,51.2536426589,4.63932933372
2980,Zoersel,Azalealaan,53,51.2544500522,4.63443590894
2980,Zoersel,Emiel Vermeulenstraat,169,51.2816207735,4.62768945886
2980,Zoersel,Molenbaan,1,51.2720911654,4.71362458975
2980,Zoersel,Stijn Streuvelslaan,15,51.2638795477,4.65301739651
2980,Zoersel,Baron de Caterslaan,22,51.2606137274,4.63720361146
2980,Zoersel,Kastanjeweg,61,51.2769901292,4.63939195742
2980,Zoersel,Olmenlei,60,51.2737571063,4.66181460806
2980,Zoersel,Sint Martinusstraat,19,51.2417203921,4.64004638266
2980,Zoersel,Wandelweg,29,51.2524873418,4.63611595727
2980,Zoersel,Frans Hensbergenstraat,1,51.2682561487,4.63694931991
2980,Zoersel,Andreas Vesaliuslaan,6,51.2722404878,4.64516401287
2980,Zoersel,De Reiger,13,51.2656899377,4.70672927716
2980,Zoersel,Achterstraat,65,51.2655067754,4.63952536161
2980,Zoersel,Hooidonkbos,16,51.2412349661,4.66107049158
2980,Zoersel,Vrijgeweide,32,51.271429902,4.63119194957
2980,Zoersel,Sniederspad,20,51.239462296,4.64220354792
2980,Zoersel,De Wervenlaan,13,51.2543898873,4.61385176029
2980,Zoersel,Mathias Joostenslaan,36,51.2626947385,4.62625250148
2980,Zoersel,Kapellei,26,51.2621312911,4.63222648741
2980,Zoersel,Oostmallebaan,53,51.2752834969,4.71587890778
2980,Zoersel,Het Klooster,36,51.2563269111,4.63327205056
2980,Zoersel,Kanunnik Ullenslaan,20,51.2453440906,4.6326172367
2980,Zoersel,Klein Herentals,7,51.2379712421,4.63468051132
2980,Zoersel,Den Haan,5,51.2442494532,4.70345358335
2980,Zoersel,Kapellei,276,51.2531175114,4.61501225044
2980,Zoersel,St. Antoniusbaan,354,51.2671459616,4.65212886607
2980,Zoersel,Kwikaard,29,51.2654064508,4.63008038754
2980,Zoersel,Meerheide,24,51.277350293,4.7063461741
2980,Zoersel,Heimeulenweg,20,51.2666189701,4.6340693706
2980,Zoersel,Rietakker,5,51.2375649057,4.63807553522
2980,Zoersel,Karel Uytroevenlaan,15,51.2689029495,4.64566856689
2980,Zoersel,Kriekendreef,14,51.272434787,4.66241569014
2980,Zoersel,Monnikendreef,23,51.2670162055,4.68834200691
2980,Zoersel,Krokuslaan,22,51.2575597517,4.63451084365
2980,Zoersel,Frans Hensbergenstraat,17,51.2686914947,4.63764129926
2980,Zoersel,Zoerselsteenweg,62,51.2670441039,4.64539142588
2980,Zoersel,Ten Boslaan,1,51.2538799684,4.69252284765
2980,Zoersel,Emiel Vermeulenstraat,41,51.2744431563,4.63824047681
2980,Zoersel,Voetbalstraat,19,51.2750077664,4.71461207702
2980,Zoersel,Zandstraat,105,51.2613992939,4.71152389905
2980,Zoersel,Oostmallebaan,71,51.2770752257,4.71700764816
2980,Zoersel,Sporkenlaan,23,51.2686488015,4.6518295483
2980,Zoersel,Frans Hensbergenstraat,35,51.2699909751,4.63698885156
2980,Zoersel,Brakkebos,7,51.2367080692,4.64834204171
2980,Zoersel,Vlasgaard,12,51.2379065211,4.64133843163
2980,Zoersel,Liersebaan,14,51.2547336178,4.63094654239
2980,Zoersel,Kleistraat,54,51.2722202427,4.68067843787
2980,Zoersel,Raymond Delbekestraat,189,51.2698881413,4.61915252592
2980,Zoersel,Sinjorendreef,10,51.2642029122,4.66405451066
2980,Zoersel,Jukschot,13,51.2717394645,4.63615582918
2980,Zoersel,Ten Boslaan,17,51.2564858497,4.69344701007
2980,Zoersel,Melkweg,32,51.2581417992,4.65416051957
2980,Zoersel,Essendreef,9,51.2725077847,4.66806717928
2980,Zoersel,Drengel,52,51.2539924782,4.71728511168
2980,Zoersel,Olympiadelaan,7,51.2783313093,4.62721653971
2980,Zoersel,Goudveld,25,51.2629899368,4.67495988499
2980,Zoersel,Schaddestraat,10,51.2763043012,4.70496844134
2980,Zoersel,Bremlaan,69,51.2715344038,4.70543932153
2980,Zoersel,Rozenlaan,23,51.2575798358,4.6410783773
2980,Zoersel,Driesheide,60,51.2428402094,4.63209136584
2980,Zoersel,Oostmallebaan,47,51.2748490572,4.71564623969
2980,Zoersel,Gagelhoflaan,7,51.26819595,4.67693390196
2980,Zoersel,Kerkhoflei,170,51.2730616316,4.62197246397
2980,Zoersel,Zonnebloemlaan,26,51.2593255011,4.63808146539
2980,Zoersel,Kwikaard,2,51.2634849617,4.63200995469
2980,Zoersel,Manderleylaan,8,51.2668287701,4.66875471546
2980,Zoersel,Sparrenlaan,19,51.2699400738,4.65988169739
2980,Zoersel,Zoerselbosdreef,21,51.2527571965,4.7012043452
2980,Zoersel,Eekhoornlaan,14,51.2763949124,4.71255436626
2980,Zoersel,Boterbloemlaan,60,51.2575176716,4.63989193405
2980,Zoersel,Rodenbachlaan,26,51.2629523294,4.65401743141
2980,Zoersel,Leeuwerikendreef,9,51.2521884421,4.61580354038
2980,Zoersel,Langebaan,32,51.2658155754,4.70345326703
2980,Zoersel,St. Antoniusbaan,303,51.2666640649,4.64730889718
2980,Zoersel,Antwerpsedreef,177,51.2599652058,4.68055150737
2980,Zoersel,Schriekbos,24,51.2667417696,4.68551473747
2980,Zoersel,Turfstraat,8,51.2742248701,4.70698078115
2980,Zoersel,Kapellei,158,51.2580501794,4.62610385552
2980,Zoersel,Eekhoornlaan,2,51.2771495092,4.71399259052
2980,Zoersel,Boterbloemlaan,42,51.2560115837,4.63883576438
2980,Zoersel,Zandstraat,123,51.2597800857,4.71126184056
2980,Zoersel,Gestelsebaan,51,51.2572498162,4.6380088427
2980,Zoersel,Bethaniënlei,137,51.2742063421,4.63301963318
2980,Zoersel,Boerenkrijglaan,15,51.2619557474,4.70048076112
2980,Zoersel,Bethaniënlei,119,51.2734801726,4.63438526176
2980,Zoersel,Meerheideweg,7,51.2732362568,4.70653796984
2980,Zoersel,Kerkstraat,24,51.2677416087,4.71035437593
2980,Zoersel,Lage Weg,11,51.245997619,4.64591535156
2980,Zoersel,Schriekbos,77,51.257513127,4.68003011668
2980,Zoersel,De Bergen,29,51.2396483737,4.63919289907
2980,Zoersel,Stoppelveld,59,51.2732509049,4.63192687841
2980,Zoersel,Bremlaan,34,51.2713547882,4.70472357993
2980,Zoersel,D'Eike,5,51.243914893,4.6418428013
2980,Zoersel,Risschotlei,58,51.2716467794,4.66031409279
2980,Zoersel,Raymond Delbekestraat,5,51.2857118867,4.63314874538
2980,Zoersel,Heidehoeven,24,51.2600703951,4.64785628665
2980,Zoersel,Vrijgeweide,14,51.2704969018,4.63253113224
2980,Zoersel,Kattenberg,33,51.2434565148,4.64507377669
2980,Zoersel,Voetbalstraat,3,51.2759177336,4.71332252547
2980,Zoersel,Lemmekensbaan,64,51.2393352838,4.61832324083
2980,Zoersel,Berkemei,22,51.2435480219,4.6509208845
2980,Zoersel,Biekorfstraat,4,51.2681417083,4.71668797791
2980,Zoersel,Stoppelveld,77,51.2725136883,4.63196712239
2980,Zoersel,Schriekbos,59,51.260030739,4.68211026709
2980,Zoersel,Melkweg,14,51.2593327201,4.65331705982
2980,Zoersel,Orchideeënlaan,1,51.2520715699,4.64160169009
2980,Zoersel,Zandstraat,79,51.2631569786,4.71182797108
2980,Zoersel,Boordeken,4,51.236756246,4.63892922943
2980,Zoersel,Achterstraat,142,51.2617795564,4.6331210096
2980,Zoersel,Liersebaan,32,51.2560121047,4.63095175064
2980,Zoersel,Dennenlaan,16,51.2542188085,4.62445547572
2980,Zoersel,Violetlaan,26,51.2571855611,4.64385072726
2980,Zoersel,Kiwilaan,23,51.2704178266,4.66632597363
2980,Zoersel,Kardinaal Cardijnlaan,30,51.2708851735,4.62490816096
2980,Zoersel,Distellaan,22,51.2683073353,4.65002486854
2980,Zoersel,Langebaan,85,51.2626237997,4.69805780335
2980,Zoersel,Kapellei,105,51.2600433616,4.62777664102
2980,Zoersel,Stoppelveld,24,51.2722827839,4.63293116958
2980,Zoersel,De Knod,47,51.2753235317,4.627236201
2980,Zoersel,Medelaar,42,51.257544186,4.65374286758
2980,Zoersel,Maalstraat,23,51.2758311492,4.71941097945
2980,Zoersel,Dorp,29,51.268853561,4.71221131086
2980,Zoersel,Veldstraat,133,51.2782634596,4.69441776289
2980,Zoersel,Doornlaan,34,51.2701581137,4.65100324764
2980,Zoersel,Kievitheide,19,51.2793402644,4.71218920728
2980,Zoersel,Vogelzang,13,51.2374929311,4.64974395829
2980,Zoersel,Kapellei,90,51.2602627661,4.63006005338
2980,Zoersel,Kapellenhoflaan,11,51.2581371798,4.61290918983
2980,Zoersel,Salvialaan,51,51.2611694149,4.63360919762
2980,Zoersel,Driesheide,34,51.2415501921,4.6349780717
2980,Zoersel,Kardinaal Cardijnlaan,47,51.2693143759,4.6259868694
2980,Zoersel,Einhoven,38,51.2568129071,4.7281215177
2980,Zoersel,Kasteeldreef,51,51.2508065315,4.62633286269
2980,Zoersel,Orchideeënlaan,8,51.2531813515,4.64191601279
2980,Zoersel,Kiwilaan,3,51.2689126081,4.6668765656
2980,Zoersel,Halle-Dorp,96,51.2400849911,4.64325724254
2980,Zoersel,Handelslei,162,51.267448422,4.64015262426
2980,Zoersel,Oostmallebaan,27,51.2730643891,4.71461839441
2980,Zoersel,Berkenlaan,50,51.2374324563,4.65604486135
2980,Zoersel,Ten Otter,7,51.2568719494,4.62665856056
2980,Zoersel,Eikenlaan,14,51.2475747163,4.6246658236
2980,Zoersel,Raymond Delbekestraat,39,51.2817479499,4.6269537862
2980,Zoersel,Hoekstraat,9,51.2627254418,4.66782897094
2980,Zoersel,Azalealaan,10,51.2528133293,4.64018017217
2980,Zoersel,Halle-Dorp,78,51.2399261917,4.64474908371
2980,Zoersel,Nachtegalendreef,13,51.2497048731,4.61853747895
2980,Zoersel,Achterstraat,124,51.2628943072,4.63415239725
2980,Zoersel,De Hulsten,79,51.276379414,4.68680267803
2980,Zoersel,Oase,12,51.2720300652,4.62616282394
2980,Zoersel,Kapellei,72,51.2607577427,4.63083441467
2980,Zoersel,Spartalaan,13,51.2774935805,4.62963922218
2980,Zoersel,Kwikaard,40,51.2657944706,4.6287799445
2980,Zoersel,Olmenlei,69,51.2743896762,4.66095379269
2980,Zoersel,Van Der Graesenlaan,5,51.2646463429,4.66270659436
2980,Zoersel,Turfstraat,1,51.2737188972,4.70642297117
2980,Zoersel,Dageraadstraat,7,51.2356694621,4.6475055006
2980,Zoersel,Korenbloemlaan,4,51.2574169883,4.63671014108
2980,Zoersel,Boogstraat,15,51.2716639056,4.70871000064
2980,Zoersel,Korenbloemlaan,41,51.2589741247,4.63368349472
2980,Zoersel,Antwerpsedreef,53,51.2654465631,4.66404264174
2980,Zoersel,Vogelzang,31,51.2363637113,4.65012443966
2980,Zoersel,Handelslei,27,51.2643546272,4.63407578138
2980,Zoersel,Zoerselhoek,61,51.2598855663,4.65809752411
2980,Zoersel,Zonnebloemlaan,54,51.2605498902,4.63590520415
2980,Zoersel,Jan Jozeflaan,12,51.2738618822,4.65512102253
2980,Zoersel,Kapellei,215,51.2545628116,4.61669635661
2980,Zoersel,Schriekbos,103,51.2593909041,4.67868809704
2980,Zoersel,Bremlaan,59,51.2717220486,4.70431298496
2980,Zoersel,Koekoekdreef,23,51.2442346342,4.62204696761
2980,Zoersel,Mereldreef,14,51.2503734369,4.61622871907
2980,Zoersel,Medelaar,60,51.2587452292,4.65291264889
2980,Zoersel,Jozef Cornelissenslaan,18,51.2657413072,4.63123589298
2980,Zoersel,Gestelsebaan,129,51.2646367219,4.6468278272
2980,Zoersel,Hoekstraat,11,51.2625550015,4.66773117237
2980,Zoersel,Medelaar,148,51.2648375993,4.64820283394
2980,Zoersel,St. Antoniusbaan,77,51.2682773672,4.67886312886
2980,Zoersel,Herentalsebaan,172,51.2574421248,4.72110055928
2980,Zoersel,Antwerpsedreef,27,51.2666160569,4.6608155102
2980,Zoersel,Landweg,2,51.2445463725,4.65642564309
2980,Zoersel,Orchideeënlaan,10,51.2534541994,4.64204881857
2980,Zoersel,De Hulsten,97,51.2751217663,4.68943223769
2980,Zoersel,Rodendijk,68,51.2456452421,4.70212590179
2980,Zoersel,Salphensebaan,33,51.2730902767,4.7187987818
2980,Zoersel,Zoerselhoek,26,51.2621162601,4.65523302202
2980,Zoersel,De Schaaf,21,51.282389366,4.71952854238
2980,Zoersel,Wandelweg,32,51.2526559917,4.63530853019
2980,Zoersel,Sniederspad,12,51.2397278439,4.64311938815
2980,Zoersel,Jachthoornlaan,10,51.2672753138,4.70236026008
2980,Zoersel,Emiel Vermeulenstraat,13,51.2731352943,4.6371667805
2980,Zoersel,Bethaniënlei,3,51.2688192755,4.64079422078
2980,Zoersel,Sporkenlaan,38,51.2696204049,4.65471403446
2980,Zoersel,Victorielaan,18,51.2681412087,4.64366184693
2980,Zoersel,Sint Martinusstraat,30,51.2416398674,4.64156194417
2980,Zoersel,Kapellei,268,51.2532504344,4.61553532555
2980,Zoersel,Monnikendreef,3,51.2610775671,4.69756335602
2980,Zoersel,Gagelhoflaan,35,51.2665623449,4.67551167425
2980,Zoersel,Medelaar,16,51.2511188606,4.65449279644
2980,Zoersel,Frans Hensbergenstraat,8,51.2678090437,4.63814597477
2980,Zoersel,Handelslei,180,51.2678176279,4.64079165133
2980,Zoersel,Emiel Vermeulenstraat,126,51.2805247075,4.62962772879
2980,Zoersel,Monnikendreef,38,51.2681931975,4.69004122738
2980,Zoersel,Halmolenweg,20,51.2384296038,4.64533428498
2980,Zoersel,Emiel Vermeulenstraat,31,51.2739708901,4.6380931506
2980,Zoersel,Fazantendreef,4,51.2473562833,4.61611855927
2980,Zoersel,Guido Gezellelaan,18,51.2658153173,4.65209897412
2980,Zoersel,Hertendreef,66,51.2731462344,4.69940753899
2980,Zoersel,Gagelhoflaan,52,51.2654771517,4.67372093128
2980,Zoersel,Vlasgaard,20,51.2375363532,4.64134972071
2980,Zoersel,Vlust,12,51.2370925277,4.63147562171
2980,Zoersel,Eikenlaan,32,51.2494910719,4.62193855503
2980,Zoersel,Achterste Hoeven,8,51.2576328021,4.70163227831
2980,Zoersel,Ten Boslaan,8,51.2548425707,4.69368634458
2980,Zoersel,Achterstraat,47,51.266172734,4.64006622934
2980,Zoersel,Dorp,111,51.270486216,4.71306933906
2980,Zoersel,Salphensebaan,15,51.2721153941,4.71691689743
2980,Zoersel,Kwikaard,32,51.2651924039,4.62964966076
2980,Zoersel,Rubenslaan,6,51.267523473,4.66584035653
2980,Zoersel,Gagelaars,34,51.2625860014,4.63749264757
2980,Zoersel,Halle-Dorp,140,51.2406033962,4.64051970823
2980,Zoersel,Voorne,84,51.2693310996,4.6956485925
2980,Zoersel,Herentalsebaan,31,51.2686056672,4.71599152299
2980,Zoersel,Jacobslaan,19,51.2655079432,4.65853225697
2980,Zoersel,Kanunnik Ullenslaan,19,51.2446250468,4.63272671767
2980,Zoersel,Eikenlaan,49,51.2531519414,4.61779358162
2980,Zoersel,Ronkaartweg,13,51.2443327609,4.64408671244
2980,Zoersel,Korenbloemlaan,15,51.2575986392,4.63568010043
2980,Zoersel,Peggerstraat,58,51.242508985,4.66940473984
2980,Zoersel,Lijsterbeslaan,14,51.2627562089,4.63616057598
2980,Zoersel,Baron de Caterslaan,39,51.2616239339,4.63573230576
2980,Zoersel,Monnikenheide,12,51.2644048456,4.69744118783
2980,Zoersel,Flikkersteert,5,51.2325611234,4.64242481984
2980,Zoersel,Medelaar,34,51.2569425168,4.65418552842
2980,Zoersel,Hoge Dreef,81,51.2634169112,4.63732066512
2980,Zoersel,Heimeulenweg,116,51.2692025885,4.63620771036
2980,Zoersel,Westmallebaan,96,51.2774378349,4.70926026283
2980,Zoersel,Meester de Beenhouwerstraat,30,51.2664074701,4.70616512266
2980,Zoersel,Risschotplein,3,51.2726912868,4.66576836351
2980,Zoersel,Korenbloemlaan,33,51.2585429357,4.63429228136
2980,Zoersel,Schriekbos,52,51.2635085318,4.68402309161
2980,Zoersel,Jan Jozeflaan,1,51.2741252674,4.65736123863
2980,Zoersel,Graffendonk,37,51.268948092,4.71871242738
2980,Zoersel,Akker,27,51.2722075514,4.63377372493
2980,Zoersel,Salvialaan,25,51.2596806344,4.63443043222
2980,Zoersel,Hoge Dreef,63,51.2623356264,4.63971675995
2980,Zoersel,Raymond Delbekestraat,85,51.2789503176,4.62524328102
2980,Zoersel,Dorp,93,51.2696850689,4.71279832898
2980,Zoersel,Krekelenberg,74,51.2734800157,4.70951241444
2980,Zoersel,Melkweg,29,51.2593600734,4.6539011225
2980,Zoersel,Jagersdreef,20,51.2611891114,4.70004007292
2980,Zoersel,Halle-Dorp,25,51.2400426701,4.64898670072
2980,Zoersel,Warandelaan,9,51.2551880656,4.69519162809
2980,Zoersel,Kattenberg,6,51.2418769196,4.64236467234
2980,Zoersel,Kerkhoflei,27,51.2667957961,4.63172769528
2980,Zoersel,Olmenlei,103,51.2738915787,4.66758616127
2980,Zoersel,Meester de Beenhouwerstraat,12,51.2676741686,4.70658251616
2980,Zoersel,Pulderbossteenweg,6,51.2410412791,4.7033388512
2980,Zoersel,Halle-Dorp,112,51.2403544005,4.64235528217
2980,Zoersel,Kasteeldreef,25,51.2524402146,4.62236583841
2980,Zoersel,Olmenlei,16,51.274352113,4.6543370508
2980,Zoersel,Vrijgeweide,29,51.2710181721,4.63093915661
2980,Zoersel,De Hulsten,26,51.2732854322,4.68741701735
2980,Zoersel,D'Eike,24,51.2433486384,4.64012319039
2980,Zoersel,Bieshoeve,1A,51.2770680693,4.71294727775
2980,Zoersel,Kievit,27,51.2780550784,4.71214201973
2980,Zoersel,Raymond Delbekestraat,67,51.2803017896,4.62582100029
2980,Zoersel,Handelslei,73,51.2662131729,4.63727880313
2980,Zoersel,Boslaan,5,51.2696009273,4.668900564
2980,Zoersel,Hallebaan,36,51.2672676918,4.6792812068
2980,Zoersel,Baron de Caterslaan,14,51.2603258501,4.63798497944
2980,Zoersel,Kwikaard,118,51.2679515465,4.62188371492
2980,Zoersel,Korte Kwikaardweg,16,51.2579830536,4.61506053034
2980,Zoersel,Withoevelaan,24,51.2703268197,4.64904283435
2980,Zoersel,Azalealaan,8,51.2525511029,4.64023521699
2980,Zoersel,Herentalsebaan,13,51.2697279132,4.71532990817
2980,Zoersel,Gestelsebaan,78,51.2597081838,4.63951306158
2980,Zoersel,Baron de Caterslaan,49,51.2620403697,4.63465365764
2980,Zoersel,Fazantendreef,15,51.248863838,4.61819596278
2980,Zoersel,Pijlstraat,21,51.2708486428,4.70928005495
2980,Zoersel,Wandelweg,14,51.254065847,4.63409596292
2980,Zoersel,Bethaniënlei,155,51.274817564,4.63160100723
2980,Zoersel,Sparrenlaan,30,51.2702226693,4.66071738938
2980,Zoersel,Smallestraat,2,51.2613033931,4.65977545046
2980,Zoersel,Gestelsebaan,25,51.2555582969,4.63520027203
2980,Zoersel,Tortelstraat,10,51.2794795144,4.7153521818
2980,Zoersel,Zoerselsteenweg,36,51.267009333,4.64346086848
2980,Zoersel,Berkemei,189,51.2520042426,4.66956640796
2980,Zoersel,Goudbloemlaan,13,51.2527913638,4.63665468189
2980,Zoersel,De Knod,27,51.276122977,4.62648200191
2980,Zoersel,Schaddestraat,17,51.2755926247,4.70372902982
2980,Zoersel,Kardinaal Cardijnlaan,37,51.2700139709,4.62414781724
2980,Zoersel,Bethaniënlei,173,51.275842231,4.62969343006
2980,Zoersel,Kardinaal Cardijnlaan,19,51.2698485814,4.6259717738
2980,Zoersel,Beukenlaan,41,51.2711885752,4.65785740329
2980,Zoersel,Spechtendreef,23,51.2462837483,4.62123180469
2980,Zoersel,Ten Boslaan,10,51.2552506929,4.69392898011
2980,Zoersel,Rodenbachlaan,43,51.2626523847,4.65435411867
2980,Zoersel,Ten Hoflaan,12,51.2562256377,4.69059050948
2980,Zoersel,Emiel Vermeulenstraat,101,51.2776357182,4.63382117685
2980,Zoersel,Oudstrijderslaan,54,51.2611901534,4.65473106874
2980,Zoersel,Esdoornlaan,9,51.2758313261,4.66398052851
2980,Zoersel,Sinjorendreef,17,51.262612053,4.66373853804
2980,Zoersel,St. Antoniusbaan,199,51.2674034463,4.66077303429
2980,Zoersel,Sniederspad,1,51.2397991686,4.64429498433
2980,Zoersel,Frans Janssenslaan,21,51.2688711004,4.64709588775
2980,Zoersel,Zandstraat,90,51.262557953,4.711068415
2980,Zoersel,Otterdreef,26,51.2556188931,4.62163103322
2980,Zoersel,Driesheide,103,51.2459582192,4.62830177626
2980,Zoersel,De Beemdekens,27,51.2610229942,4.71373216266
2980,Zoersel,Krekelenberg,22,51.2705577393,4.70704236171
2980,Zoersel,Parklaan,18,51.2564841832,4.69218745852
2980,Zoersel,Handelslei,234,51.2693869156,4.64315024753
2980,Zoersel,Goudbloemlaan,31,51.2542983418,4.6357049748
2980,Zoersel,Gestelsebaan,96,51.2610180908,4.64121384882
2980,Zoersel,Karel Uytroevenlaan,6,51.2694152654,4.64456175118
2980,Zoersel,Herentalsebaan,154,51.2596485913,4.71992168637
2980,Zoersel,Hallebaan,18,51.2683972025,4.68120798941
2980,Zoersel,Kerkstraat,70,51.2683124283,4.70683388293
2980,Zoersel,Doelen,32,51.2726122242,4.71164599361
2980,Zoersel,Schriekbos,70,51.2608736939,4.68220061441
2980,Zoersel,Bethaniënlei,120,51.2774857558,4.62731243623
2980,Zoersel,Frans Hensbergenstraat,10,51.2679068649,4.63817276188
2980,Zoersel,Warandelaan,11,51.2554996436,4.69517648362
2980,Zoersel,Hoge Dreef,8,51.2603916865,4.64577485687
2980,Zoersel,Heideweg,88,51.2470231122,4.6456807232
2980,Zoersel,Lindedreef,40,51.2429297444,4.64750349518
2980,Zoersel,Berkemei,39,51.244018332,4.65139302126
2980,Zoersel,St. Antoniusbaan,5,51.268688555,4.68864594265
2980,Zoersel,Vlust,1,51.2355406811,4.6343662199
2980,Zoersel,Boterbloemlaan,34,51.2545303191,4.63820178309
2980,Zoersel,Jachthoornlaan,8,51.2673283861,4.70291798815
2980,Zoersel,Doornlaan,16,51.271424302,4.64899887415
2980,Zoersel,Cyriel Buysselaan,11,51.2763006702,4.70828089972
2980,Zoersel,Bethaniënlei,94,51.2760695858,4.63024312881
2980,Zoersel,Koekoekdreef,4,51.2465005555,4.62469041309
2980,Zoersel,Herentalsebaan,179,51.2558634373,4.72166314006
2980,Zoersel,De Knod,7,51.2768476188,4.62432741066
2980,Zoersel,Kwikaard,75,51.2678798939,4.62654272523
2980,Zoersel,Rubenslaan,25,51.2651180241,4.66566222512
2980,Zoersel,Ruiterslaan,23,51.2622616909,4.64597152754
2980,Zoersel,Sporkenlaan,66,51.2715978361,4.65448676763
2980,Zoersel,Sniederspad,83,51.2385340382,4.63490481274
2980,Zoersel,Antwerpsedreef,88,51.2643779009,4.66570850001
2980,Zoersel,Epicialaan,32,51.269986805,4.66202796586
2980,Zoersel,Jacobslaan,159,51.2571654885,4.65497689541
2980,Zoersel,Kerkhoflei,81,51.2696053636,4.62826940814
2980,Zoersel,De Beemdekens,7,51.2616457792,4.71293696582
2980,Zoersel,Hendrik Consciencelaan,29,51.2663356399,4.67137401193
2980,Zoersel,Hallebaan,90,51.262875307,4.67642327758
2980,Zoersel,Vlasgaard,1,51.2390430898,4.64184912251
2980,Zoersel,Nieuwedreef,11,51.2724805219,4.65772171971
2980,Zoersel,Schriekbos,16,51.2674061062,4.68557757881
2980,Zoersel,Emiel Vermeulenstraat,84,51.2784312972,4.63324659922
2980,Zoersel,Molenheide,20,51.2762654166,4.71133890283
2980,Zoersel,Kerkhoflei,63,51.2683351313,4.62937559338
2980,Zoersel,Van Der Graesenlaan,24,51.2637862704,4.66048870241
2980,Zoersel,Rodenbachlaan,6,51.2637880561,4.65664876401
2980,Zoersel,De Hulsten,6,51.2706142985,4.68758167995
2980,Zoersel,Dorp,22,51.2683296659,4.71294089077
2980,Zoersel,Kerkstraat,16,51.2675741846,4.71108973646
2980,Zoersel,De Hulsten,62,51.2756950118,4.68881239748
2980,Zoersel,Herentalsebaan,226,51.2532014955,4.7224565059
2980,Zoersel,Voorne,13,51.2684025334,4.70394916082
2980,Zoersel,Dageraadstraat,17,51.2356971862,4.649157669
2980,Zoersel,Kievit,63,51.2765123454,4.71662252513
2980,Zoersel,St. Antoniusbaan,299,51.2665048875,4.64780152165
2980,Zoersel,Kapellei,89,51.260180698,4.62896383922
2980,Zoersel,Kiwilaan,31,51.2711465974,4.66611140934
2980,Zoersel,Kleine Wandelweg,16,51.2519394954,4.63472706441
2980,Zoersel,Jacobslaan,73,51.2612616759,4.66094460355
2980,Zoersel,Kievitheide,20,51.2794195301,4.71308851639
2980,Zoersel,Felix Wyterslaan,9,51.2561464686,4.61172443157
2980,Zoersel,Stoppelveld,16,51.271877957,4.63232604482
2980,Zoersel,Velsterheide,9,51.2332571805,4.63714545157
2980,Zoersel,Medelaar,77,51.2598207239,4.65132209243
2980,Zoersel,Manderleylaan,30,51.2643972552,4.66722969577
2980,Zoersel,Jachthoornlaan,27,51.2666367753,4.69749092624
2980,Zoersel,Spartalaan,3,51.2769473596,4.62899013098
2980,Zoersel,Dennenlaan,24,51.253174541,4.62532703032
2980,Zoersel,St. Antoniusbaan,60,51.269673649,4.68373865526
2980,Zoersel,Schaapskooi,16,51.2615322007,4.69169896886
2980,Zoersel,Heidehoeven,16,51.2593125104,4.64648024213
2980,Zoersel,Bethaniënlei,209,51.277521782,4.62633312874
2980,Zoersel,Hallebaan,72,51.2642818693,4.67770408597
2980,Zoersel,Zoerselhofdreef,26,51.2574370839,4.70627020156
2980,Zoersel,Wandelweg,67,51.2544644567,4.64426576384
2980,Zoersel,Sparrenlaan,12,51.2687627268,4.65965151927
2980,Zoersel,Lotelinglaan,13,51.2418432099,4.64853731493
2980,Zoersel,Koekoekdreef,41,51.2421184567,4.61975656965
2980,Zoersel,Meerheide,16,51.2775401565,4.70730900909
2980,Zoersel,Zoerselsteenweg,54,51.2671694294,4.64487996047
2980,Zoersel,Ten Halvelaan,1,51.2676558306,4.66428019311
2980,Zoersel,Handelslei,20,51.2633990701,4.63360084768
2980,Zoersel,Beukenlaan,23,51.2694046083,4.6565957305
2980,Zoersel,Hooidonkeinde,6,51.2435341209,4.65722804934
2980,Zoersel,Boerenkrijglaan,6,51.262054416,4.69875660679
2980,Zoersel,Handelslei,187,51.2721867712,4.64622290334
2980,Zoersel,Vlasgaard,19,51.2382044397,4.64198022381
2980,Zoersel,Nieuwstraat,21,51.2699301485,4.63559004466
2980,Zoersel,Lotelinglaan,31,51.241411603,4.6454433851
2980,Zoersel,Handelslei,55,51.2657098952,4.63614089829
2980,Zoersel,De Hulsten,80,51.2754047427,4.68592731289
2980,Zoersel,Cyriel Buysselaan,9,51.2762394035,4.7079876813
2980,Zoersel,Ernest Claeslaan,17,51.2639511889,4.6556168257
2980,Zoersel,De Bruelen,7,51.2681047732,4.71352824722
2980,Zoersel,Raymond Delbekestraat,14,51.2866079362,4.63116735763
2980,Zoersel,Victorielaan,54,51.2677412089,4.64382539582
2980,Zoersel,Paddenklank,6,51.2377800136,4.63585454132
2980,Zoersel,Oostmallebaan,45,51.2746798556,4.71553807535
2980,Zoersel,Handelslei,116,51.2658884861,4.63768682772
2980,Zoersel,Kwikaard,57,51.2669367904,4.62796279278
2980,Zoersel,Wandelweg,85,51.2570108665,4.64518086637
2980,Zoersel,Herentalsebaan,197,51.2545698848,4.72224647105
2980,Zoersel,Hazenpad,7,51.2732441555,4.70379593161
2980,Zoersel,Hertendreef,31,51.2716316607,4.69900658511
2980,Zoersel,Azalealaan,27,51.2547867324,4.63844820645
2980,Zoersel,Leeuwerikendreef,11,51.2520067444,4.6154377697
2980,Zoersel,Oostmallebaan,10,51.2714220655,4.71507229549
2980,Zoersel,Amazonelaan,14,51.2631801601,4.64747941339
2980,Zoersel,Kardinaal Cardijnlaan,8,51.2694560964,4.62678058158
2980,Zoersel,Rozenlaan,31,51.2582256596,4.64153969736
2980,Zoersel,Gagelhoflaan,69,51.263276646,4.67284518839
2980,Zoersel,De Wervenlaan,4,51.255430027,4.61184730865
2980,Zoersel,Handelslei,169,51.2706202895,4.64415251395
2980,Zoersel,Valerialaan,10,51.2683974043,4.6542911398
2980,Zoersel,Bieshoeve,3,51.2769890141,4.71274778256
2980,Zoersel,Liefkenshoek,111,51.2351561794,4.63142616448
2980,Zoersel,Vennenlaan,38,51.2730731305,4.70375643911
2980,Zoersel,Tortelstraat,8,51.2792637682,4.71566786946
2980,Zoersel,Lage Weg,9,51.2460689971,4.64556619885
2980,Zoersel,Veldstraat,99,51.276024127,4.69477437309
2980,Zoersel,Sporkenlaan,13,51.2678763072,4.6513215059
2980,Zoersel,Platanenlaan,62,51.2746066048,4.66224183837
2980,Zoersel,Oostmallebaan,63,51.2761891511,4.71652265926
2980,Zoersel,Achterstraat,152,51.2610687374,4.63248906937
2980,Zoersel,Risschotlei,31,51.2726108291,4.65522250085
2980,Zoersel,Dennenlaan,59,51.2518336927,4.6270435276
2980,Zoersel,Meerheideweg,53,51.2747244858,4.70129728269
2980,Zoersel,De Pier,2,51.2414513479,4.6403685807
2980,Zoersel,Frans Van Looverenlaan,1,51.2680029765,4.64373582043
2980,Zoersel,Meerheideweg,71,51.2755792366,4.6988741386
2980,Zoersel,Alfons Butsstraat,30,51.2689999236,4.63915800016
2980,Zoersel,Frans Hensbergenstraat,27,51.2690713419,4.63748216243
2980,Zoersel,Karel Uytroevenlaan,25,51.2684000204,4.64614297762
2980,Zoersel,Schriekbos,69,51.2586268408,4.68096082035
2980,Zoersel,Meester de Beenhouwerstraat,19,51.2668651884,4.706844992
2980,Zoersel,Kwikaard,39,51.2659199722,4.62937981048
2980,Zoersel,Broekstraat,5,51.2720019745,4.71834308716
2980,Zoersel,Pijlstraat,2,51.2711667236,4.71133700312
2980,Zoersel,Zandstraat,115,51.2605020472,4.7113796151
2980,Zoersel,Halmolenweg,73,51.2313882978,4.64021530877
2980,Zoersel,Bethaniënlei,127,51.2738402816,4.63376770732
2980,Zoersel,De Beemdekens,10,51.2615103138,4.71232338704
2980,Zoersel,Bethaniënlei,108D,51.2775153789,4.63034929091
2980,Zoersel,Distellaan,14,51.2689408344,4.65062575725
2980,Zoersel,Halle-Dorp,129,51.2409596397,4.64023153378
2980,Zoersel,Violetlaan,18,51.2561149581,4.64377534741
2980,Zoersel,Risschotlei,13,51.272818623,4.65108618504
2980,Zoersel,Kapellei,36,51.2618031364,4.63190057391
2980,Zoersel,Beukenlaan,4,51.2677923392,4.65605891033
2980,Zoersel,Stoppelveld,69,51.273066923,4.63232634284
2980,Zoersel,Eikenlaan,50,51.2515086314,4.61901352414
2980,Zoersel,Uilendreef,12,51.2477435509,4.6192473136
2980,Zoersel,Kanunnik Ullenslaan,12,51.2446087121,4.63351827055
2980,Zoersel,Jukschot,23,51.2711253879,4.63555922522
2980,Zoersel,Antwerpsedreef,132,51.2626199923,4.6710122938
2980,Zoersel,Antwerpsedreef,17,51.2670604998,4.65918710918
2980,Zoersel,Frans Janssenslaan,2,51.2692988393,4.64595534221
2980,Zoersel,Boterbloemlaan,52,51.256856327,4.63945433201
2980,Zoersel,Jagersdreef,1,51.2579401203,4.70309345989
2980,Zoersel,Oostmallebaan,81,51.278517724,4.71692659437
2980,Zoersel,Westmallebaan,140,51.2827646161,4.70623028814
2980,Zoersel,Goudveld,15,51.263788233,4.6756698687
2980,Zoersel,Hendrik Consciencelaan,57,51.2644081224,4.66978236525
2980,Zoersel,De Knod,10,51.2762327562,4.62444139299
2980,Zoersel,Vrijgeweide,22,51.2709917602,4.6320235516
2980,Zoersel,Rozenlaan,3,51.2559388923,4.63988372565
2980,Zoersel,Guido Gezellelaan,46,51.2644303811,4.65601276681
2980,Zoersel,Halle-Dorp,5,51.2404267596,4.65169194187
2980,Zoersel,Melkweg,22,51.25881083,4.65370149974
2980,Zoersel,Raymond Delbekestraat,199,51.2691275752,4.61863375765
2980,Zoersel,Achterstraat,73,51.2654066052,4.63903321676
2980,Zoersel,Meester de Beenhouwerstraat,1,51.2678780355,4.70720625691
2980,Zoersel,Sporkenlaan,3,51.2673841349,4.6509723565
2980,Zoersel,Berkemei,14,51.2433521885,4.64917663166
2980,Zoersel,Grasmuslaan,1,51.2617635428,4.65975999465
