PKANCODE,COMMUNE_NL,STREET_NL,HUISNR,LAT,LON
3090,Overijse,Fazantenlaan,29,50.7412708183,4.49537307716
3090,Overijse,Houwenberglaan,5,50.7808682566,4.50622099315
3090,Overijse,Gemslaan,32,50.7928523316,4.51274650823
3090,Overijse,Sint-Annastraat,92,50.7712791196,4.51146117017
3090,Overijse,Langeweg,155,50.7450584231,4.5041295227
3090,Overijse,Hagaard,97,50.7623630785,4.52754383276
3090,Overijse,Tarwelaan,18,50.7744779721,4.49630785289
3090,Overijse,Nieuwelaan,6,50.7344334407,4.52981240224
3090,Overijse,Fr. Verbeekstraat,38,50.770748578,4.52510127747
3090,Overijse,Tenrodestraat,5,50.7613760042,4.52339966107
3090,Overijse,Terhulpensesteenweg,98,50.7665871799,4.54193619898
3090,Overijse,Brusselsesteenweg,562,50.7916435494,4.4876722349
3090,Overijse,Tuindelle,19,50.7779465138,4.51792126854
3090,Overijse,Raymond Hyelaan,17,50.7856265466,4.4963752397
3090,Overijse,H. Consciencelaan,14,50.7799321366,4.52753500781
3090,Overijse,Schransdreef,28,50.7877713288,4.50031179482
3090,Overijse,Trilpopulierenlaan,12,50.7873851732,4.48397976517
3090,Overijse,Treurwilgenlaan,5,50.7894179498,4.48358143345
3090,Overijse,Memlingdreef,50,50.7904472512,4.50618131986
3090,Overijse,Witherendreef,138,50.7929021164,4.50068490376
3090,Overijse,Mouflonlaan,38,50.790895413,4.51559671133
3090,Overijse,Molendreef,13,50.7701801787,4.53061962979
3090,Overijse,Terhulpensesteenweg,447,50.7485830629,4.51989778085
3090,Overijse,Monicadreef,2A,50.7680055067,4.58924474484
3090,Overijse,Vleugstraat,9,50.7820429646,4.5335904384
3090,Overijse,Scherendelle,36,50.7753898621,4.50795106117
3090,Overijse,Kastanjedreef,49,50.7904681154,4.51453722322
3090,Overijse,Daloensdelle,50,50.7637533928,4.53699263296
3090,Overijse,Katleendreef,8,50.766658801,4.58940993995
3090,Overijse,Prins Karellaan,1,50.7779867266,4.51267856174
3090,Overijse,Kasteelstraat,57,50.7890754949,4.50551329438
3090,Overijse,Vossebeekweg,9,50.7687020384,4.54330588241
3090,Overijse,Horenberg,66,50.8002829487,4.55792817835
3090,Overijse,Vorststraat,2,50.7532564281,4.56797420501
3090,Overijse,Hoeilaartsesteenweg,279,50.7526351225,4.50135901315
3090,Overijse,Kerkeweg,1,50.7616495158,4.52698382207
3090,Overijse,Reutenbeek,13,50.7583645851,4.53742725737
3090,Overijse,Druivenlaan,11,50.7473893506,4.51027813432
3090,Overijse,Grachtweidelaan,4,50.7741688827,4.49079310537
3090,Overijse,Hagaard,79,50.762186067,4.52588814878
3090,Overijse,Jef Lambeauxlaan,2,50.7826582431,4.55212692779
3090,Overijse,Katjeslaan,1,50.7785546949,4.50280505177
3090,Overijse,Gemslaan,14,50.7931720917,4.50898709658
3090,Overijse,Bollestraat,115,50.769390101,4.59161426027
3090,Overijse,Begonialaan,24,50.793908728,4.49031823655
3090,Overijse,Schemeringlaan,17,50.7736065739,4.51895756908
3090,Overijse,Solheide,24,50.7753221933,4.53364237726
3090,Overijse,Langeweg,191,50.7442075481,4.50233376239
3090,Overijse,Dreef,63,50.7756159887,4.54613303583
3090,Overijse,Spaltlaan,14,50.7705440334,4.51883065756
3090,Overijse,Monicadreef,6,50.7673949147,4.5883434347
3090,Overijse,Lindaalhof,24,50.7972629671,4.55252348658
3090,Overijse,Heiberg,6,50.7700567912,4.49226309564
3090,Overijse,Vossekoten,34,50.7740821921,4.6091549707
3090,Overijse,Rozierensesteenweg,98,50.7452965634,4.52428504313
3090,Overijse,Hannekensboslaan,24,50.7631195599,4.5444077034
3090,Overijse,Wijnlaan,7,50.746851342,4.50958703376
3090,Overijse,Koninginnelaan,124,50.7490843755,4.49805941603
3090,Overijse,Sint-Annastraat,56,50.7745750757,4.51539542929
3090,Overijse,Kouterstraat,168,50.7807724608,4.55350333106
3090,Overijse,Ensordreef,7,50.7895422556,4.51404434969
3090,Overijse,Brusselsesteenweg,544,50.7908321373,4.48942582426
3090,Overijse,Hertstraat,56,50.7636244065,4.54848981543
3090,Overijse,Poelweg,13,50.7494478808,4.52446955933
3090,Overijse,Groeneweg,190,50.789801408,4.55140660945
3090,Overijse,Rozenlaan,3,50.7939927359,4.4930869227
3090,Overijse,Nieuwelaan,2A,50.7349102044,4.52959192088
3090,Overijse,Marnixlaan,93,50.7891488547,4.51427103426
3090,Overijse,Lanestraat,107,50.7536951043,4.56777780965
3090,Overijse,Lanestraat,48,50.7573288104,4.5633284737
3090,Overijse,Eekhout,33,50.7689288143,4.54724905045
3090,Overijse,H. Consciencelaan,32,50.7814304416,4.52734185161
3090,Overijse,Oaselaan,6,50.7467066294,4.51067918767
3090,Overijse,Scherendelle,18,50.7746843728,4.50883265736
3090,Overijse,Italielaan,8,50.7819054346,4.53847121818
3090,Overijse,Kerselarenstraat,66,50.7752960826,4.5209108759
3090,Overijse,Kerkeweg,71,50.7575593377,4.52513850982
3090,Overijse,Terhulpensesteenweg,395,50.7512588946,4.52397790122
3090,Overijse,Terhulpensesteenweg,134,50.7646375003,4.53973434254
3090,Overijse,Kruisstraat,9,50.763135961,4.52357498934
3090,Overijse,Duisburgsesteenweg,5,50.7867936809,4.53597102579
3090,Overijse,Smetslaan,38A,50.744131448,4.50600671475
3090,Overijse,Const. Meunierlaan,12,50.7829291257,4.55455591098
3090,Overijse,Nekkedelle,65,50.8036638805,4.5588602483
3090,Overijse,Kouterstraat,186,50.7817312463,4.55624352241
3090,Overijse,Stokkemstraat,50A,50.7781424374,4.56323756862
3090,Overijse,Terhulpensesteenweg,180,50.762825884,4.53751658173
3090,Overijse,Prins Karellaan,25,50.7801229913,4.50962551935
3090,Overijse,Sint-Annastraat,4,50.778165311,4.52064569191
3090,Overijse,Dreef,45,50.7745117643,4.54483983175
3090,Overijse,Fazantenlaan,5,50.7426556909,4.49362735499
3090,Overijse,Reebokweg,38,50.7923026698,4.49477062877
3090,Overijse,Kouterstraat,44,50.7763860898,4.54227948704
3090,Overijse,Kerkeweg,25,50.76021727,4.52632092315
3090,Overijse,Vlierbeekberg,34,50.7706772135,4.48869680879
3090,Overijse,Vuurgatstraat,76,50.7856732727,4.47943764806
3090,Overijse,Lanestraat,125,50.7529566096,4.57002221924
3090,Overijse,Watermolenplein,2,50.7700341772,4.53010693787
3090,Overijse,Kruiskruidlaan,2,50.7739203865,4.4936951395
3090,Overijse,Zonienboslaan,9,50.7866911627,4.4707928997
3090,Overijse,Terspoutland,3,50.7704940732,4.51663273306
3090,Overijse,Kerselarenstraat,13,50.7748576782,4.52082410289
3090,Overijse,Vlierbeekberg,80,50.7729668289,4.491601612
3090,Overijse,Esmoreitlaan,1,50.7746529714,4.52524799552
3090,Overijse,Kastanjedreef,32,50.7914390486,4.51063518332
3090,Overijse,Robijnlaan,18,50.7844565533,4.49912421741
3090,Overijse,Nekkedelle,83,50.8035004968,4.56200682652
3090,Overijse,Grotstraat,3,50.7722990091,4.5436630608
3090,Overijse,Alf. Moerenhoutstraat,50,50.7662801492,4.5280883822
3090,Overijse,Scherendelle,48,50.7759647978,4.50753692796
3090,Overijse,Duisburgsesteenweg,201,50.8014167309,4.55126036056
3090,Overijse,Korteveld,2,50.7768416292,4.54068015874
3090,Overijse,Koestraat,20,50.7956055567,4.5425384328
3090,Overijse,Annegijsboslaan,1,50.7658670282,4.54510519619
3090,Overijse,Patrijzenlaan,14,50.7439891089,4.49606532304
3090,Overijse,Brusselsesteenweg,687,50.7937741198,4.480852322
3090,Overijse,Hoeilaartsesteenweg,316,50.7545004733,4.49994954491
3090,Overijse,Moerlaanstraat,3,50.7530537696,4.56651215707
3090,Overijse,Kastanjedreef,14,50.7925488953,4.50766337285
3090,Overijse,Groeneweg,37,50.7835612266,4.53365859612
3090,Overijse,Brusselsesteenweg,426,50.7869150283,4.49849857597
3090,Overijse,Fazantenlaan,40,50.7409630604,4.49449598641
3090,Overijse,Lijsterbessenlaan,34,50.788156617,4.48769457361
3090,Overijse,Brusselsesteenweg,18,50.7732361513,4.53608982589
3090,Overijse,Ernest Claeslaan,6,50.7448501984,4.51247468839
3090,Overijse,Fel. Bergiersstraat,150,50.7466022523,4.4974561858
3090,Overijse,Terhulpensesteenweg,116,50.76554898,4.54113134183
3090,Overijse,Gebr. Danhieuxstraat,31,50.7732317102,4.53346319771
3090,Overijse,Hertstraat,74,50.75906942,4.5513092246
3090,Overijse,Kouterstraat,62,50.7768553836,4.54382283112
3090,Overijse,Fr. Verbeekstraat,173,50.7696995582,4.49997340395
3090,Overijse,Abstraat,153,50.7637737298,4.58802245542
3090,Overijse,Sint-Annastraat,74,50.7729789039,4.51247675102
3090,Overijse,Duizendbladlaan,41,50.7733900131,4.49249872427
3090,Overijse,Kastanjedreef,67,50.7896807441,4.51693510353
3090,Overijse,Schransdreef,110,50.7923791892,4.50521219403
3090,Overijse,Vossekoten,16,50.7743062242,4.60651682053
3090,Overijse,Kardinaalstraat,10,50.7699829629,4.6012984727
3090,Overijse,Treurwilgenlaan,29,50.7890290389,4.48540853275
3090,Overijse,Nieuwland,15,50.7709317863,4.50091987735
3090,Overijse,Langeweg,173,50.7446942657,4.50287100651
3090,Overijse,Van Eyckdreef,9,50.7876275074,4.51218800369
3090,Overijse,P.I. Taymansstraat,9,50.7732270071,4.53700946905
3090,Overijse,Labbelaan,13,50.7385351834,4.50860863218
3090,Overijse,P.I. Taymansstraat,79,50.7784748062,4.53502526365
3090,Overijse,Sint-Annastraat,28,50.776425827,4.51819389483
3090,Overijse,Fr. Courtensdreef,6,50.7860602507,4.51550809828
3090,Overijse,Hertstraat,28,50.7656008459,4.54557777955
3090,Overijse,Akkerplein,4,50.7730047383,4.49810277624
3090,Overijse,Hengstenberg,102,50.7792266427,4.50189172014
3090,Overijse,Ketelheide,2,50.7871049153,4.53577458926
3090,Overijse,Terhulpensesteenweg,643,50.7405134858,4.5086738946
3090,Overijse,Hoeilaartsesteenweg,154,50.7513910428,4.51124389924
3090,Overijse,Boslaan,29,50.7332077867,4.52186833511
3090,Overijse,Leeuwerikendreef,1,50.794678741,4.4998891009
3090,Overijse,Nieuwelaan,41,50.7321002575,4.52677156077
3090,Overijse,Prinsendal,11,50.7848075292,4.48088656686
3090,Overijse,Brusselsesteenweg,497,50.7891486034,4.49212428719
3090,Overijse,Vuurgatstraat,130,50.7811437154,4.47841408446
3090,Overijse,Metsijsdreef,29,50.7872446064,4.51118675715
3090,Overijse,Nederlandlaan,30,50.7828161193,4.53639968253
3090,Overijse,Terhulpensesteenweg,144,50.7638800439,4.53886127313
3090,Overijse,Vriendschapsstraat,77,50.7761331885,4.50947443567
3090,Overijse,Schovelingsbos,2,50.7807646648,4.50246171156
3090,Overijse,Duisburgsesteenweg,93,50.7957602101,4.54592529541
3090,Overijse,Financialaan,16,50.7505746417,4.52826968995
3090,Overijse,Zuurbessenlaan,17,50.7868837287,4.48461484552
3090,Overijse,Eeuwfeestplein,6,50.7716820743,4.53017725516
3090,Overijse,Moerlaanstraat,20,50.7520386213,4.56326530665
3090,Overijse,Alf. Moerenhoutstraat,87A,50.7655010011,4.53192911252
3090,Overijse,Clem. Vanophemstraat,30,50.781163532,4.52319369962
3090,Overijse,Grotstraat,20,50.7723678816,4.54520733011
3090,Overijse,Bisdom,1,50.7726362526,4.55178180807
3090,Overijse,Graven Egm. en Hoornlaan,36,50.7747245079,4.54101563789
3090,Overijse,Vlierbeekberg,62,50.7722220417,4.48970335662
3090,Overijse,Kokerlaan,27,50.7809013011,4.5070125905
3090,Overijse,Duivenstraat,6,50.7728951577,4.50572791007
3090,Overijse,Terspoutland,20,50.7713078224,4.51542291562
3090,Overijse,Horizontlaan,21,50.7504830012,4.52524542272
3090,Overijse,Terhulpensesteenweg,661,50.7396424913,4.50729963706
3090,Overijse,Permekedreef,29,50.7903415605,4.51065979803
3090,Overijse,Ballingstraat,111,50.7944953797,4.54960754843
3090,Overijse,Hoeilaartsesteenweg,362,50.755855874,4.49670285725
3090,Overijse,Sterrebeeldlaan,2,50.7743090462,4.51908401564
3090,Overijse,Vuurgatstraat,6,50.7912414074,4.48202610453
3090,Overijse,Klaverweg,3,50.7792403908,4.50477676255
3090,Overijse,Memlingdreef,22,50.7888336274,4.50439831607
3090,Overijse,Lanestraat,18,50.7595095112,4.56052585636
3090,Overijse,Schransdreef,74,50.790549268,4.50318884535
3090,Overijse,Nijvelsebaan,157,50.7676500088,4.55569606666
3090,Overijse,Ranklaan,11,50.7479609005,4.51183894071
3090,Overijse,Heuvelstraat,46,50.7724761903,4.53424254617
3090,Overijse,Dahlialaan,12,50.7945812081,4.49214782775
3090,Overijse,Liefkensstraat,15,50.7770384852,4.50914793363
3090,Overijse,Schransdreef,56,50.7895043004,4.50194406039
3090,Overijse,Bergstraat,91,50.7510575437,4.54304298667
3090,Overijse,Fr. Verbeekstraat,227,50.7688175773,4.49122527216
3090,Overijse,Duisburgsesteenweg,218,50.8014932899,4.55242757729
3090,Overijse,Abstraat,207,50.7676635419,4.60011083717
3090,Overijse,Maria Christinalaan,19,50.7437043597,4.51020056139
3090,Overijse,Dreef,10,50.7726643507,4.54318311264
3090,Overijse,Tervarenthof,27,50.7854376852,4.50888481128
3090,Overijse,Reebokweg,18A,50.7912778565,4.49426381894
3090,Overijse,Teniersdreef,39,50.7903366582,4.50995889114
3090,Overijse,Vuurgatstraat,112,50.7829211168,4.4786445657
3090,Overijse,Keizerlaan,35,50.7821700929,4.48666521413
3090,Overijse,Terrestlaan,19,50.7829784397,4.50263946997
3090,Overijse,Kerkeweg,53,50.7586158435,4.52544986679
3090,Overijse,Witherendreef,49,50.7933988142,4.48763825923
3090,Overijse,Dahlialaan,30,50.7950261481,4.49022582451
3090,Overijse,Terhulpensesteenweg,27,50.7710824404,4.54124212741
3090,Overijse,Heuvelstraat,64,50.7718986546,4.53126436983
3090,Overijse,Drogenberg,35,50.773460719,4.52674227002
3090,Overijse,Broensdelle,1,50.7798658047,4.55807411804
3090,Overijse,Abstraat,64,50.7579342101,4.57690481558
3090,Overijse,Stokkemstraat,31,50.7795945537,4.5590332346
3090,Overijse,Daloensdelle,22,50.7653862895,4.53891181231
3090,Overijse,Nieuwland,33,50.7719875775,4.50008954265
3090,Overijse,Vermeerdreef,7,50.789870184,4.50794119928
3090,Overijse,Daleborreweg,7,50.7683174917,4.5982710684
3090,Overijse,Regenmeuterlaan,56,50.760244457,4.52971438624
3090,Overijse,Rozenlaan,20,50.7949682333,4.49456604223
3090,Overijse,Gemslaan,67,50.7915223083,4.51838898401
3090,Overijse,Warandelaan,21,50.7756451841,4.53982778931
3090,Overijse,Duizendbladlaan,13,50.7711792408,4.49252194367
3090,Overijse,Burgemeester Taymanslaan,39,50.7817393241,4.49913210823
3090,Overijse,Terhulpensesteenweg,252,50.7601032104,4.53153984247
3090,Overijse,Veldlaan,22,50.7596995862,4.5649931605
3090,Overijse,Mommaertsstraat,110,50.7609795602,4.5763099915
3090,Overijse,Adriaanstraat,21,50.7709824637,4.54868742062
3090,Overijse,Vlierbeekberg,44,50.7711942242,4.48964059263
3090,Overijse,Dennenboslaan,10,50.7345117714,4.52335430874
3090,Overijse,Rameistraat,4,50.7485589526,4.52421566106
3090,Overijse,Clem. Vanophemstraat,146,50.7858181147,4.53471635572
3090,Overijse,Diepestraat,9,50.7721236854,4.49108874915
3090,Overijse,Financialaan,34,50.7512971769,4.52593328838
3090,Overijse,Fel. Bergiersstraat,122,50.7475988521,4.49987751262
3090,Overijse,Kouterstraat,80,50.7773985153,4.54497459114
3090,Overijse,Rozierensesteenweg,27,50.7482281243,4.52081341532
3090,Overijse,Kanunniksteen,9,50.7443519459,4.49970308167
3090,Overijse,Parklaan,182,50.7311136673,4.52093528141
3090,Overijse,Borrestraat,37,50.7568434447,4.54631744646
3090,Overijse,Hoekstraat,3,50.7566727625,4.51280090086
3090,Overijse,Abstraat,82,50.7591268403,4.57848387265
3090,Overijse,Fel. Timmermanslaan,14,50.7453157557,4.51095523612
3090,Overijse,Hollandstraat,51,50.7744475925,4.51661245847
3090,Overijse,Witherendreef,85,50.7931531743,4.49072276431
3090,Overijse,Struiwislaan,10,50.76359937,4.54089256857
3090,Overijse,Terhulpensesteenweg,500,50.7471063206,4.51681274749
3090,Overijse,Champelsstraat,11,50.7507511837,4.57114540898
3090,Overijse,Keizerlaan,17,50.7850624541,4.48962408515
3090,Overijse,Woudmeesterstraat,8,50.7767549205,4.52167485846
3090,Overijse,Rameistraat,127,50.7509716331,4.53671383168
3090,Overijse,Hengstenberg,38,50.7742637547,4.50534103774
3090,Overijse,Narcissenlaan,11,50.7968319269,4.49191121077
3090,Overijse,Just. Lipsiusplein,5,50.7728320748,4.5369570144
3090,Overijse,Groeneweg,154,50.7885417925,4.54977958485
3090,Overijse,Metsijsdreef,5,50.7872036003,4.50814883222
3090,Overijse,Lanestraat,100,50.7537921533,4.56700970733
3090,Overijse,Metsijsdreef,40,50.7871898597,4.51294139818
3090,Overijse,Spithertlaan,7,50.7897914717,4.52038101804
3090,Overijse,Vriendschapsstraat,59,50.7770077501,4.51128763672
3090,Overijse,Puttestraat,38,50.7774628753,4.54569141399
3090,Overijse,Boslaan,40,50.7356927884,4.52258630022
3090,Overijse,Marnixlaan,5,50.7856574223,4.50367964382
3090,Overijse,Terhulpensesteenweg,435,50.7488513353,4.52043738399
3090,Overijse,Witherendreef,14,50.7933309996,4.48481859857
3090,Overijse,Kasteelstraat,29,50.7873931837,4.50333790813
3090,Overijse,Waversesteenweg,205,50.7636297292,4.55506601641
3090,Overijse,Gemslaan,49,50.7929431476,4.51525578542
3090,Overijse,Bollestraat,26,50.7720777788,4.60446760493
3090,Overijse,Hagaardbosweg,44,50.7623365415,4.51943115297
3090,Overijse,Duizendbladlaan,31,50.7727203473,4.4927738321
3090,Overijse,Permekedreef,5,50.7894325111,4.51243292448
3090,Overijse,Bekestraat,28,50.8007128159,4.5455532052
3090,Overijse,Hagaard,2,50.7694360914,4.51914819789
3090,Overijse,Hoeilaartsesteenweg,420,50.7573783781,4.49430648998
3090,Overijse,Bruegheldreef,13,50.7866370007,4.50229766822
3090,Overijse,Schransdreef,92,50.7914297744,4.50414742803
3090,Overijse,Scherendelle,46,50.7758369746,4.50767917984
3090,Overijse,Eikenlaan,53,50.7827255761,4.47808810648
3090,Overijse,Zuurbessenlaan,35,50.7872578659,4.48695315366
3090,Overijse,Rubensdreef,12,50.7853291771,4.50647374276
3090,Overijse,Stationsplein,16,50.7710871825,4.53323096583
3090,Overijse,Kasteelstraat,5,50.7859928772,4.50207389796
3090,Overijse,Drogenberg,17,50.7719867665,4.52654293821
3090,Overijse,P.I. Taymansstraat,115,50.7821014709,4.53505868758
3090,Overijse,Paardebeekstraat,5,50.7524386628,4.56337494723
3090,Overijse,Waversesteenweg,62,50.7722203916,4.53975461828
3090,Overijse,H. Consciencelaan,49,50.7812867729,4.52522236073
3090,Overijse,Mozartlaan,4,50.7735287552,4.52840379531
3090,Overijse,Vriendschapsstraat,24,50.7786977795,4.51386425469
3090,Overijse,Dageraadplein,5,50.7734740622,4.51951728873
3090,Overijse,Mollenberg,4,50.7744216454,4.53676295459
3090,Overijse,Heuvelstraat,48,50.7724159826,4.53409928806
3090,Overijse,Stokkemstraat,13,50.7797992356,4.55854474065
3090,Overijse,Abstraat,48,50.7574769492,4.5750556873
3090,Overijse,Snijdersdreef,6,50.7876263496,4.51019265749
3090,Overijse,Hassenbergstraat,35,50.7791919597,4.55722689591
3090,Overijse,Brusselsesteenweg,315,50.7804607382,4.51285744879
3090,Overijse,Guido Gezellelaan,10,50.7430966202,4.50940970444
3090,Overijse,Witherendreef,67,50.7932782257,4.48959637398
3090,Overijse,Terhulpensesteenweg,488,50.7474853568,4.5173557844
3090,Overijse,Jordaensdreef,2,50.7853138829,4.50402764453
3090,Overijse,Dreef,47,50.7746036047,4.54504121539
3090,Overijse,Vuurgatstraat,51,50.7871798729,4.48147610139
3090,Overijse,Kastanjedreef,42,50.7909410979,4.51189620449
3090,Overijse,Katleendreef,1,50.7666590165,4.59081315016
3090,Overijse,Jos. Kumpsstraat,36,50.7577928533,4.49747289859
3090,Overijse,Fazantenlaan,12,50.7424805878,4.49293875126
3090,Overijse,Welriekendedreef,95,50.7887188374,4.46792096131
3090,Overijse,Smetslaan,76,50.7455276394,4.50222573243
3090,Overijse,Lanestraat,82,50.7551689387,4.56743047269
3090,Overijse,Woudmeesterstraat,15,50.7760840899,4.52114028327
3090,Overijse,Jan Fijtlaan,8,50.7858469707,4.51067993266
3090,Overijse,Speelberghof,7,50.759961837,4.52918007805
3090,Overijse,Memlingdreef,57,50.7908701126,4.50596287364
3090,Overijse,Jef Lambeauxlaan,9,50.7832941975,4.5533662161
3090,Overijse,Grachtweidelaan,11,50.7741958457,4.48967882516
3090,Overijse,Duisburgsesteenweg,30,50.788559734,4.53868690674
3090,Overijse,Kersenbomenlaan,26,50.7899391216,4.48588689918
3090,Overijse,Begonialaan,7,50.793407595,4.49207608636
3090,Overijse,Brusselsesteenweg,64,50.7743167912,4.53439889933
3090,Overijse,Kruisstraat,16,50.7633200971,4.52443257105
3090,Overijse,Terrestlaan,40,50.7830301751,4.49975296442
3090,Overijse,Regenmeuterlaan,11,50.759280986,4.52922225214
3090,Overijse,Alf. Dekeyserstraat,38,50.7795048926,4.52199874943
3090,Overijse,Kerkeweg,96,50.7569574743,4.52413041029
3090,Overijse,Vronenberglaan,32,50.7792484008,4.53239737278
3090,Overijse,Kouterstraat,16,50.7758137305,4.53903642154
3090,Overijse,Lindaalhof,7,50.7961149118,4.55245728563
3090,Overijse,Hannekensboslaan,7,50.7649773189,4.54522120253
3090,Overijse,Elcerlyclaan,1,50.7737804943,4.52358434511
3090,Overijse,Poenaardlaan,21,50.7807643164,4.50493602807
3090,Overijse,Zonienboslaan,16,50.7854742848,4.47093701601
3090,Overijse,Zilverbeekdreef,12,50.7299336774,4.52653409641
3090,Overijse,Terhulpensesteenweg,615,50.7417523104,4.51175453964
3090,Overijse,Vliertjeslaan,24,50.78005009,4.48856967618
3090,Overijse,Oaselaan,13,50.7473707345,4.51124259061
3090,Overijse,Van Eyckdreef,2,50.7884522158,4.51197184583
3090,Overijse,Vronenberglaan,14,50.7795487316,4.53425545989
3090,Overijse,Hengstenberg,173,50.7859012791,4.49775551777
3090,Overijse,Kasteelstraat,50,50.7887470839,4.50583511481
3090,Overijse,Houtvesterstraat,5,50.7764628119,4.52059990817
3090,Overijse,Fazantenlaan,30,50.7417172166,4.49407538724
3090,Overijse,Witherendreef,131,50.7932161788,4.49984061068
3090,Overijse,Brusselsesteenweg,188,50.7777863891,4.52379196676
3090,Overijse,Waversesteenweg,87,50.7722197524,4.54219644718
3090,Overijse,Van Dyckdreef,9,50.786803261,4.50413178304
3090,Overijse,Hollandstraat,23,50.7720584843,4.51753393006
3090,Overijse,Rembrandtdreef,18,50.7887164791,4.50881761365
3090,Overijse,Brusselsesteenweg,597,50.7921560061,4.48531449611
3090,Overijse,Mouflonlaan,21,50.7920169062,4.51370270155
3090,Overijse,Marnixlaan,50,50.7880836828,4.50890364769
3090,Overijse,Bredestraat,19,50.7582180903,4.52767563424
3090,Overijse,Hoeilaartsesteenweg,290,50.7539547503,4.50173318793
3090,Overijse,Vermeerdreef,14,50.790098798,4.50891081234
3090,Overijse,Topaaslaan,5,50.784444359,4.50005669821
3090,Overijse,Louis Gunsstraat,23,50.7899680203,4.49653598902
3090,Overijse,Fr. Verbeekstraat,21,50.7703395514,4.52629923157
3090,Overijse,Annegijsboslaan,8,50.7655674001,4.54373278889
3090,Overijse,Terhulpensesteenweg,73,50.7690692097,4.54189801637
3090,Overijse,Kapucijnendreef,50,50.7964061341,4.48867836695
3090,Overijse,Baron Opsomerdreef,23,50.786581563,4.51643278735
3090,Overijse,Bremlaan,17,50.7458927688,4.50295987495
3090,Overijse,Nieuwland,86,50.7766528694,4.49669928336
3090,Overijse,Vlierbeekberg,133,50.7762107067,4.49559388514
3090,Overijse,Esmoreitlaan,8,50.7747511902,4.5236614172
3090,Overijse,Olmengaarde,21,50.7301122438,4.52796641808
3090,Overijse,Vleugstraat,16,50.7823643499,4.53396889733
3090,Overijse,Heurkstraat,74,50.7600278007,4.53088463542
3090,Overijse,Duisburgsesteenweg,199,50.8015170358,4.55092766983
3090,Overijse,Kerkstraat,15,50.7543323453,4.56796119873
3090,Overijse,Maria Christinalaan,37,50.7445837546,4.50884898142
3090,Overijse,Eendenlaan,23,50.7431496662,4.49579852308
3090,Overijse,Katleendreef,15,50.7663820874,4.58908175964
3090,Overijse,Roekeloosborre,7,50.7450752295,4.49941237678
3090,Overijse,Brusselsesteenweg,472,50.7883440884,4.49525363887
3090,Overijse,Luxemburglaan,24,50.7803926224,4.53996577773
3090,Overijse,Hengstenberg,155,50.7841247356,4.49767801898
3090,Overijse,Halsdreef,24,50.7885436604,4.50802348246
3090,Overijse,Sint-Hubertusdreef,28,50.7859638084,4.46955586127
3090,Overijse,Treurwilgenlaan,12,50.7886157339,4.48491922195
3090,Overijse,Lanestraat,46,50.7574805366,4.5631253024
3090,Overijse,Ketelheide,9,50.7870232684,4.53509699622
3090,Overijse,Hoogveldlaan,13,50.7787374807,4.50784559251
3090,Overijse,Waversesteenweg,115,50.7720868717,4.54292890002
3090,Overijse,Drogenberg,55A,50.7751922505,4.52445215295
3090,Overijse,Beukenweg,10,50.7703427933,4.55022962191
3090,Overijse,Leuvensestraat,33,50.7717151223,4.60726158955
3090,Overijse,Italielaan,1,50.7819398528,4.53742614696
3090,Overijse,Meeuwenlaan,19,50.7848678918,4.55970467351
3090,Overijse,Brusselsesteenweg,606,50.7925363493,4.48514382925
3090,Overijse,Terhulpensesteenweg,197,50.7617193949,4.53710368775
3090,Overijse,Zuurbessenlaan,45,50.7874898929,4.48827077478
3090,Overijse,Speelberg,80,50.7617077094,4.52991472299
3090,Overijse,Landbouwlaan,18,50.7719785538,4.49680999305
3090,Overijse,Nieuwland,68,50.7753656117,4.49842744787
3090,Overijse,Vlierbeekberg,69,50.7732147194,4.48975625026
3090,Overijse,Brusselsesteenweg,82,50.7749237211,4.53380373614
3090,Overijse,Waversesteenweg,358,50.7476193015,4.57027677699
3090,Overijse,Zavelbergstraat,6,50.7522122453,4.56539095273
3090,Overijse,Waversesteenweg,323,50.7494959133,4.5719373482
3090,Overijse,Kastanjedreef,60,50.7900412262,4.51458510717
3090,Overijse,Nijvelsebaan,129,50.7657519188,4.55298278532
3090,Overijse,Terhulpensesteenweg,445,50.748667641,4.5200482535
3090,Overijse,Bremlaan,35,50.7465401215,4.50154877914
3090,Overijse,Nederdellelaan,18,50.7618138964,4.52898854833
3090,Overijse,Jean Tombeurstraat,7,50.7688945081,4.53136693964
3090,Overijse,Reebokweg,21,50.7915522348,4.49366533488
3090,Overijse,Brusselsesteenweg,624,50.7930611712,4.48405345638
3090,Overijse,Tenrodestraat,12,50.7612293518,4.52253898185
3090,Overijse,Lanestraat,64,50.7566508649,4.56474132774
3090,Overijse,Kruisstraat,2,50.762514165,4.52382764253
3090,Overijse,Houwenberglaan,12,50.7806134835,4.50553807329
3090,Overijse,Esdoornenlaan,25,50.7862279288,4.48461846868
3090,Overijse,Korteveld,9,50.7769722013,4.54010201934
3090,Overijse,Langeweg,137,50.745412492,4.5052401064
3090,Overijse,Vossebeekweg,34,50.7673510809,4.54774216428
3090,Overijse,Vanderweydendreef,26,50.7861050029,4.51365264379
3090,Overijse,Zesbundersplein,5,50.7750732048,4.49734813648
3090,Overijse,Kerkeweg,8,50.7612651314,4.52617477108
3090,Overijse,Groeneweg,216,50.7903238803,4.55329716912
3090,Overijse,Kruiskruidlaan,9,50.7747904015,4.49453762963
3090,Overijse,Ketelheide,72,50.7908632875,4.53377491432
3090,Overijse,Hortensialaan,11,50.7940188125,4.48923065123
3090,Overijse,Louis Gunsstraat,76,50.7927578388,4.50004242905
3090,Overijse,Stobbaertsdreef,13,50.7864404045,4.50805069605
3090,Overijse,Brusselsesteenweg,526,50.7911907575,4.49138380692
3090,Overijse,Kanunniksteen,34,50.7434823885,4.49831683928
3090,Overijse,Groeneweg,3,50.7829124416,4.53141755517
3090,Overijse,Dennenboslaan,17,50.7356677439,4.52431842517
3090,Overijse,Kokerlaan,20,50.7804704174,4.50709511885
3090,Overijse,Memlingdreef,5,50.7878200436,4.50331162264
3090,Overijse,Victor Marchandstraat,19,50.7682177179,4.4872056047
3090,Overijse,Terhulpensesteenweg,410,50.7507501409,4.52236744698
3090,Overijse,Adriaanstraat,38,50.769198206,4.54942906933
3090,Overijse,Terspoutland,27,50.7711295226,4.51552116831
3090,Overijse,Kleinveldweg,17,50.7774181035,4.53725476765
3090,Overijse,Zwanenlaan,33,50.7849791478,4.56060390325
3090,Overijse,Nijvelsebaan,43,50.7607526219,4.54178199462
3090,Overijse,Hugo Verriestlaan,3,50.745048986,4.51003062627
3090,Overijse,Terhulpensesteenweg,277,50.758720308,4.53038463267
3090,Overijse,Marnixlaan,12,50.7854971668,4.50435050571
3090,Overijse,Fr. Verbeekstraat,102,50.7700697394,4.51364218935
3090,Overijse,Prinsendal,28,50.7840605124,4.4829875962
3090,Overijse,Haagwindelaan,26,50.7736381001,4.49462257545
3090,Overijse,Waversesteenweg,16,50.7721027457,4.53875060828
3090,Overijse,Notelarenstraat,51,50.7979240887,4.56240810722
3090,Overijse,Waversesteenweg,305,50.7510055384,4.57236559725
3090,Overijse,Losweg,13,50.7775912262,4.53092708833
3090,Overijse,Terlindenlaan,35,50.7409028646,4.50323049629
3090,Overijse,Moerlaanstraat,27,50.7523986174,4.56474156996
3090,Overijse,Pelikaanhof,5,50.7829494599,4.5580132539
3090,Overijse,Sint-Annastraat,11,50.7773246655,4.52038406905
3090,Overijse,Kanunniksteen,16,50.744701952,4.49919186424
3090,Overijse,Lindaal,62,50.7957939153,4.55729050911
3090,Overijse,Stationsstraat,24,50.7717415079,4.53584873245
3090,Overijse,Kapelleweg,5,50.7708923947,4.60272332546
3090,Overijse,Just. Lipsiusplein,12,50.7731958354,4.53829735617
3090,Overijse,Terhulpensesteenweg,259,50.759468203,4.53139108878
3090,Overijse,Horenberg,120,50.8030406328,4.56419329549
3090,Overijse,Daloensdelle,5,50.7640280558,4.53809199589
3090,Overijse,H. Consciencelaan,42,50.7817573926,4.5268814061
3090,Overijse,Korenarenstraat,46,50.7779290717,4.53265422132
3090,Overijse,Duisburgsesteenweg,111,50.7969482239,4.54549035402
3090,Overijse,Metsijsdreef,30,50.7868585883,4.51148197273
3090,Overijse,Kouterstraat,87,50.778099174,4.54544923249
3090,Overijse,Leuvensestraat,15,50.7713441264,4.60517899318
3090,Overijse,Veldlaan,5,50.7601236378,4.56354188886
3090,Overijse,P.I. Taymansstraat,54,50.7770316968,4.53658926467
3090,Overijse,Drogenberg,45,50.7738173486,4.52553768525
3090,Overijse,Jos. Kumpsstraat,48,50.7571184836,4.49889224888
3090,Overijse,Boslaan,30,50.7346577704,4.52260387127
3090,Overijse,Schovelingsbos,9,50.7813420406,4.50170375648
3090,Overijse,Hengstenberg,120,50.7808371842,4.49979560712
3090,Overijse,Hertogendal,4,50.7842810213,4.4849036396
3090,Overijse,Decatstraat,26,50.7708335797,4.50608309929
3090,Overijse,Zorgvliet,17,50.7671208796,4.52156702548
3090,Overijse,Terhulpensesteenweg,20,50.7716549907,4.54081935634
3090,Overijse,Wijnlaan,14,50.7464359257,4.50951210628
3090,Overijse,Brusselsesteenweg,662,50.7938749254,4.48174966446
3090,Overijse,Hagaard,52B,50.762869954,4.52160051078
3090,Overijse,Lijsterbessenlaan,16,50.7893930036,4.48498582195
3090,Overijse,Brusselsesteenweg,508,50.7895070903,4.49256757181
3090,Overijse,Speelberg,44,50.7640547278,4.53212578236
3090,Overijse,Stakaardstraat,2,50.8001153028,4.55658514476
3090,Overijse,Tervarenthof,20,50.7855589343,4.50807799629
3090,Overijse,Abstraat,200,50.766823298,4.59973374398
3090,Overijse,Brusselsesteenweg,268,50.7800542955,4.51738292749
3090,Overijse,Woudmeesterstraat,1,50.776843808,4.52251067546
3090,Overijse,Esdoornenlaan,63,50.7887475737,4.4906735593
3090,Overijse,Zuurbessenlaan,10,50.7869219669,4.48312746171
3090,Overijse,Brusselsesteenweg,490,50.7896101706,4.49402619307
3090,Overijse,Sterrebeeldlaan,9,50.7750012773,4.51962215466
3090,Overijse,Sint-Annastraat,65B,50.7738400947,4.51488075852
3090,Overijse,Horizontlaan,4,50.7495457336,4.5237622304
3090,Overijse,Marnixlaan,30,50.7867353278,4.50648567735
3090,Overijse,Jos. Kumpsstraat,92,50.7588079775,4.50241733833
3090,Overijse,Meerlaan,172,50.7301163179,4.52019253134
3090,Overijse,Waversesteenweg,34,50.7726258708,4.53917242843
3090,Overijse,Hoeilaartsesteenweg,254,50.7534835239,4.50483195492
3090,Overijse,Waversesteenweg,2,50.7725002498,4.5373407295
3090,Overijse,Drogenberg,63,50.776009348,4.52328588732
3090,Overijse,Kersenbomenlaan,46,50.7887952643,4.48784936121
3090,Overijse,Vanderweydendreef,64,50.7882342397,4.51923321511
3090,Overijse,Moskesstraat,41,50.7691080131,4.59682189288
3090,Overijse,Belgielaan,28,50.7811370495,4.53886631613
3090,Overijse,Brusselsesteenweg,233,50.7783581086,4.52094548844
3090,Overijse,Gemslaan,42,50.792487152,4.51557347691
3090,Overijse,Guido Gezellelaan,17,50.7434422925,4.50812568224
3090,Overijse,Heuvelstraat,18,50.772806097,4.53557848315
3090,Overijse,Clem. Vanophemstraat,40,50.7815141009,4.52409526604
3090,Overijse,Koninginnelaan,160,50.7511603373,4.49970567041
3090,Overijse,Kapucijnendreef,30,50.7949440287,4.48605871302
3090,Overijse,Drogenberg,10,50.7721750124,4.52812812306
3090,Overijse,Jos. Kumpsstraat,74,50.7581620393,4.50030830396
3090,Overijse,Broensdelle,8,50.7783333579,4.55733517457
3090,Overijse,Brusselsesteenweg,117,50.7756466137,4.53180109496
3090,Overijse,Molendreef,41,50.7695158448,4.52833271726
3090,Overijse,Vlierbeekberg,115,50.7753319433,4.49403492073
3090,Overijse,Langeweg,4,50.7500368253,4.51256115642
3090,Overijse,Jos. Kumpsstraat,56,50.7579337225,4.49924967866
3090,Overijse,Bollestraat,9,50.7702177891,4.60250675128
3090,Overijse,Jordaensdreef,9,50.7852266131,4.50578042474
3090,Overijse,Schavei,47,50.7746926572,4.52885931728
3090,Overijse,Burgemeester Taymanslaan,22,50.7825374248,4.50175961616
3090,Overijse,Graaf Joseph de Meeusstraat,12,50.7928149854,4.48328327495
3090,Overijse,Champelsstraat,28,50.7495386882,4.56992410383
3090,Overijse,Kloosterstraat,10,50.7722033399,4.51981601975
3090,Overijse,Rozierensesteenweg,20,50.7478280587,4.52027764221
3090,Overijse,Drogenberg,81,50.7775875488,4.52139854196
3090,Overijse,Mouflonlaan,4,50.7924135896,4.51073216873
3090,Overijse,Hagaard,54,50.7625654597,4.52181524628
3090,Overijse,Puttestraat,21,50.7761077289,4.54589429364
3090,Overijse,Koninginnelaan,10,50.7439240702,4.4926900968
3090,Overijse,Financialaan,44,50.7511842702,4.52459109835
3090,Overijse,Daloensdelle,39,50.7637230432,4.53758983128
3090,Overijse,Kapucijnendreef,12,50.7943106849,4.4845546621
3090,Overijse,Bekestraat,11,50.7978802171,4.54564493448
3090,Overijse,IJskelderlaan,22,50.775111015,4.54196016381
3090,Overijse,Nijvelsebaan,76,50.761981208,4.54694339142
3090,Overijse,Kalvarieberg,28,50.7761542926,4.54536264905
3090,Overijse,Rameihof,4,50.7496662276,4.53261016717
3090,Overijse,Tulpenlaan,22,50.7955519555,4.49073922899
3090,Overijse,Vriendschapsstraat,7,50.7790074846,4.51565034301
3090,Overijse,Hoeilaartsesteenweg,19,50.7491116997,4.51861512065
3090,Overijse,Esdoornenlaan,45,50.7866192149,4.48715475753
3090,Overijse,Leeuwerikendreef,8,50.7953552238,4.49971894559
3090,Overijse,Dahlialaan,40,50.7951946244,4.48839172746
3090,Overijse,Kanunniksteen,2,50.7450647488,4.50144584282
3090,Overijse,Snijdersdreef,13,50.7875359106,4.50885520963
3090,Overijse,Bisdom,8,50.7723990721,4.55111328907
3090,Overijse,Vanderweydendreef,46,50.7869491963,4.51668055965
3090,Overijse,Schavei,73,50.7763769208,4.52724890152
3090,Overijse,Heuvelstraat,36,50.7726047663,4.53485856638
3090,Overijse,Struiwislaan,17,50.7632404589,4.54201271475
3090,Overijse,Kaalheide,27,50.7936859828,4.55630806045
3090,Overijse,Poelweg,41,50.7477912341,4.52427744606
3090,Overijse,Abstraat,36,50.7571567089,4.57374390038
3090,Overijse,Memlingdreef,39,50.7896674216,4.50462750391
3090,Overijse,Terdekdelleweg,3,50.7542274057,4.56665796659
3090,Overijse,Kerkeweg,124,50.75545536,4.52528554143
3090,Overijse,Bremlaan,55,50.7471454962,4.49995927649
3090,Overijse,Reutenbeek,41,50.754074779,4.54068019398
3090,Overijse,Horenberg,21,50.7994302488,4.5526026242
3090,Overijse,Paardebeekstraat,12,50.7527788696,4.56351608464
3090,Overijse,Brusselsesteenweg,579,50.7918303461,4.48590652574
3090,Overijse,Regenmeuterlaan,28,50.7598527158,4.52825263682
3090,Overijse,Terholstdreef,31,50.7377031382,4.50546401789
3090,Overijse,Bollestraat,72,50.7715711355,4.59740688395
3090,Overijse,Mozartlaan,11,50.7737078621,4.52877400889
3090,Overijse,Tuindelle,37,50.7770357803,4.51607348243
3090,Overijse,Alf. Moerenhoutstraat,103,50.764257371,4.53056828443
3090,Overijse,Stijn Streuvelslaan,21,50.7457654192,4.5093300059
3090,Overijse,Viskensdelle,20,50.7629436115,4.5358577832
3090,Overijse,Kastanjedreef,59,50.7901466731,4.51587460658
3090,Overijse,Nijvelsebaan,8,50.7597308167,4.53682527618
3090,Overijse,Vossestraat,7,50.7715515858,4.50767710526
3090,Overijse,Hoeilaartsesteenweg,164,50.7513409257,4.5107647801
3090,Overijse,Terhulpensesteenweg,108,50.7659168376,4.54155794422
3090,Overijse,Stationsstraat,42,50.7713583106,4.53488094473
3090,Overijse,Hengstenberg,94,50.7787135232,4.50266570288
3090,Overijse,Vriendschapsstraat,14,50.7792210564,4.51524024667
3090,Overijse,Vliertjeslaan,7,50.7832444484,4.49281008003
3090,Overijse,Hagaard,69,50.7623822419,4.5240630606
3090,Overijse,Langeweg,41,50.7482675102,4.51009742959
3090,Overijse,Vuurgatstraat,68,50.7861629772,4.47987033731
3090,Overijse,Brusselsesteenweg,416,50.78660989,4.49932917586
3090,Overijse,Langeweg,145,50.7452883101,4.50473066009
3090,Overijse,Krommeweg,9,50.7710787943,4.48998847062
3090,Overijse,Terhulpensesteenweg,126,50.765252249,4.54050854396
3090,Overijse,Moskesstraat,21,50.7688317472,4.59943544109
3090,Overijse,Brusselsesteenweg,200,50.7781370993,4.52268974153
3090,Overijse,Bollestraat,69,50.7714974408,4.59785465121
3090,Overijse,Champelsstraat,36,50.7488498604,4.56905423814
3090,Overijse,Sparrenlaan,29,50.7889712542,4.47778347116
3090,Overijse,Vuurgatstraat,86,50.7849068384,4.47922213131
3090,Overijse,Fazantenlaan,39,50.7415086009,4.49652186628
3090,Overijse,Drogenberg,5A,50.771718218,4.52775301268
3090,Overijse,Brusselsesteenweg,677,50.7937871749,4.48129742795
3090,Overijse,Dreef,53,50.7754419355,4.54537102516
3090,Overijse,Mouflonlaan,41,50.7910981287,4.51616762864
3090,Overijse,Waversesteenweg,194,50.7641620863,4.55343622116
3090,Overijse,Molendreef,21,50.7698373286,4.52950221301
3090,Overijse,Hagaard,87,50.7619825708,4.52692839241
3090,Overijse,Kalvarieberg,18,50.7755452443,4.54446686327
3090,Overijse,Hollandstraat,43,50.7738352298,4.51702450613
3090,Overijse,Champelsstraat,18,50.750325709,4.57025622821
3090,Overijse,Kerkeweg,17,50.7606190402,4.52650638587
3090,Overijse,Daloensdelle,40,50.7644682535,4.53637038203
3090,Overijse,Regenmeuterlaan,36,50.7601770279,4.5281487159
3090,Overijse,Bollestraat,87,50.7704851835,4.59652903597
3090,Overijse,Kerselarenstraat,21,50.7753785328,4.5202093398
3090,Overijse,Brusselsesteenweg,99,50.7752749623,4.53290255387
3090,Overijse,Prins Karellaan,17,50.7796464593,4.51035785664
3090,Overijse,Kroendaalplein,4,50.775319931,4.5450833225
3090,Overijse,Fr. Verbeekstraat,41,50.7701317221,4.52481923872
3090,Overijse,Leuvensestraat,51,50.7738527816,4.61032740442
3090,Overijse,Rameistraat,64,50.7487251252,4.52955087127
3090,Overijse,Terhulpensesteenweg,561,50.7444922952,4.51394088701
3090,Overijse,Generaalbosweg,26,50.7836410781,4.52562670343
3090,Overijse,Hertstraat,46,50.7642429513,4.54752080592
3090,Overijse,Heuvelstraat,28,50.7726477829,4.53514169244
3090,Overijse,Eekhout,23,50.7687202325,4.54802424333
3090,Overijse,Lanestraat,117,50.7534716714,4.56890291235
3090,Overijse,Jean Tombeurstraat,42,50.7670649331,4.52908573377
3090,Overijse,Koninginnelaan,78,50.7469091076,4.49545788528
3090,Overijse,Brusselsesteenweg,695,50.7940018211,4.48067217054
3090,Overijse,Esdoornenlaan,10,50.7863106158,4.48217157691
3090,Overijse,Sint-Annastraat,102,50.7703971996,4.50889299022
3090,Overijse,Ketelheide,34,50.789683444,4.53475287548
3090,Overijse,Hindelaan,9,50.7936254408,4.51062109917
3090,Overijse,Sterrebeeldlaan,16,50.774090767,4.51936970029
3090,Overijse,Halsdreef,7,50.7871482633,4.50515228076
3090,Overijse,Heuvelstraat,4,50.772950444,4.53622504849
3090,Overijse,Memlingdreef,40,50.7899083021,4.50550934449
3090,Overijse,Haaglaan,6,50.7798191012,4.50604223401
3090,Overijse,Tarwelaan,2,50.7741281522,4.49804789324
3090,Overijse,Groenendaallaan,20,50.7417288348,4.50646934037
3090,Overijse,Lijsterbessenlaan,26,50.7886388605,4.486684918
3090,Overijse,Vriendschapsstraat,32,50.7783439639,4.51348770575
3090,Overijse,Luxemburglaan,7,50.7801953144,4.53723851729
3090,Overijse,Kouterstraat,54,50.7766032953,4.54323420227
3090,Overijse,Terrestlaan,20,50.7834671504,4.50323643907
3090,Overijse,Schoolstraat,9,50.7465985851,4.51502880181
3090,Overijse,Maria Christinalaan,20,50.7440437142,4.5107990675
3090,Overijse,Lindaal,7,50.7980016704,4.54997895493
3090,Overijse,Duisburgsesteenweg,154,50.7983661933,4.54928786255
3090,Overijse,P.I. Taymansstraat,87,50.7798639959,4.53533192422
3090,Overijse,Kouterstraat,158,50.7806436062,4.55244191674
3090,Overijse,Sijzenplein,2,50.7445101384,4.49484257547
3090,Overijse,Nijvelsebaan,130,50.7653078843,4.55357099834
3090,Overijse,Prins Karellaan,35,50.7805693129,4.5080686858
3090,Overijse,Prinsendal,36,50.7839008453,4.4840924274
3090,Overijse,Schemeringlaan,25,50.7729426501,4.51933226916
3090,Overijse,Korenarenstraat,117,50.7804061936,4.52241275655
3090,Overijse,Riddersdal,6,50.7848259104,4.4846980959
3090,Overijse,Scherendelle,2,50.7740576143,4.50927779849
3090,Overijse,Korteveld,34,50.7788683421,4.53823350381
3090,Overijse,Kerkeweg,35,50.7597005438,4.5261849672
3090,Overijse,Barbizonlaan,20,50.7855428355,4.46881173266
3090,Overijse,Fr. Verbeekstraat,181,50.7696853217,4.49831631599
3090,Overijse,Sparrenlaan,5,50.7893135612,4.48194797366
3090,Overijse,Landbouwlaan,4,50.7732821775,4.49645799323
3090,Overijse,Pikkelblokstraat,3,50.7824191743,4.53212725299
3090,Overijse,Moerlaanstraat,19,50.7526593772,4.56529561256
3090,Overijse,Langeweg,110,50.7463414079,4.50607822195
3090,Overijse,Korteveld,16,50.7777600363,4.54023973663
3090,Overijse,J. Bt. Dekeyserstraat,65,50.7708887897,4.54039734572
3090,Overijse,Biesmuiterlaan,10,50.7808098429,4.53391223085
3090,Overijse,Vanderweydendreef,9,50.7865271012,4.5119526297
3090,Overijse,Fr. Verbeekstraat,6,50.7711716607,4.52793800648
3090,Overijse,Emile Carelsstraat,9,50.7714213463,4.54063760476
3090,Overijse,Terhulpensesteenweg,600,50.7429397782,4.51130761605
3090,Overijse,Liefkensstraat,23,50.77642097,4.50818537074
3090,Overijse,Prinsendal,18,50.7843272152,4.48162649044
3090,Overijse,Alf. Moerenhoutstraat,40,50.7664765263,4.52845221758
3090,Overijse,Belgielaan,36,50.7815341983,4.53967656813
3090,Overijse,Terspoutland,19,50.7713414385,4.5154985823
3090,Overijse,Ratelbergstraat,4,50.7698854181,4.49006774415
3090,Overijse,Terhulpensesteenweg,653,50.7399809663,4.50789452623
3090,Overijse,Brusselsesteenweg,659,50.7933280133,4.48191598931
3090,Overijse,Jagersstraat,9,50.7811497367,4.55538120464
3090,Overijse,Grotstraat,19,50.7726251212,4.54505943907
3090,Overijse,Waversesteenweg,231,50.7623001315,4.55781303096
3090,Overijse,Olmengaarde,6,50.7312026136,4.52901787085
3090,Overijse,Scherendelle,99,50.7765483474,4.50668016664
3090,Overijse,Koninginnelaan,96,50.7479176925,4.49642343576
3090,Overijse,Steenbakkersweg,62,50.7587534278,4.50702236475
3090,Overijse,Raymond Hyelaan,25,50.7863646234,4.49700760402
3090,Overijse,Brusselsesteenweg,448,50.7875345957,4.49720098319
3090,Overijse,Robijnlaan,2,50.7854290429,4.49824955453
3090,Overijse,Kouterstraat,72,50.7771485309,4.54454475524
3090,Overijse,Ballingstraat,118,50.7956083984,4.54890462984
3090,Overijse,Trilpopulierenlaan,22,50.7871020104,4.48514307492
3090,Overijse,Loensdelleweg,15,50.7681413958,4.53528291108
3090,Overijse,Reeborredelle,13,50.775593495,4.51419491118
3090,Overijse,Watermolenplein,16,50.7696389561,4.5305848727
3090,Overijse,Kouterstraat,176,50.7812949414,4.55452292098
3090,Overijse,Speelberg,79,50.7603633291,4.53047377649
3090,Overijse,Duisburgsesteenweg,172,50.7990085802,4.54987702753
3090,Overijse,P.I. Taymansstraat,69,50.777490641,4.53532122318
3090,Overijse,Smetslaan,61,50.7446485158,4.50317592555
3090,Overijse,Weidelaan,7,50.7722203626,4.49877032643
3090,Overijse,Ruhlplein,3,50.7874295701,4.51564115561
3090,Overijse,Stationsstraat,7,50.7722239952,4.53715458584
3090,Overijse,Nieuwland,23,50.7711498023,4.5001112937
3090,Overijse,Jordaensdreef,16,50.7848864552,4.50584707153
3090,Overijse,Adriaanstraat,26A,50.7703341009,4.54858654961
3090,Overijse,Tuindelle,55,50.77589369,4.51330447168
3090,Overijse,Brusselsesteenweg,11,50.7729585128,4.535927074
3090,Overijse,Stokkemstraat,21,50.7797843792,4.55933134244
3090,Overijse,Kasteelstraat,39,50.7881405927,4.50441658846
3090,Overijse,Bollestraat,16,50.7712918559,4.60395259016
3090,Overijse,Dolf Ledellaan,1,50.7821602283,4.55405259755
3090,Overijse,Abstraat,56,50.7578790345,4.57583184592
3090,Overijse,Sint-Hubertusdreef,36,50.7852462404,4.46977780364
3090,Overijse,Blekersstraat,9,50.7796282678,4.55057465832
3090,Overijse,Alf. Moerenhoutstraat,93,50.7645867012,4.53073625604
3090,Overijse,Ballingstraat,101,50.7939278994,4.55062486607
3090,Overijse,Reebokweg,17A,50.7912939069,4.4933809927
3090,Overijse,Tulpenlaan,29,50.7956389823,4.49235316359
3090,Overijse,Kerselarenstraat,6,50.7745672512,4.52189966651
3090,Overijse,Schaatbroekstraat,27,50.7629987174,4.5908780471
3090,Overijse,Vossestraat,42,50.7736821117,4.50717715017
3090,Overijse,Fel. Bergiersstraat,58,50.7506629186,4.5035013829
3090,Overijse,Drogenberg,79B,50.7769617706,4.5214026005
3090,Overijse,Zandblauwtjeslaan,8,50.7711333086,4.49519481383
3090,Overijse,Hagaard,34,50.7637978121,4.51985541115
3090,Overijse,Patrijzenlaan,24,50.7435781006,4.49614397376
3090,Overijse,Zavelbergstraat,15,50.75131586,4.56507997839
3090,Overijse,Vriendschapsstraat,67,50.7768271572,4.51083763563
3090,Overijse,Kastanjedreef,24,50.7922412977,4.5084669162
3090,Overijse,Eeuwfeestplein,15,50.7710022148,4.52995886393
3090,Overijse,Brusselsesteenweg,487,50.7887273697,4.49303393627
3090,Overijse,Alf. Moerenhoutstraat,75,50.7652667325,4.52985806575
3090,Overijse,Woutersplein,1,50.7878264197,4.51380985337
3090,Overijse,Schransdreef,64,50.7898387028,4.50281792622
3090,Overijse,Dallaan,24,50.7389265261,4.51015724793
3090,Overijse,Marnixlaan,39,50.787457344,4.50689438395
3090,Overijse,Roekeloosborre,14,50.7455467162,4.49927568654
3090,Overijse,Kerkeweg,63,50.7580534149,4.52520478483
3090,Overijse,Vlierbeekberg,72,50.7725855977,4.49063969448
3090,Overijse,Ringelberglaan,4,50.7336638034,4.52312132812
3090,Overijse,Bruegheldreef,21,50.7869728254,4.50137882426
3090,Overijse,Terhulpensesteenweg,707,50.7378028693,4.50435846846
3090,Overijse,Boslaan,39,50.7343820439,4.52192897157
3090,Overijse,Vergoeienveld,9,50.7641931427,4.53576131304
3090,Overijse,Brusselsesteenweg,2,50.7731422553,4.53643300404
3090,Overijse,Terhulpensesteenweg,316,50.7566820604,4.52797002982
3090,Overijse,Drogenberg,79D,50.7772908186,4.52145216247
3090,Overijse,Horizontlaan,31,50.7512338842,4.52640268958
3090,Overijse,Arth. Michielsplein,5,50.7696023532,4.60335737512
3090,Overijse,Metsijsdreef,39,50.7875332779,4.51271285655
3090,Overijse,Decatstraat,9,50.7701037671,4.50709456268
3090,Overijse,Horenberg,6,50.7990954499,4.55158779202
3090,Overijse,Koninginnelaan,144,50.750101865,4.49884031171
3090,Overijse,Gemslaan,77,50.7923829884,4.52408790032
3090,Overijse,Fel. Bergiersstraat,76,50.7496743399,4.50246624801
3090,Overijse,Nederdellelaan,4,50.7609625363,4.52894652031
3090,Overijse,Vlierbeekberg,97,50.7742806581,4.49195651992
3090,Overijse,Terrestlaan,3,50.7831283579,4.50468397181
3090,Overijse,Mommaertsstraat,120,50.7602255196,4.5782105592
3090,Overijse,Jean Tombeurstraat,32,50.7680092002,4.53000796945
3090,Overijse,Graven Egm. en Hoornlaan,2,50.7745707991,4.5378105061
3090,Overijse,Regenmeuterlaan,46,50.7605360202,4.52832242631
3090,Overijse,Duisburgsesteenweg,190,50.8001086729,4.55055238548
3090,Overijse,Kouterstraat,90,50.7780171509,4.54594772867
3090,Overijse,Tenots,12,50.7671743424,4.53435637556
3090,Overijse,Abstraat,74,50.7587808716,4.57715319386
3090,Overijse,Houtvesterstraat,12,50.7767296874,4.52041475406
3090,Overijse,Homeweg,15,50.766177341,4.59204098842
3090,Overijse,Lanestraat,2,50.7605670561,4.55954455905
3090,Overijse,Kouterstraat,105,50.7790594693,4.54679900263
3090,Overijse,Fr. Verbeekstraat,94,50.7702013554,4.51543348736
3090,Overijse,Bollestraat,34,50.7730805836,4.60455671086
3090,Overijse,Kastanjedreef,5,50.7931843778,4.50758498087
3090,Overijse,Burgemeester Taymanslaan,29,50.7820576564,4.50111845832
3090,Overijse,Topaaslaan,12,50.7837442449,4.50029409963
3090,Overijse,Warandelaan,31,50.7759220035,4.54078780092
3090,Overijse,Korteveld,44,50.7794686503,4.53775429357
3090,Overijse,Schapenweg,83,50.7944953148,4.55086336642
3090,Overijse,Patrijzenlaan,5,50.7441646258,4.49387620743
3090,Overijse,Keizerlaan,25,50.7841585671,4.48803070021
3090,Overijse,Robijnlaan,11,50.7857411277,4.49884729461
3090,Overijse,Lindaalhof,14,50.7966347734,4.55428271084
3090,Overijse,Walravensbosstraat,6,50.7850603385,4.53793285096
3090,Overijse,Duizendbladlaan,21,50.7715669625,4.49244131076
3090,Overijse,Langeweg,94,50.7467632956,4.50668831004
3090,Overijse,Hannekensboslaan,14,50.7645416021,4.54437716679
3090,Overijse,Heesterweg,10,50.7968475314,4.55693914443
3090,Overijse,Zwaluwenplein,10,50.741698143,4.49615940633
3090,Overijse,Daloensdelle,12,50.7646023914,4.53903058654
3090,Overijse,Vijverstraat,12,50.7766400412,4.54746484358
3090,Overijse,Warandelaan,13,50.7753571464,4.53909587001
3090,Overijse,Gemslaan,59,50.7927078581,4.5167743403
3090,Overijse,Burgemeester Taymanslaan,5,50.7824512995,4.50472298693
3090,Overijse,Terhulpensesteenweg,425,50.7491602175,4.52099342057
3090,Overijse,Clem. Vanophemstraat,57,50.7823304075,4.52527320602
3090,Overijse,Druivenlaan,18,50.7474601179,4.50959594735
3090,Overijse,Clem. Vanophemstraat,22,50.7806884805,4.52233640409
3090,Overijse,Waversesteenweg,54,50.7725581048,4.53995914813
3090,Overijse,Terhulpensesteenweg,478,50.7478139609,4.5178262632
3090,Overijse,Hagaard,123,50.7633467909,4.52934048831
3090,Overijse,Tervarenthof,37,50.7851671075,4.50850083663
3090,Overijse,Brusselsesteenweg,570,50.7919348891,4.48706921224
3090,Overijse,Mommaertsstraat,64,50.7649866784,4.56856887939
3090,Overijse,Langeweg,31,50.7487477809,4.51102629337
3090,Overijse,Abstraat,215,50.7683031843,4.60141149693
3090,Overijse,Veldlaan,12,50.7591458698,4.56490864189
3090,Overijse,Adriaanstraat,13,50.7714637297,4.54824893893
3090,Overijse,Hengstenberg,6,50.7705176421,4.50535180585
3090,Overijse,Vuurgatstraat,122,50.7821455709,4.47846095783
3090,Overijse,Sportlaan,24,50.7354141596,4.52055754798
3090,Overijse,Terhulpensesteenweg,543,50.7450467286,4.51491967895
3090,Overijse,Bredestraat,27,50.7583151134,4.52719593301
3090,Overijse,Rozierensesteenweg,37,50.7478837637,4.52099140221
3090,Overijse,Gemslaan,24,50.7930610353,4.51145988463
3090,Overijse,Metsijsdreef,50,50.7875130588,4.51437146342
3090,Overijse,Malpertuusberg,14,50.7729653758,4.52454541389
3090,Overijse,Meeuwenlaan,27,50.7851044376,4.56176497254
3090,Overijse,Hoeilaartsesteenweg,218,50.7530831833,4.50729486995
3090,Overijse,Witherendreef,95,50.7930277723,4.49174532702
3090,Overijse,Boslaan,50,50.7374598115,4.52272993452
3090,Overijse,Terholstdreef,38,50.7374332222,4.5064917137
3090,Overijse,Begonialaan,14,50.7938434509,4.49135927084
3090,Overijse,Jos. Kumpsstraat,28,50.7578304885,4.49693132663
3090,Overijse,Memlingdreef,30,50.7893518086,4.50492356043
3090,Overijse,Adriaanstraat,66,50.7680702462,4.54915099274
3090,Overijse,Vossestraat,60,50.7756123862,4.50595589662
3090,Overijse,Waversesteenweg,72,50.772210014,4.54075958146
3090,Overijse,Rembrandtdreef,4,50.7890231077,4.50656260635
3090,Overijse,Brusselsesteenweg,552,50.791521512,4.48929286621
3090,Overijse,Baron Opsomerdreef,8,50.785344199,4.5140920242
3090,Overijse,Witherendreef,77,50.793153117,4.49017529271
3090,Overijse,Tarwelaan,11,50.7741720573,4.49638570464
3090,Overijse,Horizontlaan,13,50.7501610897,4.52443125872
3090,Overijse,Daloensdelle,30,50.7651720529,4.53755890198
3090,Overijse,Brusselsesteenweg,143,50.7767797513,4.52757778182
3090,Overijse,Welriekendedreef,151,50.7848469933,4.45686457377
3090,Overijse,Dahlialaan,22,50.7947721023,4.49125433332
3090,Overijse,Financialaan,26,50.7509169046,4.52726474889
3090,Overijse,Zuurbessenlaan,25,50.7867597452,4.48544102294
3090,Overijse,Teniersdreef,40,50.7897497591,4.5094830115
3090,Overijse,Abstraat,92,50.7594077082,4.58090503815
3090,Overijse,Tulpenlaan,40,50.7947724283,4.49281524889
3090,Overijse,Katjeslaan,10,50.7788324124,4.50410449098
3090,Overijse,Tuindelle,20,50.778035616,4.51727642345
3090,Overijse,Schuttershof,4,50.7848539499,4.48242741062
3090,Overijse,Venusberg,7,50.7509694952,4.56324911471
3090,Overijse,H. Consciencelaan,24,50.7807472643,4.52764326442
3090,Overijse,Lindaal,115,50.7945518714,4.56045598565
3090,Overijse,Scheperslaan,4,50.764316511,4.54371139667
3090,Overijse,Lindaalhof,32,50.7965529503,4.55167362025
3090,Overijse,Groeneweg,182,50.7891192719,4.55031165414
3090,Overijse,Louis Gunsstraat,61,50.7922478614,4.49883474089
3090,Overijse,Haagwindelaan,9,50.7738412932,4.49828854211
3090,Overijse,Vorststraat,44,50.7508245811,4.56629743549
3090,Overijse,Eekhout,1,50.7679572565,4.54966612594
3090,Overijse,Grasmussenplein,4,50.7435622589,4.4946751061
3090,Overijse,Prins Karellaan,45,50.781659078,4.50667848379
3090,Overijse,Tuindelle,73,50.7749950293,4.51152211003
3090,Overijse,Witherendreef,121,50.793384621,4.49703492225
3090,Overijse,Welriekendedreef,67,50.7899296578,4.47154240754
3090,Overijse,Labbelaan,38,50.7366296581,4.50767477977
3090,Overijse,Reebokweg,13,50.7910799796,4.49327206822
3090,Overijse,Woutersplein,3A,50.7881827166,4.51305634795
3090,Overijse,Maurits Coomansstraat,1,50.7725810384,4.53636294745
3090,Overijse,Brusselsesteenweg,178,50.7777033572,4.52571586392
3090,Overijse,Gemslaan,5,50.7944486594,4.50835747988
3090,Overijse,Waversesteenweg,314A,50.7501205234,4.5715754503
3090,Overijse,Poenaardlaan,31,50.7790544056,4.50614619312
3090,Overijse,Sparrenlaan,12,50.7895517705,4.48038241962
3090,Overijse,Nieuwland,76,50.7761610297,4.49793327574
3090,Overijse,Prins de Salmlaan,8,50.7432744068,4.50443564542
3090,Overijse,Terhulpensesteenweg,625,50.7413771743,4.51012879472
3090,Overijse,Kasteelstraat,40,50.7880394518,4.50496214763
3090,Overijse,Kroendaalplein,11,50.7742692555,4.54374228926
3090,Overijse,Schoolstraat,16,50.7470929767,4.51499336217
3090,Overijse,Tarwelaan,9,50.7741953229,4.49672957217
3090,Overijse,Acacialaan,2,50.7886431639,4.49131118644
3090,Overijse,Poenaardlaan,13,50.7809879416,4.50357728601
3090,Overijse,Elegastlaan,8,50.7723517113,4.52463283091
3090,Overijse,Kerkeweg,10,50.7610704947,4.52604825651
3090,Overijse,Abstraat,125,50.7617016582,4.58504861749
3090,Overijse,Brusselsesteenweg,225,50.7780672775,4.52143781971
3090,Overijse,Brusselsesteenweg,74,50.7745732481,4.53409583727
3090,Overijse,H. Consciencelaan,5,50.7793795996,4.52709457771
3090,Overijse,Kalfsborreweg,41,50.7660749578,4.52627001752
3090,Overijse,Kastanjedreef,70,50.7896739728,4.51553672126
3090,Overijse,Nieuwland,58,50.7745699287,4.49907628022
3090,Overijse,Sparrenlaan,30,50.7899114153,4.47747110127
3090,Overijse,Moerlaanstraat,47,50.7511939201,4.56219787807
3090,Overijse,Baron Opsomerdreef,33,50.7869351127,4.5178565732
3090,Overijse,Suzydreef,4,50.7673427594,4.59044371151
3090,Overijse,Heuvelstraat,11,50.7724954206,4.53613751078
3090,Overijse,Fr. Verbeekstraat,31,50.7703024056,4.52531186728
3090,Overijse,Kersenbomenlaan,2,50.7912409357,4.48351768949
3090,Overijse,Terspoutland,47,50.7709299913,4.51491690753
3090,Overijse,Vossekoten,7,50.7738783181,4.60425207493
3090,Overijse,Kastanjedreef,52,50.7903637812,4.51349832388
3090,Overijse,Vuurgatstraat,61,50.7861057241,4.48032867535
3090,Overijse,Lanestraat,92,50.7545587369,4.56694123686
3090,Overijse,Vossebeekweg,26,50.7679089923,4.54691431081
3090,Overijse,Drogenberg,71,50.7765933911,4.52268764884
3090,Overijse,Gebr. Danhieuxstraat,6,50.7712533765,4.53621771158
3090,Overijse,Brusselsesteenweg,343,50.7820878247,4.50861558214
3090,Overijse,Bekestraat,36,50.8013647694,4.54541848872
3090,Overijse,Waversesteenweg,97,50.7721896989,4.54251715934
3090,Overijse,Rozierensesteenweg,19,50.7484157815,4.52043725044
3090,Overijse,Liefkensstraat,1,50.7769426196,4.51021796779
3090,Overijse,Poelweg,6,50.7495620769,4.52255470978
3090,Overijse,Vlierbeekberg,123,50.7759443517,4.49434067776
3090,Overijse,Bollestraat,80,50.7712834409,4.59654495946
3090,Overijse,Terhulpensesteenweg,216,50.7608322101,4.53483855749
3090,Overijse,Hengstenberg,163,50.7848025153,4.49771576244
3090,Overijse,Brusselsesteenweg,587,50.7919584159,4.48558120849
3090,Overijse,Mouflonlaan,31,50.7917001815,4.51508525052
3090,Overijse,Schavei,19,50.7735430014,4.53149435457
3090,Overijse,Sint-Annastraat,89,50.7712304832,4.51248684096
3090,Overijse,Sint-Hubertusdreef,46,50.7841895403,4.47025340285
3090,Overijse,Bremlaan,25,50.7461676523,4.50235493489
3090,Overijse,Kersenbomenlaan,34,50.7893963313,4.48686055734
3090,Overijse,Krommeweg,16,50.7702492059,4.49009236118
3090,Overijse,Waversesteenweg,105,50.7722814143,4.54268450341
3090,Overijse,Moskesstraat,6,50.7682289803,4.60278008059
3090,Overijse,Stationsstraat,32,50.7716275801,4.53523986119
3090,Overijse,Steenbakkersweg,48,50.7581054144,4.50606252349
3090,Overijse,Heurkstraat,46,50.7626292521,4.53306664875
3090,Overijse,Mouflonlaan,13,50.7923093113,4.51263719027
3090,Overijse,Brusselsesteenweg,652,50.793888435,4.48237050527
3090,Overijse,Lanestraat,56,50.7570965264,4.56396739319
3090,Overijse,Rameistraat,18,50.7487991738,4.52561332177
3090,Overijse,Jagersstraat,2,50.7815789102,4.55554640477
3090,Overijse,Terhulpensesteenweg,19,50.7713772501,4.5413387624
3090,Overijse,Korenarenstraat,16,50.7766082251,4.53506004445
3090,Overijse,Brusselsesteenweg,444,50.787453578,4.49754551276
3090,Overijse,Fr. Verbeekstraat,13,50.7705607062,4.52761838054
3090,Overijse,Leuvensestraat,23,50.7712796395,4.60634540775
3090,Overijse,Nijvelsebaan,119,50.7648929031,4.55141197259
3090,Overijse,Eendenlaan,33,50.7426489977,4.49680876058
3090,Overijse,Ranklaan,4,50.7480767146,4.51101051229
3090,Overijse,Tervarenthof,19,50.7855795893,4.50914460489
3090,Overijse,Korenarenstraat,100,50.7800400508,4.5249778602
3090,Overijse,Jan Fijtlaan,10,50.7857936143,4.51071905233
3090,Overijse,Stationsstraat,14,50.7719659505,4.53612073507
3090,Overijse,P.I. Taymansstraat,80,50.7789064218,4.53614239204
3090,Overijse,Nijvelsebaan,51,50.760668846,4.54256207492
3090,Overijse,Ogentroostlaan,6,50.7724065516,4.49391764785
3090,Overijse,Nieuwelaan,21,50.7327454968,4.52897894576
3090,Overijse,Vanderweydendreef,48,50.7870327487,4.51693353536
3090,Overijse,Dreef,180,50.7814715186,4.56122268048
3090,Overijse,Annegijsboslaan,10,50.7660643021,4.54328642721
3090,Overijse,Langeweg,13,50.7495426416,4.51242899245
3090,Overijse,Koestraat,47,50.7976496337,4.53893391017
3090,Overijse,Korenarenstraat,153,50.7816790654,4.51555917709
3090,Overijse,Prinsendal,4,50.7846223858,4.47999770696
3090,Overijse,Graven Egm. en Hoornlaan,28,50.7744599545,4.54027431254
3090,Overijse,Robijnlaan,9,50.7857747631,4.49875421904
3090,Overijse,Esmoreitlaan,10,50.7745512382,4.52394756936
3090,Overijse,Terrestlaan,27,50.782829867,4.50127931624
3090,Overijse,Groeneweg,91,50.7867239218,4.53969194445
3090,Overijse,Biesmuiterlaan,17,50.7805293053,4.53197476042
3090,Overijse,Waversesteenweg,313,50.7505354295,4.57233337539
3090,Overijse,Brusselsesteenweg,261,50.7789850276,4.51804268495
3090,Overijse,Langeweg,127,50.7457304728,4.50561211646
3090,Overijse,Brusselsesteenweg,670,50.7939524189,4.48156135379
3090,Overijse,Duisburgsesteenweg,22,50.7881855965,4.53812168531
3090,Overijse,Esdoornenlaan,71,50.7893194072,4.49161375838
3090,Overijse,Kokerlaan,19,50.7801540449,4.5064334297
3090,Overijse,Hengstenberg,145,50.7821147586,4.49822266378
3090,Overijse,Brabandtlaan,1,50.7872518742,4.49489402471
3090,Overijse,Kruisstraat,26,50.7642972371,4.52533759859
3090,Overijse,Const. Meunierlaan,3,50.7819652392,4.55405423773
3090,Overijse,Kersenbomenlaan,16,50.790543255,4.48487124911
3090,Overijse,Witherendreef,103,50.7929868754,4.4927571872
3090,Overijse,Broensdelle,10,50.778051566,4.55736892119
3090,Overijse,Duisburgsesteenweg,189,50.8010709691,4.55006174906
3090,Overijse,Fazantenlaan,22,50.7419897876,4.49332068932
3090,Overijse,Nieuwland,8,50.7712191102,4.50082924904
3090,Overijse,Terspautlosweg,20,50.7709773457,4.51421545893
3090,Overijse,Kouterstraat,26,50.776155436,4.5400753573
3090,Overijse,Lijsterbessenlaan,7,50.7898360748,4.48501500338
3090,Overijse,Brusselsesteenweg,92,50.7754460156,4.53342745075
3090,Overijse,Waversesteenweg,348,50.7482568047,4.5705667336
3090,Overijse,Jean Tombeurstraat,14,50.7696830663,4.53131679747
3090,Overijse,Vanderweydendreef,16,50.7860015823,4.51230384777
3090,Overijse,Olmengaarde,13,50.7305924635,4.52889595625
3090,Overijse,Reebokweg,31,50.7922713406,4.49414592802
3090,Overijse,Clem. Vanophemstraat,3,50.7789312476,4.52097911049
3090,Overijse,Nederlandlaan,3,50.7805285048,4.53777541287
3090,Overijse,Bekestraat,41,50.8020890424,4.54454055721
3090,Overijse,Sportlaan,5,50.736357625,4.52146156609
3090,Overijse,Scherendelle,9,50.7736704558,4.5088812314
3090,Overijse,Esdoornenlaan,35,50.7861906842,4.48590360942
3090,Overijse,Abstraat,107,50.7603537522,4.58255115563
3090,Overijse,Brusselsesteenweg,634,50.7934615881,4.48303225361
3090,Overijse,Brusselsesteenweg,196,50.7780171651,4.52297065202
3090,Overijse,Terhulpensesteenweg,607,50.7422703699,4.5114787124
3090,Overijse,Sint-Annastraat,95B,50.769805032,4.5117909551
3090,Overijse,Terlindenlaan,25,50.7403365931,4.5041658972
3090,Overijse,Lindaal,72,50.7960408577,4.55807035075
3090,Overijse,Schransdreef,102,50.7919294413,4.50474667926
3090,Overijse,Graven Egm. en Hoornlaan,9,50.7746976231,4.53955240491
3090,Overijse,Schavei,65,50.7760005085,4.52805038967
3090,Overijse,Baron Opsomerdreef,1,50.7854469327,4.51323893731
3090,Overijse,Paardebeekstraat,22,50.7523456884,4.56214409899
3090,Overijse,Landbouwlaan,11,50.7725983284,4.49711450867
3090,Overijse,Hertstraat,18,50.7664705592,4.54399825727
3090,Overijse,Bakengat,7,50.7450914804,4.49749440093
3090,Overijse,Kouterstraat,97,50.7785496956,4.54618780331
3090,Overijse,Horenberg,13,50.7994872966,4.55125100489
3090,Overijse,Kapucijnendreef,22,50.7943595314,4.48622745026
3090,Overijse,Nederdellelaan,11,50.7612825917,4.5284727976
3090,Overijse,Esdoornenlaan,53,50.7870324636,4.48804185404
3090,Overijse,Tulpenlaan,30,50.7951630612,4.49168200557
3090,Overijse,Terspoutland,37,50.7706554718,4.51603854107
3090,Overijse,Dreef,162,50.7802520646,4.55936117594
3090,Overijse,Snijdersdreef,21,50.7881125592,4.50985617611
3090,Overijse,Belgielaan,4,50.7805102839,4.53638548176
3090,Overijse,Speelberg,32,50.7646632929,4.53330453882
3090,Overijse,IJskelderlaan,12,50.774002097,4.54325174508
3090,Overijse,Vorststraat,34,50.7512625013,4.56681069594
3090,Overijse,Zavelbergstraat,2C,50.7523998722,4.56575763287
3090,Overijse,Hoeilaartsesteenweg,111,50.7495026559,4.51335828435
3090,Overijse,Moerlaanstraat,37,50.7519257786,4.56381622541
3090,Overijse,Zwanenlaan,23,50.783468807,4.55999080828
3090,Overijse,Kouterstraat,79,50.7776173019,4.54475153417
3090,Overijse,Eekhout,8,50.7684630137,4.54984300567
3090,Overijse,Burgemeester Taymanslaan,30,50.782328155,4.50032557166
3090,Overijse,Luxemburglaan,14,50.7801633244,4.53853127111
3090,Overijse,Vriendschapsstraat,42,50.7778615714,4.51254801775
3090,Overijse,Robijnlaan,28,50.7836023248,4.49818310164
3090,Overijse,Speelberg,54,50.7630046068,4.53060081425
3090,Overijse,Vorststraat,16,50.7525705541,4.56757889884
3090,Overijse,Fr. Verbeekstraat,198,50.7701065977,4.49452745878
3090,Overijse,Eikenlaan,35,50.7837297984,4.47733506619
3090,Overijse,Adriaanstraat,41,50.7693397331,4.55045227459
3090,Overijse,Bredestraat,55,50.7585467772,4.52459700101
3090,Overijse,Duizendbladlaan,6,50.7712265043,4.49355355759
3090,Overijse,Kerkstraat,23,50.7539381786,4.56788838538
3090,Overijse,Burgemeester Taymanslaan,12,50.7825988912,4.50357866218
3090,Overijse,Topaaslaan,29,50.7834324239,4.50026670659
3090,Overijse,Rubensdreef,3,50.785817091,4.50590254899
3090,Overijse,Halsdreef,14,50.7880651795,4.50670543335
3090,Overijse,Stationsplein,7,50.7707603039,4.53131684657
3090,Overijse,Sint-Annastraat,36,50.7760383992,4.51753933476
3090,Overijse,Kersenbomenlaan,48,50.7886753572,4.48809823112
3090,Overijse,Hoeilaartsesteenweg,264,50.753676385,4.50403367785
3090,Overijse,Waaienbergstraat,6,50.7575029104,4.56650128286
3090,Overijse,Oude Abstraat,11,50.7639374435,4.59124705534
3090,Overijse,Guido Gezellelaan,25,50.7441864908,4.50682170416
3090,Overijse,Teniersdreef,30,50.7907236917,4.50919122616
3090,Overijse,Katleendreef,23,50.7668431236,4.58824828864
3090,Overijse,Stijn Streuvelslaan,13,50.7453664486,4.50866216669
3090,Overijse,Brusselsesteenweg,125,50.7758093468,4.53114295159
3090,Overijse,Vergoeienveld,2,50.7633219664,4.5359991727
3090,Overijse,Jos. Kumpsstraat,82,50.7583139542,4.50103281427
3090,Overijse,Hengstenberg,110,50.7797998011,4.50120296531
3090,Overijse,Duisburgsesteenweg,101,50.7961399,4.54677423161
3090,Overijse,Decatstraat,2,50.7698948601,4.50791333009
3090,Overijse,Stafh. Braffortlaan,7,50.7738259732,4.53980300543
3090,Overijse,Eendenlaan,15,50.7431330296,4.49481152525
3090,Overijse,Dreef,144,50.7802315046,4.55790856158
3090,Overijse,Rigauxplein,4,50.7866713031,4.51253081475
3090,Overijse,Hoeilaartsesteenweg,282,50.7538509895,4.50222138051
3090,Overijse,Scherendelle,28,50.7749846636,4.50835420612
3090,Overijse,Arth. Michielsplein,12,50.7691936529,4.60328119217
3090,Overijse,Daloensdelle,29,50.7646115349,4.53737828431
3090,Overijse,Vijverstraat,29,50.7773537404,4.54874702755
3090,Overijse,Decatstraat,16,50.7706156387,4.50679354941
3090,Overijse,Varenslaan,24,50.7349201243,4.5211436833
3090,Overijse,Bruegheldreef,6,50.7862874397,4.50389417603
3090,Overijse,Witherendreef,5,50.7937388276,4.48412760358
3090,Overijse,Nijvelsebaan,33,50.7606763524,4.53967341462
3090,Overijse,Brusselsesteenweg,361,50.783478192,4.50579629632
3090,Overijse,Louis Gunsstraat,15,50.789378102,4.49589377502
3090,Overijse,Regenmeuterlaan,4,50.7598579257,4.52969449266
3090,Overijse,Baron Opsomerdreef,15,50.7859183058,4.5150056453
3090,Overijse,Bredestraat,20,50.7585654296,4.52789110403
3090,Overijse,H. Consciencelaan,52,50.7816851544,4.52525332643
3090,Overijse,Korenarenstraat,56,50.7791673273,4.53058387931
3090,Overijse,Schransdreef,89,50.7915275522,4.50370804665
3090,Overijse,Rembrandtdreef,11,50.7892760432,4.50825356563
3090,Overijse,Vronenberglaan,24,50.779359785,4.53322681113
3090,Overijse,Kerselarenstraat,31,50.77524799,4.51917748193
3090,Overijse,Italielaan,23,50.7832922475,4.53922920962
3090,Overijse,Kordialestraat,17,50.774947662,4.50951992978
3090,Overijse,Brusselsesteenweg,534,50.790425419,4.49031542872
3090,Overijse,Schransdreef,36,50.788041135,4.50124074262
3090,Overijse,Vossestraat,14,50.7714226112,4.50825583931
3090,Overijse,Koninginnelaan,150,50.7500314072,4.49954295889
3090,Overijse,Fel. Timmermanslaan,5,50.7448423228,4.51105482272
3090,Overijse,Nijvelsebaan,86,50.7621709818,4.54776492218
3090,Overijse,Vuurgatstraat,43,50.7877465847,4.48212074276
3090,Overijse,Terhulpensesteenweg,269,50.7590793639,4.53076910677
3090,Overijse,Haagwindelaan,2,50.774134446,4.49869326911
3090,Overijse,Schransdreef,4,50.7869483441,4.49901415968
3090,Overijse,Kanunniksteen,26,50.744364182,4.49776174625
3090,Overijse,Kerselarenstraat,84,50.7755819128,4.5190726447
3090,Overijse,Vliertjeslaan,14,50.7826301734,4.49129118916
3090,Overijse,Parklaan,201,50.7305008949,4.52368358611
3090,Overijse,Vlierbeekberg,105,50.7745319536,4.49243383174
3090,Overijse,Duitslandlaan,1,50.7809961746,4.54052693974
3090,Overijse,Louis Gunsstraat,68,50.7924557355,4.49960800783
3090,Overijse,Clem. Vanophemstraat,136,50.7853137978,4.53401687226
3090,Overijse,Metsijsdreef,57,50.7881171577,4.51530975817
3090,Overijse,Brusselsesteenweg,569,50.7917803081,4.48622934243
3090,Overijse,Clem. Vanophemstraat,118,50.784178625,4.53245542476
3090,Overijse,Hagaard,62,50.7619651804,4.52272891506
3090,Overijse,Alf. Moerenhoutstraat,113,50.7638440741,4.53091980044
3090,Overijse,Kaalheide,37,50.7928769453,4.55673471543
3090,Overijse,Schransdreef,18,50.7875590763,4.49975897023
3090,Overijse,Brusselsesteenweg,107,50.7753116076,4.53080492918
3090,Overijse,Korenarenstraat,74,50.7791698509,4.52836147164
3090,Overijse,Boslaan,57,50.7372321156,4.52217315683
3090,Overijse,Marnixlaan,57,50.7884885551,4.50884756473
3090,Overijse,Stevenshof,5,50.7534608452,4.56085273075
3090,Overijse,Borrestraat,47,50.7573576584,4.5473769401
3090,Overijse,Boslaan,22,50.7328985628,4.52246353381
3090,Overijse,Zandblauwtjeslaan,1,50.7709858373,4.49331347471
3090,Overijse,Tuindelle,27,50.7774776818,4.51694968423
3090,Overijse,P.I. Taymansstraat,141,50.7853890647,4.53626934424
3090,Overijse,Zonnelaan,7,50.7472471899,4.50625303359
3090,Overijse,Waversesteenweg,176,50.7652161073,4.55105234039
3090,Overijse,Metsijsdreef,22,50.7866319903,4.51020227625
3090,Overijse,Gemslaan,52,50.7913317057,4.51756294447
3090,Overijse,Breerijke,37,50.754115079,4.50830522676
3090,Overijse,Kalvarieberg,4,50.7746551375,4.54293234247
3090,Overijse,Vanderweydendreef,56,50.7875697494,4.51781307021
3090,Overijse,Bollestraat,62,50.7720136401,4.59711600329
3090,Overijse,Kasteelstraat,75,50.7900755492,4.50662058875
3090,Overijse,Marnixlaan,22,50.7861013734,4.50541881403
3090,Overijse,Regenmeuterlaan,18,50.7594949739,4.52880657941
3090,Overijse,Woutersplein,8,50.7882954698,4.5147708425
3090,Overijse,Waversesteenweg,26,50.7724628949,4.53873603567
3090,Overijse,Haagwindelaan,16,50.7737738255,4.49637483689
3090,Overijse,Brusselsesteenweg,516,50.7898745243,4.49169378503
3090,Overijse,Drogenberg,53,50.7749640427,4.52489218057
3090,Overijse,Speelberg,85,50.7594631522,4.53030399702
3090,Overijse,Vossestraat,67,50.7762624157,4.50481915612
3090,Overijse,Memlingdreef,29,50.7890814558,4.50394847256
3090,Overijse,Kleinveldweg,25,50.7776079238,4.53778090625
3090,Overijse,Clem. Vanophemstraat,50,50.781899887,4.52500830719
3090,Overijse,Permekedreef,22,50.7907692503,4.51091269115
3090,Overijse,Meeuwenlaan,22,50.7845757051,4.56092287732
3090,Overijse,Rigauxplein,2,50.786494936,4.51332200981
3090,Overijse,Kerselarenstraat,68,50.7754365276,4.52075324858
3090,Overijse,Terhulpensesteenweg,397,50.7511122248,4.52360770607
3090,Overijse,Terhulpensesteenweg,136,50.7644586236,4.5395987485
3090,Overijse,Fel. Timmermanslaan,16,50.7454155619,4.51079174713
3090,Overijse,Lindaal,85,50.7965367067,4.55951886214
3090,Overijse,Regenmeuterlaan,2,50.7599391761,4.529706677
3090,Overijse,Heurkstraat,13,50.7650074152,4.53621213449
3090,Overijse,Sint-Hubertusdreef,13,50.7877301088,4.4696468865
3090,Overijse,Brusselsesteenweg,406,50.7863470933,4.50047272001
3090,Overijse,Waversesteenweg,328,50.7494196949,4.57136029671
3090,Overijse,Zwaluwenplein,3,50.7421148843,4.49510985271
3090,Overijse,P.I. Taymansstraat,95,50.780349468,4.53423829386
3090,Overijse,Terhulpensesteenweg,694,50.7383166955,4.50399757067
3090,Overijse,Schavei,30,50.774583616,4.53054976764
3090,Overijse,Just. Lipsiusplein,7,50.7729641755,4.53692799982
3090,Overijse,Haagwindelaan,4,50.7741159329,4.49836543474
3090,Overijse,Vuurgatstraat,78,50.7854447751,4.47932224235
3090,Overijse,Brusselsesteenweg,667,50.7935638442,4.48151190973
3090,Overijse,Sint-Annastraat,33A,50.7754005275,4.5178618408
3090,Overijse,Brusselsesteenweg,109,50.7755389178,4.53225001829
3090,Overijse,Rozierensesteenweg,12,50.7481207809,4.51998896039
3090,Overijse,Metsijsdreef,7,50.7870915484,4.50833299846
3090,Overijse,Kerselarenstraat,86,50.7754813142,4.51886631738
3090,Overijse,Groeneweg,152,50.7885793488,4.5509480301
3090,Overijse,Woudmeesterstraat,6,50.7768691748,4.52188393588
3090,Overijse,Brusselsesteenweg,424,50.7869092357,4.49861442129
3090,Overijse,Metsijsdreef,55,50.7880859697,4.51501851071
3090,Overijse,Marnixlaan,7,50.7857227121,4.50389098648
3090,Overijse,Boslaan,55,50.7369630802,4.52215116914
3090,Overijse,Hagaardbosweg,42,50.7630290506,4.52003237782
3090,Overijse,Bruegheldreef,15,50.7867262409,4.5020859128
3090,Overijse,Kasteelstraat,7,50.7860936872,4.50219968748
3090,Overijse,Souffraanstraat,5,50.7802666753,4.54716558461
3090,Overijse,Lijsterbessenlaan,42,50.7879933751,4.48873608398
3090,Overijse,Hoeilaartsesteenweg,360,50.756469302,4.49779068651
3090,Overijse,Marnixlaan,55,50.7883927552,4.50859796267
3090,Overijse,Moskesstraat,11,50.7684291748,4.60125391935
3090,Overijse,Langeweg,36,50.7488056032,4.51019951625
3090,Overijse,Terhulpensesteenweg,118,50.7654992448,4.54108537416
3090,Overijse,Terhulpensesteenweg,272,50.7591791,4.53022209079
3090,Overijse,Sparrenlaan,19,50.7889753414,4.47945368725
3090,Overijse,Witherendreef,16,50.7933056423,4.48491526537
3090,Overijse,Permekedreef,7,50.789595482,4.51222352879
3090,Overijse,Nieuwland,17,50.770905526,4.50077038295
3090,Overijse,Hagaard,59,50.7628658529,4.52232677765
3090,Overijse,P.I. Taymansstraat,113,50.7819609272,4.53502004522
3090,Overijse,Eikenlaan,51,50.7828709303,4.47809752148
3090,Overijse,Heuvelstraat,38,50.7725477961,4.53471503501
3090,Overijse,Kalvarieberg,2,50.7745114665,4.54270170637
3090,Overijse,Kapucijnendreef,20,50.7946554119,4.48548128219
3090,Overijse,Louis Gunsstraat,53,50.7917687201,4.49834396169
3090,Overijse,Groeneweg,49C,50.785045096,4.536097804
3090,Overijse,Ketelheide,24,50.7880261316,4.53524067006
3090,Overijse,Abstraat,38,50.7572104841,4.57383682277
3090,Overijse,Stationsplein,14,50.7711606742,4.53198297498
3090,Overijse,Labbelaan,11,50.7386758528,4.5081761142
3090,Overijse,Zuurbessenlaan,33,50.7872002528,4.48667661259
3090,Overijse,Katleendreef,10,50.7667740327,4.58918098356
3090,Overijse,Paardebeekstraat,7,50.7523415525,4.56311790887
3090,Overijse,Paardebeekstraat,20,50.7524278575,4.56241340246
3090,Overijse,Memlingdreef,37,50.7895558551,4.5044772752
3090,Overijse,Witherendreef,151,50.7928172149,4.50439964413
3090,Overijse,Kasteelstraat,20,50.7869352995,4.50368375111
3090,Overijse,Snijdersdreef,8,50.7878192931,4.51002362821
3090,Overijse,Kastanjedreef,69,50.7896056258,4.51726062964
3090,Overijse,Eeuwfeestplein,5A,50.7714461411,4.53053270265
3090,Overijse,Parklaan,180,50.7306720224,4.52091685147
3090,Overijse,Kerkstraat,10,50.7551453728,4.56796507439
3090,Overijse,Koedalstraat,50,50.7837061855,4.47206913947
3090,Overijse,Tuindelle,39,50.7768978972,4.51591623684
3090,Overijse,Financialaan,14,50.7504634613,4.52844984219
3090,Overijse,Permekedreef,20,50.7906152121,4.51109716264
3090,Overijse,Graven Egm. en Hoornlaan,21,50.7750330782,4.54080339616
3090,Overijse,P.I. Taymansstraat,59,50.7771352604,4.53577366907
3090,Overijse,Horizontlaan,18,50.7500077853,4.52505735695
3090,Overijse,Sint-Annastraat,94,50.7710762052,4.5106651057
3090,Overijse,Terspoutland,29,50.7711767539,4.51570717129
3090,Overijse,Adriaanstraat,36,50.7694964444,4.54945530976
3090,Overijse,Irma Vandermottenlaan,18,50.7918983729,4.48858185941
3090,Overijse,Duisburgstraat,19,50.8027279261,4.54989764109
3090,Overijse,Marnixlaan,73,50.7889470802,4.51205873416
3090,Overijse,Marnixlaan,20,50.7859799719,4.50530033169
3090,Overijse,Lanceloetlaan,2,50.7742505925,4.52464382417
3090,Overijse,Vossestraat,72,50.7762566895,4.50548707038
3090,Overijse,Langeweg,100,50.7466867651,4.50648376478
3090,Overijse,Groeneweg,47,50.7844576135,4.5352228912
3090,Overijse,Abstraat,120,50.7610527273,4.58444452644
3090,Overijse,Nederdellelaan,9,50.7611994135,4.52842404062
3090,Overijse,Viskensdelle,8,50.7632692764,4.537254962
3090,Overijse,Metsijsdreef,20,50.7866377068,4.5099361116
3090,Overijse,Kokerlaan,12,50.7798622974,4.50744610134
3090,Overijse,Belgielaan,2,50.7804586435,4.53610000778
3090,Overijse,Jos. Kumpsstraat,102,50.7595080781,4.50219951121
3090,Overijse,Hoeilaartsesteenweg,277,50.7533862088,4.50215231826
3090,Overijse,Esdoornenlaan,68,50.7887542759,4.49233243044
3090,Overijse,Maria Christinalaan,10,50.7444117987,4.51142558166
3090,Overijse,Duivenstraat,8,50.7730310234,4.50593061514
3090,Overijse,Korteveld,24,50.7782217242,4.53908982965
3090,Overijse,Boslaan,20,50.7323826487,4.52231934436
3090,Overijse,Molendreef,11,50.7702059434,4.53071016353
3090,Overijse,Vuurgatstraat,8,50.7908441458,4.48249614343
3090,Overijse,Burgemeester Taymanslaan,31A,50.7815857632,4.50090272721
3090,Overijse,Kouterstraat,148,50.7805318631,4.55129705812
3090,Overijse,Duisburgsesteenweg,144,50.7978822536,4.54883946617
3090,Overijse,Kloosterstraat,33,50.7741396132,4.52107455757
3090,Overijse,Nestor Rowiesstraat,3,50.7724295871,4.53690736892
3090,Overijse,Moerlaanstraat,29,50.7523116617,4.56454210531
3090,Overijse,Italielaan,10,50.7820159092,4.53866247903
3090,Overijse,Speelberg,49,50.7633085124,4.53178881272
3090,Overijse,Ogentroostlaan,11,50.7720076978,4.49473345065
3090,Overijse,Metsijsdreef,73,50.788367632,4.51819596371
3090,Overijse,Druivenlaan,13,50.7472938072,4.51011546459
3090,Overijse,Solheide,26,50.7753169146,4.53356097789
3090,Overijse,Champelsstraat,41,50.748164401,4.56988364091
3090,Overijse,Groeneweg,49A,50.7848506604,4.53565070105
3090,Overijse,Keizerlaan,33,50.782611204,4.48712051158
3090,Overijse,Kasteelstraat,91,50.7910570287,4.5077660262
3090,Overijse,Hagaard,77,50.7622173735,4.52560463408
3090,Overijse,Lindaalhof,26,50.7970872529,4.55238790409
3090,Overijse,Lindaal,49,50.7954547199,4.55534197695
3090,Overijse,Nederlandlaan,27,50.7826832536,4.53589723325
3090,Overijse,Adriaanstraat,18,50.7710375466,4.54794392965
3090,Overijse,Hoeilaartsesteenweg,50,50.7498146124,4.51727871223
3090,Overijse,Schapenweg,29,50.7911110608,4.54393620205
3090,Overijse,Adriaanstraat,48,50.7688933909,4.55045380617
3090,Overijse,Bredestraat,57,50.7587415463,4.52449135199
3090,Overijse,Daleborreweg,5,50.7685143999,4.59843717944
3090,Overijse,Meerlaan,187,50.7299023347,4.52261292267
3090,Overijse,Duisburgsesteenweg,162,50.7986160554,4.54949464724
3090,Overijse,Kouterstraat,166,50.7810677613,4.55322629093
3090,Overijse,Fr. Verbeekstraat,100,50.7701184227,4.51410817203
3090,Overijse,Ringelberglaan,9,50.733168331,4.52322282012
3090,Overijse,Brusselsesteenweg,649,50.7931722633,4.48233586078
3090,Overijse,Gebr. Danhieuxstraat,11,50.772002211,4.53528216243
3090,Overijse,Bredestraat,22,50.7585158682,4.52764801438
3090,Overijse,Biesmuiterlaan,3,50.7805294984,4.53388118283
3090,Overijse,Tuindelle,50,50.77632573,4.51316345603
3090,Overijse,Financialaan,32,50.7511960265,4.52614465781
3090,Overijse,Marnixlaan,91,50.7891218967,4.5139738378
3090,Overijse,Poelweg,11,50.749206256,4.52371278874
3090,Overijse,Woudmeesterstraat,10,50.776670699,4.52145992505
3090,Overijse,Borrestraat,22,50.7559694691,4.54321542626
3090,Overijse,Vronenberglaan,5,50.7792948887,4.53480627018
3090,Overijse,Horizontlaan,36,50.7507767271,4.52662249537
3090,Overijse,Burgemeester Taymanslaan,19,50.7820270315,4.50290021167
3090,Overijse,Fr. Verbeekstraat,46,50.7703020065,4.52433412466
3090,Overijse,Abstraat,84,50.7592055379,4.57896270516
3090,Overijse,Jagersstraat,4,50.7814938888,4.5554208593
3090,Overijse,Nieuwland,63,50.7743102918,4.4986061399
3090,Overijse,Vanderweydendreef,4,50.7862628262,4.51038991228
3090,Overijse,Robijnlaan,21,50.7842495144,4.49961130898
3090,Overijse,Duisburgsesteenweg,7,50.7868577477,4.53611703829
3090,Overijse,Nijvelsebaan,71,50.7620221773,4.54607440692
3090,Overijse,Steenbakkersweg,52,50.7580309937,4.50650718419
3090,Overijse,Keizerlaan,15,50.7851354928,4.48992916059
3090,Overijse,Witherendreef,87,50.7931121438,4.49118715671
3090,Overijse,J. Bt. Dekeyserstraat,40,50.7710596664,4.5379488284
3090,Overijse,Sint-Annastraat,41,50.7754260324,4.51724830385
3090,Overijse,Belgielaan,31,50.781984786,4.53972131754
3090,Overijse,Kanunniksteen,7,50.7444307202,4.50079612074
3090,Overijse,Fr. Verbeekstraat,171,50.7697067362,4.5001450971
3090,Overijse,Kerkeweg,23,50.7603580036,4.52628823046
3090,Overijse,Fazantenlaan,7,50.7425431724,4.49393095793
3090,Overijse,Hof Terholst,47,50.7388513721,4.51688245481
3090,Overijse,Dwarsstraat,10,50.7617897144,4.53413779546
3090,Overijse,Ranklaan,2,50.7481520366,4.51065196516
3090,Overijse,Speelberg,90,50.7610100034,4.52998886227
3090,Overijse,Langeweg,82,50.7471588453,4.50729408041
3090,Overijse,Langeweg,48,50.7483239215,4.50939152315
3090,Overijse,Hagaard,131,50.7635482334,4.53013423005
3090,Overijse,Vlierbeekberg,32,50.7706530851,4.48820723519
3090,Overijse,Fr. Verbeekstraat,64,50.7702059339,4.52214271725
3090,Overijse,Kouterstraat,42,50.7761635181,4.54221004143
3090,Overijse,Nieuwland,81,50.7756973979,4.49763865521
3090,Overijse,Prinsendal,2,50.7846967956,4.47964662928
3090,Overijse,Kerselarenstraat,15,50.7750001685,4.52068349671
3090,Overijse,Reebokweg,16A,50.7910561777,4.49409104816
3090,Overijse,Kastanjedreef,34,50.7914018846,4.51073917159
3090,Overijse,Alf. Moerenhoutstraat,83,50.7647869921,4.5301530933
3090,Overijse,Terspoutland,40,50.7706901911,4.51552461245
3090,Overijse,Zilverbeekdreef,55,50.7320773079,4.52915825722
3090,Overijse,Waversesteenweg,356,50.7477584747,4.57032215021
3090,Overijse,Lijsterbessenlaan,32,50.7882453608,4.48741471023
3090,Overijse,Tenrodestraat,20,50.7606458388,4.52259900575
3090,Overijse,Schapenweg,93,50.7950732565,4.55161323949
3090,Overijse,Bollestraat,24,50.7718738743,4.60429801851
3090,Overijse,Brusselsesteenweg,21,50.7731146653,4.5354237738
3090,Overijse,Terhulpensesteenweg,182,50.7626780722,4.53728217825
3090,Overijse,Marnixlaan,108,50.7887321608,4.518057435
3090,Overijse,Smetslaan,53,50.7443488689,4.50373528907
3090,Overijse,Drogenberg,15,50.7722490957,4.52660237184
3090,Overijse,Fr. Courtensdreef,8,50.7856113758,4.51580959696
3090,Overijse,Teniersdreef,19,50.7921020999,4.50736917095
3090,Overijse,Vanderweydendreef,70,50.7888204272,4.51988122531
3090,Overijse,Brusselsesteenweg,560,50.7916361718,4.4879421137
3090,Overijse,Kleine Parklaan,12,50.7342812746,4.51086213891
3090,Overijse,Vriendschapsstraat,26,50.7785331667,4.51372904626
3090,Overijse,Langeweg,171,50.744733204,4.50293813553
3090,Overijse,Prinsendal,31,50.7842775232,4.48380917823
3090,Overijse,Ballingstraat,126,50.7962162977,4.54848456208
3090,Overijse,Duisburgsesteenweg,180,50.7995080696,4.55038210425
3090,Overijse,Frankrijklaan,18,50.7831383679,4.53884337408
3090,Overijse,Vossekoten,14,50.7743588858,4.60626075642
3090,Overijse,Rozierensesteenweg,101,50.7450411003,4.52466901861
3090,Overijse,Breerijke,75,50.756026594,4.51191415564
3090,Overijse,Brusselsesteenweg,317,50.7809285861,4.51240060563
3090,Overijse,Terhulpensesteenweg,641,50.7406574776,4.50884376644
3090,Overijse,Mouflonlaan,46,50.7904660006,4.51650289688
3090,Overijse,Abstraat,227,50.7689315903,4.60207563581
3090,Overijse,Tulpenlaan,19,50.7962406686,4.48960246434
3090,Overijse,Esdoornenlaan,3,50.7868093435,4.48154342058
3090,Overijse,Jos. Kumpsstraat,38,50.7577937949,4.49775932846
3090,Overijse,Houwenberglaan,7,50.780679958,4.50657166539
3090,Overijse,Gemslaan,34,50.7927961865,4.51322260407
3090,Overijse,Clem. Vanophemstraat,144,50.785657725,4.53453639877
3090,Overijse,Duisburgsesteenweg,91,50.7953201471,4.54528535795
3090,Overijse,Zuurbessenlaan,15,50.7869410925,4.48433363009
3090,Overijse,Korenarenstraat,4,50.7759136474,4.53615141508
3090,Overijse,Tuindelle,47,50.7764962001,4.51544666974
3090,Overijse,Regenmeuterlaan,31,50.759641802,4.52773686827
3090,Overijse,Kroendaalplein,9,50.77450832,4.54414256435
3090,Overijse,Schransdreef,94,50.7914820425,4.50419197101
3090,Overijse,Acacialaan,4,50.7885412181,4.49148478847
3090,Overijse,Fel. Bergiersstraat,88,50.7490702034,4.50162410583
3090,Overijse,Bergstraat,75,50.7518416595,4.55044403899
3090,Overijse,Fr. Verbeekstraat,184A,50.7700717463,4.49859708232
3090,Overijse,Clem. Vanophemstraat,98,50.7828857255,4.530459879
3090,Overijse,Treurwilgenlaan,7,50.7893051793,4.48380424011
3090,Overijse,Tarwelaan,21,50.7742275181,4.49515439828
3090,Overijse,Kouterstraat,60,50.7767485874,4.54364208475
3090,Overijse,Kalvarieberg,31,50.7766316349,4.54536997623
3090,Overijse,Trilpopulierenlaan,27,50.7873099817,4.48608821769
3090,Overijse,Terspautlosweg,22,50.7713094064,4.51372583662
3090,Overijse,Fazantenlaan,20,50.7421486519,4.49364215503
3090,Overijse,Alf. Dekeyserstraat,36,50.779404863,4.52232085433
3090,Overijse,Ranklaan,13,50.7478518327,4.51200311649
3090,Overijse,Vuurgatstraat,132,50.7810774393,4.47834218054
3090,Overijse,Katleendreef,6,50.7665330577,4.58958781496
3090,Overijse,Duisburgsesteenweg,20,50.7876399409,4.5381713347
3090,Overijse,Liefkensstraat,17,50.776902747,4.50891868895
3090,Overijse,Heuvelstraat,9,50.7727889109,4.53621667417
3090,Overijse,Suzydreef,2,50.7672224316,4.5907039712
3090,Overijse,Waversesteenweg,42,50.7727300441,4.5394302625
3090,Overijse,Terhulpensesteenweg,101,50.7663036318,4.54248826562
3090,Overijse,Fr. Verbeekstraat,225,50.7688603162,4.49187137885
3090,Overijse,Sportlaan,16,50.7353932999,4.51959137134
3090,Overijse,Kersenbomenlaan,4,50.7911493847,4.48364567554
3090,Overijse,Vuurgatstraat,114,50.7828060526,4.47854546026
3090,Overijse,Mouflonlaan,48,50.7903501592,4.51675852317
3090,Overijse,Brusselsesteenweg,538A,50.7907091382,4.49005137912
3090,Overijse,Brusselsesteenweg,120,50.7767869106,4.53311527596
3090,Overijse,Kanunniksteen,48,50.7423969788,4.49757427306
3090,Overijse,Spaltlaan,16,50.7702233409,4.51892333607
3090,Overijse,Fr. Verbeekstraat,48,50.7702425082,4.52425652455
3090,Overijse,Monicadreef,8,50.7672316477,4.58811146962
3090,Overijse,Bollestraat,113,50.7692848386,4.59217470697
3090,Overijse,Gemslaan,16,50.7935741582,4.50917041451
3090,Overijse,Ensordreef,5,50.789554644,4.51369720977
3090,Overijse,Zonnelaan,14,50.7478085662,4.50574826059
3090,Overijse,Fr. Verbeekstraat,82,50.7701896975,4.51970575955
3090,Overijse,Terhulpensesteenweg,415,50.7497373922,4.52199754814
3090,Overijse,Mommaertsstraat,31,50.7675958925,4.5654277766
3090,Overijse,Nieuwland,45,50.7734446129,4.49898255618
3090,Overijse,Krabbenberg,14,50.7795384024,4.50330271793
3090,Overijse,Stevenshof,12,50.7532113805,4.5618319316
3090,Overijse,Brusselsesteenweg,542,50.7907670958,4.48964378307
3090,Overijse,Bergstraat,30,50.7542127201,4.56304105371
3090,Overijse,Duizendbladlaan,11,50.7709438267,4.49258171334
3090,Overijse,Rameistraat,107,50.7504335343,4.53303554904
3090,Overijse,Italielaan,6,50.7817159273,4.53804131053
3090,Overijse,Memlingdreef,65,50.7913140517,4.50647134592
3090,Overijse,Brabandtlaan,40A,50.7831922322,4.48858991503
3090,Overijse,Eekhout,35,50.7691865976,4.54733522919
3090,Overijse,Bergstraat,93,50.7510239781,4.54282491919
3090,Overijse,Krommeweg,4,50.7711043544,4.48935427768
3090,Overijse,Langeweg,207,50.7439816023,4.50157680933
3090,Overijse,Gemslaan,69,50.7912866153,4.51858650458
3090,Overijse,Oaselaan,8,50.7467817972,4.51088940342
3090,Overijse,H. Consciencelaan,34,50.7813959808,4.52743021615
3090,Overijse,Adriaanstraat,46,50.7689602808,4.55021874476
3090,Overijse,Gemslaan,44,50.7922991065,4.5160579444
3090,Overijse,Katleendreef,17,50.7664796899,4.58890502765
3090,Overijse,Roekeloosborre,9,50.7451444863,4.49914010486
3090,Overijse,Terhulpensesteenweg,380,50.7520694694,4.52386650896
3090,Overijse,Drogenberg,61,50.7758475727,4.52359500139
3090,Overijse,Brusselsesteenweg,235,50.7783711001,4.52090994195
3090,Overijse,Dobralaan,28,50.7369708409,4.51086108169
3090,Overijse,Maria Christinalaan,35,50.7444616238,4.50903960845
3090,Overijse,Clem. Vanophemstraat,55,50.7823875668,4.5251504566
3090,Overijse,Hoeilaartsesteenweg,252,50.7535738659,4.50498994364
3090,Overijse,Nieuwland,10,50.7713635029,4.50081335306
3090,Overijse,Vlierbeekberg,113,50.7753623601,4.49350304957
3090,Overijse,Broensdelle,6,50.7786240166,4.55748862397
3090,Overijse,Hengstenberg,153,50.7838436299,4.49767667773
3090,Overijse,Luxemburglaan,26,50.7806148054,4.53968810488
3090,Overijse,Abstraat,21,50.757569493,4.57232093987
3090,Overijse,Korenarenstraat,145,50.7811438189,4.51605846491
3090,Overijse,Borrestraat,39,50.7569587504,4.54657496874
3090,Overijse,Heuvelstraat,21,50.7725736747,4.53554235546
3090,Overijse,Terhulpensesteenweg,568,50.7442011268,4.51291943063
3090,Overijse,Rozierensesteenweg,29,50.748426543,4.52128364397
3090,Overijse,Vriendschapsstraat,54,50.7774963328,4.5116605995
3090,Overijse,Kardinaalstraat,15,50.7699930214,4.60017250123
3090,Overijse,Drogenberg,3,50.7715869508,4.52736979617
3090,Overijse,Zonnelaan,2B,50.7473650908,4.50682270665
3090,Overijse,Lanestraat,110,50.7534226718,4.5679607393
3090,Overijse,Hoogveldlaan,11,50.7785704896,4.50758817663
3090,Overijse,Halsdreef,26,50.788668737,4.5082236767
3090,Overijse,Hengstenberg,36,50.7741115871,4.50547045966
3090,Overijse,Adriaanstraat,64,50.768049842,4.55013484682
3090,Overijse,Zuurbessenlaan,43,50.7875664679,4.48793642843
3090,Overijse,Kaalheide,30,50.7934726512,4.55603233439
3090,Overijse,Kleinveldweg,33,50.7778464546,4.53874718734
3090,Overijse,Bollestraat,70,50.7716824255,4.59713282183
3090,Overijse,Rembrandtdreef,2,50.7890110991,4.50622631685
3090,Overijse,Hoeilaartsesteenweg,412,50.7570038808,4.4947085468
3090,Overijse,Duisburgsesteenweg,98,50.7957504674,4.54677459666
3090,Overijse,Leeuwerikendreef,6,50.7952528829,4.50047111168
3090,Overijse,Kasteelstraat,27,50.7872081482,4.50336219381
3090,Overijse,Brusselsesteenweg,122B,50.7762496238,4.53149311666
3090,Overijse,Vriendschapsstraat,5,50.7791562069,4.5160517911
3090,Overijse,Brusselsesteenweg,84,50.7749737933,4.53374053792
3090,Overijse,Nekkedelle,22,50.8022696171,4.55437182736
3090,Overijse,Lindaal,60,50.7956192997,4.55703449556
3090,Overijse,Rigauxplein,9,50.7871035614,4.51416966578
3090,Overijse,Bisdom,6,50.7726947562,4.55133531721
3090,Overijse,Walravensbosstraat,200,50.7842914546,4.55571844157
3090,Overijse,Steenbakkersweg,24,50.7588583858,4.50360800358
3090,Overijse,Fel. Bergiersstraat,81,50.7492520211,4.5024488893
3090,Overijse,Viskensdelle,1,50.7635705044,4.53708070807
3090,Overijse,Eeuwfeestplein,1,50.7711761621,4.53138562726
3090,Overijse,Schransdreef,9,50.787418716,4.49906552892
3090,Overijse,J. Bt. Dekeyserstraat,30,50.7708151294,4.53733963305
3090,Overijse,Kardaan,1,50.7730798698,4.53922128833
3090,Overijse,Bergstraat,12,50.7542134614,4.56496115367
3090,Overijse,Terhulpensesteenweg,443,50.7487037916,4.52017759894
3090,Overijse,Schuttershof,2,50.7845931729,4.48204475124
3090,Overijse,Vuurgatstraat,1,50.7914896645,4.48307608323
3090,Overijse,Speelberg,60,50.7624482703,4.53024922241
3090,Overijse,Schavei,29,50.7740077945,4.53083090399
3090,Overijse,Langeweg,135,50.7452090881,4.50574661438
3090,Overijse,Duivenstraat,1,50.7730403676,4.50547598147
3090,Overijse,Zuurbessenlaan,3,50.7877795104,4.4826493699
3090,Overijse,Alf. Moerenhoutstraat,105,50.7641940985,4.5306220709
3090,Overijse,Scheperslaan,2,50.7643986859,4.54334571609
3090,Overijse,Hoeilaartsesteenweg,116,50.7502817762,4.51301351519
3090,Overijse,Kouterstraat,138,50.7802191554,4.55011597933
3090,Overijse,Vanderweydendreef,24,50.7860554519,4.51337751963
3090,Overijse,Kerkeweg,122,50.7555042853,4.52506887508
3090,Overijse,Smetslaan,96,50.7461803571,4.50059432374
3090,Overijse,Grasmussenplein,2,50.743753217,4.49457771614
3090,Overijse,Tuindelle,57,50.7757616814,4.51290112662
3090,Overijse,Lanestraat,84,50.7549471551,4.56738135007
3090,Overijse,Terspoutland,12,50.7713017903,4.51607147732
3090,Overijse,Smetslaan,78,50.7456087875,4.5020159806
3090,Overijse,P.I. Taymansstraat,138,50.7855524424,4.53693217727
3090,Overijse,Heesterweg,23,50.7975442032,4.5569558415
3090,Overijse,Reutenbeek,56,50.752421069,4.54003842488
3090,Overijse,Woudmeesterstraat,17,50.7759689387,4.52099741965
3090,Overijse,Memlingdreef,7,50.7879134994,4.5030316623
3090,Overijse,Grotstraat,12,50.7720608235,4.54453220669
3090,Overijse,Sint-Annastraat,31,50.7760507443,4.51821921172
3090,Overijse,Metsijsdreef,27,50.7871344587,4.51091201229
3090,Overijse,Meerlaan,152,50.730422653,4.51679578117
3090,Overijse,Waversesteenweg,14,50.7722287971,4.53843123408
3090,Overijse,Fel. Bergiersstraat,147,50.746090632,4.49852057515
3090,Overijse,Zwanenlaan,35,50.7852704931,4.5602271753
3090,Overijse,Grachtweidelaan,13,50.7745599903,4.48979233589
3090,Overijse,Graven Egm. en Hoornlaan,38,50.7747788704,4.5412151758
3090,Overijse,Tuindelle,22,50.7777462526,4.51669914762
3090,Overijse,Boslaan,27,50.7329656847,4.52173665946
3090,Overijse,Notelarenstraat,53,50.7992180015,4.56276836123
3090,Overijse,Welriekendedreef,121,50.787629505,4.46433597111
3090,Overijse,Marnixlaan,27,50.7867508302,4.50553557757
3090,Overijse,Hoeilaartsesteenweg,57,50.7496156632,4.51664737094
3090,Overijse,Dahlialaan,20,50.7947985998,4.49153141023
3090,Overijse,Waversesteenweg,303,50.7520097929,4.57287585208
3090,Overijse,Poelweg,56,50.7467673107,4.52399959249
3090,Overijse,Kapelleweg,7,50.7710417149,4.60245372209
3090,Overijse,Brusselsesteenweg,4,50.7731195263,4.53636005206
3090,Overijse,Permekedreef,27,50.7902010977,4.51084374257
3090,Overijse,Langeweg,117,50.7459276098,4.50615380559
3090,Overijse,Kersenbomenlaan,24,50.7900325827,4.48564972217
3090,Overijse,Witherendreef,62,50.7930068568,4.48904749431
3090,Overijse,Hengstenberg,48,50.77502629,4.50500923351
3090,Overijse,Daloensdelle,7,50.7641932786,4.538097837
3090,Overijse,P.I. Taymansstraat,70,50.7778189157,4.53634565869
3090,Overijse,Vossestraat,26,50.7721649636,4.50796997543
3090,Overijse,Snijdersdreef,1,50.7869679473,4.51011749366
3090,Overijse,Narcissenlaan,9,50.7972234201,4.491746567
3090,Overijse,H. Consciencelaan,44,50.781221109,4.52638614617
3090,Overijse,Terhulpensesteenweg,29,50.7709886011,4.54135462753
3090,Overijse,Veldlaan,7,50.7602069333,4.56361933738
3090,Overijse,Rozenlaan,12,50.7943536432,4.4940354852
3090,Overijse,Terspoutland,30,50.7712189531,4.51582000758
3090,Overijse,Belgielaan,9,50.7809304758,4.53706263895
3090,Overijse,Italielaan,6A,50.7818103524,4.5382659759
3090,Overijse,Nederdellelaan,2,50.7608760599,4.52894296499
3090,Overijse,Korenarenstraat,110,50.780465028,4.52346874661
3090,Overijse,Witherendreef,133,50.7945767217,4.50193849159
3090,Overijse,Teniersdreef,37,50.7905491731,4.50988535778
3090,Overijse,Sint-Annastraat,50A,50.7751987943,4.51545650254
3090,Overijse,Abstraat,209,50.7680040654,4.60043217668
3090,Overijse,Tulpenlaan,37,50.7951001559,4.4931853216
3090,Overijse,Lanceloetlaan,9,50.7738273102,4.52488045483
3090,Overijse,Tervarenthof,29,50.7854032432,4.50881961805
3090,Overijse,Dreef,190,50.7820848084,4.562410636
3090,Overijse,Brusselsesteenweg,595,50.7921331824,4.48539428891
3090,Overijse,P.I. Taymansstraat,52,50.7769480434,4.53681071435
3090,Overijse,Losweg,1,50.7769362316,4.52989320737
3090,Overijse,Graven Egm. en Hoornlaan,4,50.7745122528,4.53807442372
3090,Overijse,Duisburgsesteenweg,126,50.796956246,4.54789378326
3090,Overijse,Lijsterbessenlaan,14,50.7895314814,4.48476832882
3090,Overijse,Schavei,40,50.7749609947,4.52990725923
3090,Overijse,Lanestraat,38,50.7577025123,4.56241149994
3090,Overijse,Champelsstraat,9,50.7511562357,4.57116104243
3090,Overijse,Clem. Vanophemstraat,20,50.7803574866,4.5219899103
3090,Overijse,Speelberg,42,50.7643951566,4.5321986916
3090,Overijse,Wijnlaan,16,50.7463089983,4.50972837074
3090,Overijse,Hengstenberg,89,50.7784243726,4.50215387347
3090,Overijse,Burgemeester Taymanslaan,37,50.7818317733,4.49950174916
3090,Overijse,J. Bt. Dekeyserstraat,12,50.7706388465,4.53514519623
3090,Overijse,Reutenbeek,74,50.7507845679,4.54113958832
3090,Overijse,Terhulpensesteenweg,75,50.7689711166,4.54215026937
3090,Overijse,Moerlaanstraat,30,50.7514646953,4.56192464976
3090,Overijse,Waversesteenweg,32,50.7726077251,4.53910161912
3090,Overijse,Vlierbeekberg,131,50.7760511521,4.4954172198
3090,Overijse,Nieuwland,88,50.7766716327,4.49639450258
3090,Overijse,Hengstenberg,100,50.7791097078,4.50210917672
3090,Overijse,Terhulpensesteenweg,40,50.7702085777,4.54037018938
3090,Overijse,Katjeslaan,6,50.778650739,4.50378749443
3090,Overijse,Eendenlaan,25,50.7431829992,4.49589835727
3090,Overijse,Vleugstraat,14,50.7822558372,4.53410081365
3090,Overijse,Duisburgstraat,1,50.8016839675,4.55116181673
3090,Overijse,Waversesteenweg,131,50.7710069321,4.54425153062
3090,Overijse,Belgielaan,2A,50.7804134579,4.53582646811
3090,Overijse,Sijzenplein,4,50.7445758686,4.49491161162
3090,Overijse,Kouterstraat,184,50.7817346104,4.55599595683
3090,Overijse,Monicadreef,1,50.7678807582,4.5897997018
3090,Overijse,Kordialestraat,6,50.7764912256,4.5104574922
3090,Overijse,Topaaslaan,19,50.7837945848,4.5018004812
3090,Overijse,Brusselsesteenweg,470,50.7882610709,4.49537580283
3090,Overijse,Marnixlaan,98,50.7887138541,4.51619543898
3090,Overijse,Reebokweg,36,50.7921914809,4.49467530392
3090,Overijse,Scherendelle,4,50.7741353227,4.50932127286
3090,Overijse,Bremlaan,33,50.7464224747,4.50175942418
3090,Overijse,Vorststraat,24,50.7519739379,4.56697751251
3090,Overijse,Groeneweg,116,50.7872239941,4.54454764633
3090,Overijse,Leuvensestraat,35,50.7718992007,4.60745291981
3090,Overijse,Brusselsesteenweg,288,50.7808327555,4.51777192977
3090,Overijse,Fel. Bergiersstraat,10,50.7519250936,4.50587706035
3090,Overijse,Oude Abstraat,21,50.7654687842,4.59534519084
3090,Overijse,Terhulpensesteenweg,515,50.746319637,4.51666276315
3090,Overijse,Brusselsesteenweg,604,50.7924831427,4.48531148171
3090,Overijse,Terhulpensesteenweg,631,50.7411546754,4.50961114988
3090,Overijse,Oaselaan,1,50.7468691201,4.51012424419
3090,Overijse,Mommaertsstraat,107,50.7606059716,4.57860769564
3090,Overijse,Dreef,172,50.7809321705,4.56043747296
3090,Overijse,Duisburgsesteenweg,179,50.8000490485,4.54998913969
3090,Overijse,Esdoornenlaan,43,50.7865114291,4.48688887102
3090,Overijse,Nieuwelaan,1,50.7343215392,4.53083405931
3090,Overijse,Hellekouterweg,8B,50.7825328017,4.55588627049
3090,Overijse,Abstraat,220,50.7683386902,4.60231367743
3090,Overijse,Zavelbergstraat,8,50.7520983324,4.56518499796
3090,Overijse,Mollenberg,13,50.7740483912,4.53645169791
3090,Overijse,Reebokweg,18,50.7912222141,4.49384258783
3090,Overijse,Stationsstraat,32A,50.7715518148,4.53522725844
3090,Overijse,Schavei,75,50.7763225551,4.52577093009
3090,Overijse,Snijdersdreef,11,50.7873665945,4.50911308939
3090,Overijse,Scherendelle,38,50.7754934739,4.50805926272
3090,Overijse,Jean Tombeurstraat,5,50.7689973687,4.53167590652
3090,Overijse,Ratelbergstraat,2,50.769949704,4.49040331982
3090,Overijse,Varenslaan,34,50.7360002673,4.52317661441
3090,Overijse,Hoeilaartsesteenweg,169,50.7512770682,4.50990216418
3090,Overijse,Brusselsesteenweg,300,50.7810295145,4.51444943516
3090,Overijse,Vossestraat,79,50.7769996462,4.50413690934
3090,Overijse,Prinsendal,9,50.7848481491,4.48062020901
3090,Overijse,Tervarenthof,17B,50.7856761553,4.50935434698
3090,Overijse,Robijnlaan,4,50.7854423314,4.49850654878
3090,Overijse,Struiwislaan,15,50.7633675183,4.54180794098
3090,Overijse,Brusselsesteenweg,577,50.7918384881,4.48603419134
3090,Overijse,Homeweg,8,50.7687048995,4.59283707902
3090,Overijse,Poenaardlaan,18,50.7801571743,4.50453256359
3090,Overijse,Graven Egm. en Hoornlaan,18A,50.7738052517,4.539158284
3090,Overijse,Esdoornenlaan,23,50.7862682577,4.48438202743
3090,Overijse,Terhulpensesteenweg,226,50.7605489988,4.53378673905
3090,Overijse,Ranklaan,9,50.7480845556,4.51172836985
3090,Overijse,Eekhout,10,50.7685807343,4.54981397443
3090,Overijse,Nederdellelaan,21,50.7619107479,4.52830981239
3090,Overijse,Treurwilgenlaan,27,50.7889330431,4.4851252222
3090,Overijse,Langeweg,89,50.7466564029,4.50729783808
3090,Overijse,Zesbundersplein,7,50.7750356327,4.49709921392
3090,Overijse,Riddersdal,18,50.7848544935,4.48315729233
3090,Overijse,Fr. Verbeekstraat,188,50.7700489964,4.49722433382
3090,Overijse,Stobbaertsdreef,11,50.7865361432,4.50775062275
3090,Overijse,Hellekouterweg,2,50.7824597447,4.55665127372
3090,Overijse,Memlingdreef,19,50.7885346117,4.50332941776
3090,Overijse,Kanunniksteen,36,50.7433261293,4.49817047481
3090,Overijse,Kastanjedreef,44,50.7908493545,4.51237444205
3090,Overijse,Jan Fijtlaan,6,50.785883457,4.51061580322
3090,Overijse,Brusselsesteenweg,524,50.7901438786,4.49107316637
3090,Overijse,Louis Gunsstraat,78,50.7928429956,4.50002040038
3090,Overijse,Fr. Verbeekstraat,36,50.7707497043,4.5252668623
3090,Overijse,Horenberg,74,50.8007392206,4.55861915156
3090,Overijse,Terhulpensesteenweg,461,50.7484496542,4.51920374165
3090,Overijse,Fr. Verbeekstraat,89,50.7698835751,4.51846875089
3090,Overijse,Sint-Annastraat,66,50.7741269347,4.51273107187
3090,Overijse,Dennenboslaan,15,50.7354799581,4.52404071843
3090,Overijse,Duisburgsesteenweg,27,50.7888546951,4.53818565237
3090,Overijse,Raymond Hyelaan,3,50.7834732174,4.49714106111
3090,Overijse,Trilpopulierenlaan,20,50.7871714231,4.48504057429
3090,Overijse,Speelberghof,5,50.7600181759,4.52919954638
3090,Overijse,Suzydreef,9,50.7674698767,4.58930360885
3090,Overijse,Kleinveldweg,15,50.7772592599,4.53725164468
3090,Overijse,Hoeilaartsesteenweg,39,50.749508551,4.51781053726
3090,Overijse,Nijvelsebaan,45,50.7604507814,4.54218198759
3090,Overijse,Kouterstraat,67,50.7771902732,4.54374751796
3090,Overijse,Fazantenlaan,27,50.7413360529,4.49507077516
3090,Overijse,Valkenweg,115C,50.7859728219,4.52827728884
3090,Overijse,Begonialaan,5,50.7933861434,4.49229884899
3090,Overijse,Brusselsesteenweg,371,50.7837169146,4.50437328669
3090,Overijse,Bergstraat,29,50.7536671513,4.56313700273
3090,Overijse,Kruisstraat,14,50.7631382998,4.52431658966
3090,Overijse,Clem. Vanophemstraat,126,50.7842226816,4.53366290835
3090,Overijse,Vronenberglaan,34,50.779212999,4.53219250425
3090,Overijse,Olmengaarde,18,50.729813352,4.52716102193
3090,Overijse,Losweg,11,50.7773801778,4.53058210519
3090,Overijse,Brusselsesteenweg,559,50.7916286302,4.48642964734
3090,Overijse,Kanunniksteen,18,50.744727795,4.49891309769
3090,Overijse,Sint-Annastraat,13,50.7772069211,4.5201606618
3090,Overijse,Fr. Courtensdreef,1,50.7866408227,4.51563598819
3090,Overijse,Kouterstraat,14,50.7757404333,4.53881129274
3090,Overijse,Stationsstraat,26,50.7718276959,4.53580225618
3090,Overijse,Hannekensboslaan,5,50.7651088222,4.54541022172
3090,Overijse,Bekestraat,46,50.8024942595,4.54516030441
3090,Overijse,Vuurgatstraat,53,50.7870405245,4.48129906596
3090,Overijse,Druivenlaan,9,50.7474749014,4.51045211007
3090,Overijse,Rameistraat,13,50.7489592093,4.52466234793
3090,Overijse,Hengstenberg,171,50.7857136224,4.49771245784
3090,Overijse,Kasteelstraat,65,50.7894337434,4.50588704572
3090,Overijse,Veldlaan,19,50.7602021651,4.56474836304
3090,Overijse,Liefkensstraat,10,50.7776274829,4.50974945043
3090,Overijse,Kroendaalplein,2,50.775149559,4.54455852883
3090,Overijse,Mouflonlaan,18,50.791721549,4.51301562494
3090,Overijse,Biesmuiterlaan,23,50.7808986383,4.53143396331
3090,Overijse,Kerkeweg,104,50.7564361347,4.52421598328
3090,Overijse,Terhulpensesteenweg,613,50.7420143697,4.51226013797
3090,Overijse,Vronenberglaan,16,50.7795013715,4.53405423304
3090,Overijse,Schemeringlaan,3,50.7751174208,4.5172444904
3090,Overijse,Duizendbladlaan,28,50.7729454568,4.49360818429
