PKANCODE,COMMUNE_NL,STREET_NL,HUISNR,LAT,LON
3300,Tienen,Lindebaan,41,50.8280449757,4.99035910591
3300,Tienen,Leuvensestraat,25,50.8087891889,4.93513491118
3300,Tienen,Goossensvest,27,50.8054142756,4.93324236767
3300,Tienen,Pastorijstraat,218,50.803258887,4.9598411402
3300,Tienen,Oude Leuvensestraat,70,50.8109283855,4.92942765345
3300,Tienen,Kummenbaan,63,50.8291340703,4.9949709853
3300,Tienen,Kapelstraat,12,50.8067239413,4.94217009595
3300,Tienen,Aarschotsesteenweg,372,50.822273969,4.92444076422
3300,Tienen,Groot Overlaar,22,50.7993949319,4.92501782491
3300,Tienen,Diestsesteenweg,79,50.8154270727,4.93585037509
3300,Tienen,Leuvenselaan,260,50.8127628977,4.9197829558
3300,Tienen,Werkmanssteeg,15,50.8165081077,4.93660956771
3300,Tienen,Ketelmakersstraat,18,50.8101631167,4.92975749009
3300,Tienen,Herestraat,200,50.8349781,4.97863629256
3300,Tienen,Koffiestraat,81,50.834017156,4.87973950195
3300,Tienen,Houbaertstraat,118,50.7881649545,4.98338432683
3300,Tienen,Oplintersesteenweg,556,50.8268655974,4.97961324397
3300,Tienen,Vissenakenstraat,303,50.8277392271,4.9318944017
3300,Tienen,Vierde Lansierslaan,70,50.8080840017,4.92677374251
3300,Tienen,Sliksteenvest,65,50.8094319239,4.94776560744
3300,Tienen,Oude Heerweg,121,50.7973118535,4.97669261994
3300,Tienen,Dalweg,77,50.8311253627,4.98482842666
3300,Tienen,Kabbeekvest,8,50.8134619882,4.93586738092
3300,Tienen,Donystraat,105,50.8069003203,4.94663046487
3300,Tienen,Vinkenhof,1,50.8155630868,4.93801789023
3300,Tienen,Hamelendreef,60,50.8167537966,4.95555020091
3300,Tienen,Vondelstraat,53,50.8176127592,4.89608365998
3300,Tienen,Sint-Laurentiusstraat,43,50.7686832313,4.95513939918
3300,Tienen,Grimdeveld,22,50.8021456964,4.95771337529
3300,Tienen,Potterijstraat,141,50.7980537705,4.93666916526
3300,Tienen,Oplintersesteenweg,41,50.8138152814,4.94375608171
3300,Tienen,Aarschotsesteenweg,627,50.8405384306,4.91519943038
3300,Tienen,Dragonderstraat,38,50.7970022497,4.93847593816
3300,Tienen,Paependaalstraat,5,50.8246940656,4.88547012652
3300,Tienen,Konijnenbergstraat,88,50.7695482617,4.95236875357
3300,Tienen,Vissenakenstraat,675,50.8528475446,4.91996235148
3300,Tienen,Kronkelweg,26,50.8360648142,4.90838273854
3300,Tienen,Van Dormaelstraat,5,50.8138867866,4.92311925221
3300,Tienen,Rubenshof,19,50.8137653654,4.9379111117
3300,Tienen,Aarschotsesteenweg,390,50.822654824,4.92424160768
3300,Tienen,Potterijstraat,24,50.8008203582,4.93935933384
3300,Tienen,Diestsesteenweg,97,50.815778594,4.93590229798
3300,Tienen,Kapellenblokstraat,5,50.8341507826,4.88281138377
3300,Tienen,Violetstraat,8,50.80932864,4.93221702879
3300,Tienen,Alpenstraat,15,50.8204085505,4.88406128546
3300,Tienen,Grote Bergstraat,26,50.8041264734,4.94015266019
3300,Tienen,Kraaiweg,18,50.7936084117,4.98714782808
3300,Tienen,Pastorijstraat,236,50.8032178447,4.96036666547
3300,Tienen,Kapelstraat,30,50.805735388,4.94250562445
3300,Tienen,Kummenbaan,45,50.8286591918,4.9932095181
3300,Tienen,Rietstraat,16,50.8186534817,4.89328860266
3300,Tienen,Ganzendries,60,50.8276254239,4.992454561
3300,Tienen,Aarschotsesteenweg,465,50.8305045841,4.92235498084
3300,Tienen,Driemolenstraat,57,50.8021410577,4.93690283815
3300,Tienen,Pastorijstraat,75,50.8024610658,4.95351757729
3300,Tienen,Houtemstraat,510,50.8283699582,4.95484735558
3300,Tienen,Oplintersesteenweg,183,50.8173723864,4.94521885036
3300,Tienen,Fabriekstraat,64,50.800924979,4.95230741161
3300,Tienen,Schansstraat,27,50.8157880788,4.92510237512
3300,Tienen,Uilstraat,83,50.8445475285,4.9826937526
3300,Tienen,Hannuitsesteenweg,168,50.7913601531,4.94102475513
3300,Tienen,Sint-Truidensesteenweg,83,50.8005500221,4.95711686621
3300,Tienen,Nieuwstraat,26,50.8069584018,4.93917040096
3300,Tienen,Werkmanssteeg,33,50.8166632444,4.93722660898
3300,Tienen,Gallicstraat,77,50.7879700675,4.93347409988
3300,Tienen,Pastorijstraat,199,50.8030137313,4.95852267527
3300,Tienen,Papenkelderstraat,21,50.8063776333,4.92989545788
3300,Tienen,Wulmersumsesteenweg,98,50.7980095611,4.95511135179
3300,Tienen,Begijnenstraat,2,50.7984649493,4.89236138479
3300,Tienen,O.L.V. Broedersstraat,19,50.8068903095,4.94157127516
3300,Tienen,Rozenhof,12,50.8232335503,4.92657533639
3300,Tienen,Tramstraat,51,50.8105412621,4.9197012809
3300,Tienen,Torenstraat,32,50.8020590979,4.9545301594
3300,Tienen,Ezemaalstraat,56,50.774015439,4.98608332691
3300,Tienen,Leuvenselaan,242,50.8125686689,4.92030852441
3300,Tienen,Anjelierenlaan,52,50.8183295108,4.95101876061
3300,Tienen,Kopstraat,1,50.8220922745,4.97648079698
3300,Tienen,Groenstraat,7,50.8006664484,4.9373097361
3300,Tienen,Acacialaan,12,50.8189086184,4.92887548728
3300,Tienen,Strijdersstraat,32,50.8114755739,4.93848073666
3300,Tienen,Mulkstraat,129,50.8015972031,4.92820044723
3300,Tienen,Kumtichstraat,349,50.8357379443,4.91406918475
3300,Tienen,Oplintersesteenweg,438,50.8238404338,4.97128184267
3300,Tienen,Pollepelstraat,61,50.8144693249,4.93333328326
3300,Tienen,Ganzendries,184,50.8239997605,4.99802457708
3300,Tienen,Eeuwfeeststraat,5,50.8076135473,4.94307507706
3300,Tienen,Keibergstraat,63,50.8222869918,4.88723187703
3300,Tienen,Pastorijstraat,354,50.8031832362,4.96405376724
3300,Tienen,Sint-Hubertusstraat,129,50.8384885448,4.99423408069
3300,Tienen,Sint-Truidensesteenweg,226,50.7999804565,4.96700453857
3300,Tienen,Lentelaan,10,50.7873519999,4.93717040556
3300,Tienen,Grijpenwegstraat,39,50.8114375358,4.91763777285
3300,Tienen,Pastorijstraat,57,50.8023471446,4.95281932433
3300,Tienen,Verbindingsstraat,15,50.8012620235,4.96013095696
3300,Tienen,Neerlintersesteenweg,56,50.8302033374,4.99456521459
3300,Tienen,Houtemstraat,491,50.8276809129,4.95367356962
3300,Tienen,Rijschoolstraat,33,50.8051636927,4.93375265082
3300,Tienen,Oplintersesteenweg,592,50.8277101981,4.98224374566
3300,Tienen,Donystraat,69,50.8066294967,4.94512707205
3300,Tienen,Sint-Odulphusstraat,50,50.7893940362,4.93876424525
3300,Tienen,Groot Begijnhof,39,50.8009278453,4.94217981146
3300,Tienen,Sint-Hymelienusstraat,6,50.8395269662,4.91306200195
3300,Tienen,Aarschotsesteenweg,111,50.8175450513,4.92651957008
3300,Tienen,Sint-Truidensesteenweg,101,50.8004767099,4.95776906417
3300,Tienen,Eeuwfeeststraat,29,50.807642813,4.94398048551
3300,Tienen,Pastorijstraat,111,50.8026402676,4.95523566183
3300,Tienen,Zijdelingsestraat,33,50.8091022402,4.92525334739
3300,Tienen,Valkenswaardlaan,7,50.8225764556,4.93297855004
3300,Tienen,Meerstraat,47,50.7711023915,4.96695262487
3300,Tienen,Kloosterstraat,33,50.8236154388,4.99231176623
3300,Tienen,Hannuitsesteenweg,9,50.7957168678,4.93683156675
3300,Tienen,Grote Bergstraat,2,50.804742643,4.94002310502
3300,Tienen,Keibergstraat,45,50.8228164575,4.8868738267
3300,Tienen,Bosveldstraat,8,50.7922572844,4.98218288563
3300,Tienen,Hannuitsesteenweg,44,50.7954258173,4.93778492058
3300,Tienen,Verlatstraat,23,50.8075364449,4.93060379505
3300,Tienen,Avendorenstraat,16,50.8064333462,4.93180974521
3300,Tienen,Bergévest,33,50.8038510433,4.94713958761
3300,Tienen,Hannuitsesteenweg,251,50.7872903765,4.94367344904
3300,Tienen,Broekstraat,53,50.8061416289,4.93451194877
3300,Tienen,Pastorijstraat,372,50.8028899404,4.9635675669
3300,Tienen,Waterstraat,25,50.8432731242,4.91492825819
3300,Tienen,Sint-Genovevaplein,16,50.8294422085,4.98865805976
3300,Tienen,Hof ter Mereweg,37,50.8327189209,4.99781347182
3300,Tienen,Romeinsebaan,108,50.8414028103,4.91092165881
3300,Tienen,Sint-Truidensesteenweg,344,50.7995298233,4.97094224781
3300,Tienen,Diestsesteenweg,133,50.8173015091,4.936340307
3300,Tienen,Heelblok,13,50.796580172,4.92790937798
3300,Tienen,Daalstraat,49,50.8169560479,4.88945816676
3300,Tienen,Utsenakenweg,105,50.8168625833,4.97660359275
3300,Tienen,Aarschotsesteenweg,93,50.8171483626,4.92668245387
3300,Tienen,Bruinissemdal,10,50.8148297551,4.94599109927
3300,Tienen,Van Audenhovestraat,25,50.7900529677,4.96467917368
3300,Tienen,Broekstraat,71,50.8062147949,4.9337699707
3300,Tienen,Gilainstraat,13,50.8090251472,4.93782758823
3300,Tienen,Houtemstraat,37,50.8148214266,4.93749947829
3300,Tienen,Lijsterhof,23,50.8157405581,4.93697931623
3300,Tienen,Mysteriestraat,13,50.7649661981,4.94858398213
3300,Tienen,Houtemstraat,455,50.8260863521,4.95265349408
3300,Tienen,Oude Heerweg,49,50.7973191123,4.981969502
3300,Tienen,Pastorijstraat,390,50.8024807954,4.96312799968
3300,Tienen,Huiskensstraat,82,50.8212000446,4.98343531414
3300,Tienen,Sint-Jorisstraat,13,50.798355652,4.89213604243
3300,Tienen,Leuvenselaan,349,50.8145552445,4.91549872575
3300,Tienen,Beggaardenstraat,8,50.8031897061,4.94070916081
3300,Tienen,Hannuitsesteenweg,62,50.7947276288,4.93810582223
3300,Tienen,Van Dormaelstraat,29,50.814728452,4.92046669928
3300,Tienen,Sint-Katharinastraat,35,50.8029815192,4.93969271347
3300,Tienen,Viaductstraat,7,50.8064702308,4.93075689968
3300,Tienen,Kloosterstraat,15,50.8245394536,4.993873355
3300,Tienen,Kleine Bergstraat,26,50.8047008811,4.94084289435
3300,Tienen,Spikdorenstraat,19,50.8101466609,4.92486048813
3300,Tienen,Vogelzangstraat,17,50.8165191162,4.93275183427
3300,Tienen,Leuvenselaan,758,50.8245705704,4.88362822011
3300,Tienen,Zijdelingsestraat,15,50.8087307044,4.92574156396
3300,Tienen,Kumtichstraat,106,50.8233173707,4.89287133682
3300,Tienen,Oude Diestsebaan,14,50.8163198724,4.93845731854
3300,Tienen,Getestraat,62,50.7980600603,4.93254266252
3300,Tienen,Houtemstraat,409,50.8216641736,4.95024773048
3300,Tienen,Slachthuisstraat,118,50.8064631221,4.95333257256
3300,Tienen,Broedersblok,54,50.78900447,4.96603689401
3300,Tienen,Houtemstraat,208,50.8179083756,4.94413782351
3300,Tienen,Aarschotsesteenweg,354,50.8218688873,4.9245733531
3300,Tienen,Leuvenselaan,88,50.8106310526,4.92621728329
3300,Tienen,Heelblok,31,50.7967072917,4.9271369757
3300,Tienen,Rijschoolstraat,15,50.8054017418,4.93421858587
3300,Tienen,Donystraat,87,50.806769646,4.94587563222
3300,Tienen,Vianderdal,14,50.817128602,4.94970655023
3300,Tienen,Aarschotsesteenweg,289,50.8216794041,4.925249923
3300,Tienen,Breisemstraat,9,50.8133235461,4.92687059556
3300,Tienen,Mulkstraat,140,50.8015056331,4.92879418032
3300,Tienen,Sint-Jorisstraat,66,50.8001223807,4.89071758011
3300,Tienen,Diestsesteenweg,161,50.8179613702,4.93646876141
3300,Tienen,Koffiestraat,45,50.834510906,4.88164429869
3300,Tienen,Beauduinstraat,27,50.8050460807,4.94145189653
3300,Tienen,Hannuitsesteenweg,205,50.788833466,4.94248937797
3300,Tienen,Leuvensestraat,1,50.8081279035,4.93585706039
3300,Tienen,Kauterstraat,10,50.8206175585,4.8920667648
3300,Tienen,Rozenhof,30,50.8238124013,4.92525376216
3300,Tienen,O.L.V. ten Steenstraat,46,50.7989258045,4.96378649603
3300,Tienen,Tassinstraat,69,50.8166747105,4.88271578285
3300,Tienen,Begonialaan,9,50.8170006482,4.95289179744
3300,Tienen,Gilainstraat,31,50.8094148275,4.93751945127
3300,Tienen,Houtemstraat,19,50.8140061652,4.93662331704
3300,Tienen,Potstraat,52,50.7881709998,4.9409472151
3300,Tienen,Getestraat,9,50.7981429085,4.93580651177
3300,Tienen,Zijdelingsestraat,61,50.8102349582,4.92421325026
3300,Tienen,Houtemstraat,635,50.8322502104,4.96016398058
3300,Tienen,Pollepelstraat,33,50.8138350488,4.93369601584
3300,Tienen,Oude Vestenstraat,7,50.8089080381,4.93552425302
3300,Tienen,Berkenhof,19,50.8070469352,4.92856128733
3300,Tienen,Bergévest,15,50.8043459805,4.94653010591
3300,Tienen,Kloosterstraat,61,50.8224198199,4.98825727848
3300,Tienen,Wijnmeerstraat,27,50.8345619715,4.99460128632
3300,Tienen,Aststraat,32,50.7863472537,4.93454374803
3300,Tienen,Sint-Truidensesteenweg,12,50.8011490883,4.95448661488
3300,Tienen,Oplintersesteenweg,6,50.812734503,4.94288041695
3300,Tienen,Kattenstraat,20,50.8060516291,4.94181302171
3300,Tienen,Pastorijstraat,22,50.8023797121,4.95043187465
3300,Tienen,Steenwegstraat,13,50.8079585588,4.92768525341
3300,Tienen,Oplintersesteenweg,503,50.8226454451,4.96810484433
3300,Tienen,Kumtichstraat,295,50.8332759144,4.90931840916
3300,Tienen,Vondelstraat,1,50.8207018777,4.89238957511
3300,Tienen,Kabbeekvest,43,50.812844823,4.93688938204
3300,Tienen,Distelstraat,34,50.8088057466,4.92915516523
3300,Tienen,Zavelstraat,14,50.8411683828,4.99555257851
3300,Tienen,Houtemstraat,545,50.8284865401,4.95693040136
3300,Tienen,Lindebaan,6,50.8287489653,4.98781484754
3300,Tienen,Wilgenstraat,17,50.7992129084,4.89205920113
3300,Tienen,Leuvenselaan,47,50.8104053382,4.92807844367
3300,Tienen,Leuvenselaan,841,50.8242914532,4.88529807884
3300,Tienen,Waaibergstraat,98,50.8115455647,4.9406458554
3300,Tienen,Industriepark,11,50.8061725631,4.95993808576
3300,Tienen,Avendorenstraat,105,50.8075242695,4.92851064806
3300,Tienen,Ijzerstraat,4,50.8122992352,4.9375914019
3300,Tienen,Hannuitsesteenweg,97,50.7928799465,4.93917372872
3300,Tienen,Grijpenveldstraat,42,50.8048954181,4.92207158023
3300,Tienen,Ganzendries,14,50.8288382807,4.99151935356
3300,Tienen,Spoorwegstraat,55,50.8164108437,4.88547593465
3300,Tienen,Paardenbrugstraat,50,50.8038772498,4.94654789324
3300,Tienen,Jodenbeemdstraat,18,50.8196974587,4.89319027605
3300,Tienen,Sint-Pietersstraat,128,50.8379829924,4.90499038603
3300,Tienen,Aarschotsesteenweg,164,50.8170304873,4.92621460306
3300,Tienen,Houtemstraat,334,50.8205843723,4.9479142754
3300,Tienen,Astridvest,14,50.8091767398,4.930378091
3300,Tienen,Houtemstraat,427,50.8227470037,4.95142250991
3300,Tienen,Leuvenselaan,214,50.8122952793,4.92126337941
3300,Tienen,Grijpenwegstraat,49,50.8113126061,4.91730556682
3300,Tienen,Huiskensstraat,11,50.8230220951,4.97427749323
3300,Tienen,Sint-Barbarastraat,62,50.8189614004,4.88092119476
3300,Tienen,Tassinstraat,52,50.8165803302,4.88340852784
3300,Tienen,Potstraat,69,50.7860025743,4.941656698
3300,Tienen,Waaibergstraat,116,50.811705766,4.94127071092
3300,Tienen,Gilainstraat,84,50.8110355761,4.93548776864
3300,Tienen,Aarschotsesteenweg,710,50.8420843119,4.91288222333
3300,Tienen,Werkmanssteeg,61,50.8167104159,4.93680585794
3300,Tienen,Sint-Truidensesteenweg,30,50.801018817,4.95565448454
3300,Tienen,Groot Begijnhof,49,50.8011376474,4.94245942409
3300,Tienen,Tiensebaan,81,50.7727160436,4.94937323994
3300,Tienen,Diestsesteenweg,268,50.8207602928,4.93651919118
3300,Tienen,Leuvenselaan,71,50.8106657091,4.92720722554
3300,Tienen,Aarschotsesteenweg,146,50.8166037942,4.92635414265
3300,Tienen,Kapucijnenstraat,7,50.8049606425,4.94360432465
3300,Tienen,Koffiestraat,35,50.8356773731,4.88068870726
3300,Tienen,Minderbroedersstraat,15,50.8046726101,4.93706907329
3300,Tienen,Dragonderstraat,66,50.7971636946,4.94006446576
3300,Tienen,Medekersveld,24,50.8239343401,4.88043496173
3300,Tienen,Delportestraat,9,50.8079349978,4.93352959503
3300,Tienen,Leuvenselaan,723,50.8221250604,4.89202593977
3300,Tienen,Breisemstraat,62,50.8134485673,4.92576287198
3300,Tienen,Langveld,6,50.7991373587,4.97859140754
3300,Tienen,Groot Overlaar,199,50.7916800666,4.91317140983
3300,Tienen,Hannuitsesteenweg,487,50.7698592054,4.95832324222
3300,Tienen,Goossensvest,98,50.805520374,4.93254860553
3300,Tienen,Potterijstraat,70,50.7999999351,4.93856717562
3300,Tienen,Meerstraat,124,50.7729082141,4.97258508268
3300,Tienen,Klein Spanuit,92,50.7965345305,4.93852615611
3300,Tienen,Breisemstraat,44,50.8132385802,4.92611838695
3300,Tienen,Sint-Truidensesteenweg,279,50.7992995421,4.96744753766
3300,Tienen,De Scheper,18,50.8201117383,4.93594992819
3300,Tienen,Zegestraat,43,50.8121775344,4.93708720051
3300,Tienen,Galgestraat,123,50.8157942849,4.91794367606
3300,Tienen,Fabiolapark,4,50.7894430182,4.94538961929
3300,Tienen,Onze-Lieve-Vrouwlaan,46,50.7888813758,4.92981169017
3300,Tienen,Mulkstraat,51,50.8023091798,4.93111215828
3300,Tienen,Waaibergstraat,3,50.8103522356,4.93836268658
3300,Tienen,Herestraat,28,50.8300131969,4.98594388646
3300,Tienen,Groot Overlaar,211,50.7912352695,4.91291536106
3300,Tienen,Sint-Hubertusstraat,51,50.8332979186,4.99208740365
3300,Tienen,Broekstraat,88,50.8059713573,4.93371242194
3300,Tienen,Pollepelstraat,15,50.8137165207,4.9343934378
3300,Tienen,Herestraat,117,50.8330199346,4.98077258443
3300,Tienen,Minderbroedersstraat,33,50.8045044101,4.9378829345
3300,Tienen,Oplintersesteenweg,130,50.8156739573,4.94417232913
3300,Tienen,Gilainstraat,137,50.8123292512,4.93516495644
3300,Tienen,Fabiolapark,28,50.7904267922,4.94315853793
3300,Tienen,Koffiestraat,17,50.8353804654,4.88300158933
3300,Tienen,Wolmarkt,20,50.8059299683,4.93881812775
3300,Tienen,Romeinsebaan,55,50.8386182838,4.91340923998
3300,Tienen,Oude Leuvensestraat,24,50.8103394928,4.93105119938
3300,Tienen,Albertvest,50,50.8124565632,4.9328160154
3300,Tienen,Beauduinstraat,134,50.8031814703,4.94612125878
3300,Tienen,Aarschotsesteenweg,326,50.8209098431,4.92491609457
3300,Tienen,Aarschotsesteenweg,430,50.8242114758,4.92320391982
3300,Tienen,Kleineveldstraat,123,50.8374564333,4.88653904892
3300,Tienen,Hoegaardenstraat,29,50.8032902117,4.93761074211
3300,Tienen,Potstraat,87,50.7850908141,4.94381913575
3300,Tienen,Wulmersumsesteenweg,643,50.7729133266,4.97778901992
3300,Tienen,Vierde Lansierslaan,24,50.8089584986,4.92879532605
3300,Tienen,Aandorenstraat,50,50.8017182696,4.95215880187
3300,Tienen,Kabbeekvest,96,50.8131073004,4.93970323444
3300,Tienen,Sint-Laurentiusstraat,33,50.7689773342,4.95649237016
3300,Tienen,Wulmersumsesteenweg,116,50.7975979413,4.95528508909
3300,Tienen,Kerkstraat,37,50.8006060312,4.95169133141
3300,Tienen,Leuvenselaan,367,50.8147377929,4.91492856461
3300,Tienen,Galgestraat,24,50.8136773189,4.91946362684
3300,Tienen,Moespikstraat,44,50.8007988175,4.9369317228
3300,Tienen,Schansstraat,3,50.815921089,4.92596119492
3300,Tienen,Oorbeeksesteenweg,68,50.8003920673,4.92255846846
3300,Tienen,Bostsestraat,1,50.8035723564,4.93989084515
3300,Tienen,Tramstraat,175,50.8075959564,4.92338540195
3300,Tienen,Leopoldvest,35,50.8082236929,4.94749121833
3300,Tienen,Kasteelstraat,53,50.8168583893,4.92735292781
3300,Tienen,Oude Heerweg,32,50.7969239396,4.98295898484
3300,Tienen,Peperstraat,7,50.8064840441,4.93738906278
3300,Tienen,Donystraat,52,50.8069038677,4.94525486394
3300,Tienen,Kasteelstraat,47,50.8166922951,4.92740147173
3300,Tienen,Processieweg,59,50.7933578941,4.98084951044
3300,Tienen,Sint-Truidensesteenweg,617,50.7967224002,4.99590589388
3300,Tienen,Windmolenveld,65,50.8169725986,4.94392300892
3300,Tienen,Leuvensestraat,114,50.8095776771,4.93133493414
3300,Tienen,Oude Heerweg,67,50.7972469,4.98125293191
3300,Tienen,Withuisstraat,37,50.8117003898,4.92676561198
3300,Tienen,Kerkomstraat,30,50.8278029987,4.88263161447
3300,Tienen,O.L.V. ten Steenstraat,36,50.7990450872,4.96334698174
3300,Tienen,Galgestraat,87,50.8147156281,4.9189128778
3300,Tienen,Beauduinstraat,116,50.8036026087,4.94523536257
3300,Tienen,Hennemarkt,21,50.805990095,4.94038799115
3300,Tienen,Dennenstraat,13,50.8224041158,4.88180729546
3300,Tienen,Torenstraat,42,50.8023091136,4.9545647694
3300,Tienen,Nieuw Overlaar,57,50.7978464941,4.92685347655
3300,Tienen,Leuvenselaan,443,50.8155890587,4.91247218257
3300,Tienen,De Brouwerstraat,32,50.8142353152,4.91846977787
3300,Tienen,Roosmolen,22,50.8076017957,4.95352763448
3300,Tienen,Biezenstraat,41,50.8029388691,4.92506644239
3300,Tienen,Leuvenselaan,332,50.8136348605,4.91713317333
3300,Tienen,Villapark,17,50.8200840161,4.95687302808
3300,Tienen,Vissenakenstraat,70,50.8155034855,4.9341593843
3300,Tienen,Berg van Leningstraat,2,50.8018460386,4.9406987662
3300,Tienen,Reizigersstraat,70,50.8031168323,4.9435829058
3300,Tienen,Hamelendreef,60B,50.8163112701,4.95595364717
3300,Tienen,Aarschotsesteenweg,591,50.8383195038,4.91750251522
3300,Tienen,Processieweg,77,50.7927293278,4.98065835839
3300,Tienen,Pastoor Buvéstraat,32,50.7886463334,4.93795416615
3300,Tienen,Potterijstraat,213,50.7959789791,4.93633842096
3300,Tienen,Houtemstraat,581,50.8291749614,4.95898913231
3300,Tienen,Neerlintersesteenweg,92,50.8310130428,4.9972702334
3300,Tienen,Oplintersesteenweg,112,50.8152499541,4.94399784629
3300,Tienen,Groot Overlaar,50,50.7973497171,4.92210147142
3300,Tienen,Residentie Beatrijs,14,50.8075387816,4.94846657529
3300,Tienen,Aarschotsesteenweg,412,50.8234268448,4.92386781824
3300,Tienen,Houtemstraat,563,50.8286553988,4.95789020749
3300,Tienen,Vissenakenstraat,231,50.8236928089,4.93396714652
3300,Tienen,Kumtichstraat,47,50.8208558442,4.88890760987
3300,Tienen,Hoegaardenstraat,40,50.80291307,4.93768803324
3300,Tienen,Kasteelstraat,71,50.8173404584,4.92738349383
3300,Tienen,Diestsesteenweg,9,50.8137683362,4.93550157607
3300,Tienen,Leopoldvest,17,50.8087031333,4.94765276887
3300,Tienen,Galgestraat,69,50.8143284035,4.91937859839
3300,Tienen,Potterijstraat,231,50.7955372274,4.93635450478
3300,Tienen,Ketelmakersstraat,36,50.8105146776,4.92957666545
3300,Tienen,Sint-Truidensesteenweg,402,50.7989364032,4.97740573787
3300,Tienen,Park Nieuwen Hove,46,50.8129160458,4.93025208881
3300,Tienen,Veldbornstraat,114,50.8111418276,4.94151044476
3300,Tienen,Pastorijstraat,93,50.8025419567,4.95436622418
3300,Tienen,Sint-Laurentiusstraat,78,50.7678687427,4.95197465827
3300,Tienen,Gilainstraat,119,50.8118972422,4.93539741837
3300,Tienen,Sliksteenvest,12,50.8108073773,4.9471650543
3300,Tienen,Oplintersesteenweg,309,50.8206728884,4.95350953519
3300,Tienen,Wulmersumsesteenweg,370,50.7866270218,4.96317092327
3300,Tienen,Deelberg,18,50.8233069534,4.93493711533
3300,Tienen,Goossensvest,3,50.8043274705,4.93440072987
3300,Tienen,Oplintersesteenweg,521,50.8230534204,4.97013562587
3300,Tienen,Potterijstraat,7,50.8012049511,4.93994790016
3300,Tienen,Keibergstraat,35,50.8228685231,4.8860980721
3300,Tienen,Leuvenselaan,385,50.8149265113,4.91436485629
3300,Tienen,Neerlintersesteenweg,217,50.8369969353,5.01523049236
3300,Tienen,Anjelierenlaan,24,50.8164606838,4.9511663131
3300,Tienen,Aarschotsesteenweg,182,50.8174394637,4.92609528567
3300,Tienen,Vianderstraat,80,50.8140482393,4.94667070159
3300,Tienen,Sint-Truidensesteenweg,65,50.800599615,4.95644323272
3300,Tienen,Aarschotsesteenweg,57,50.8162701718,4.92701628734
3300,Tienen,Grijpenwegstraat,67,50.8110690773,4.91655567445
3300,Tienen,Sint-Gillisplein,24,50.8190194876,4.88854568987
3300,Tienen,Hergiswillaan,22,50.8199435954,4.89188526716
3300,Tienen,Houtemstraat,316,50.820177281,4.94748421346
3300,Tienen,Tiensebaan,45,50.7751228885,4.95024939548
3300,Tienen,Sporthalstraat,8,50.8197896127,4.9435479279
3300,Tienen,Konijnenbergstraat,47,50.7716703422,4.9524773161
3300,Tienen,Reizigersstraat,7,50.802742267,4.94084047302
3300,Tienen,Withuisstraat,19,50.8115373422,4.92628805618
3300,Tienen,Nieuw Overlaar,75,50.7981312496,4.92565509805
3300,Tienen,Moespikstraat,62,50.8003593187,4.93718742754
3300,Tienen,Kerkstraat,19,50.8007462127,4.9522627761
3300,Tienen,Waterstraat,114,50.8448727742,4.91784832541
3300,Tienen,Astridvest,49,50.8076805922,4.93104477802
3300,Tienen,Beauduinstraat,45,50.8045651493,4.94232747644
3300,Tienen,Sint-Barbarastraat,143,50.8150343211,4.8817777485
3300,Tienen,Kapelstraat,29,50.8058377803,4.94215758017
3300,Tienen,Oude Leuvensestraat,59,50.8112465968,4.92988408098
3300,Tienen,Romeinsebaan,37,50.8377171808,4.91463804462
3300,Tienen,Pastorijstraat,201,50.803020796,4.95863710793
3300,Tienen,Beukenstraat,3,50.8195852885,4.88352475612
3300,Tienen,Utsenakenweg,80,50.8175634559,4.97881184222
3300,Tienen,Groot Overlaar,39,50.7995712702,4.92438355004
3300,Tienen,Diestsesteenweg,62,50.8151259774,4.93535434017
3300,Tienen,Breisemstraat,143,50.8166291939,4.92297437189
3300,Tienen,Viaductstraat,221,50.8019437915,4.92742291185
3300,Tienen,Molenaarsweg,3,50.7981028558,4.97944214486
3300,Tienen,Hof ter Mereweg,108,50.8333809924,4.99701559042
3300,Tienen,Gallicstraat,70,50.787933086,4.93428117967
3300,Tienen,Kloosterstraat,8,50.824455022,4.99451603153
3300,Tienen,Sint-Truidensesteenweg,707,50.7973493869,5.00821077548
3300,Tienen,Hoveniersstraat,3,50.8123667447,4.94443278391
3300,Tienen,Meerstraat,169,50.7731779884,4.97628578984
3300,Tienen,Wijnmeerstraat,45,50.836083532,4.9945962919
3300,Tienen,Oude Diestsebaan,113,50.82711529,4.94065786031
3300,Tienen,Groenhofstraat,30,50.8216360446,4.88523807962
3300,Tienen,Spoorwegstraat,19,50.8171458773,4.88585652742
3300,Tienen,Kumtichstraat,71,50.8212708253,4.88981453316
3300,Tienen,Zijdelingsestraat,8,50.809995523,4.92399333331
3300,Tienen,Delportestraat,62,50.8093507612,4.93038272494
3300,Tienen,Leuvenselaan,17,50.8101546339,4.92910740403
3300,Tienen,Goetsenhovenplein,6,50.766941426,4.94995233328
3300,Tienen,Oplintersesteenweg,682,50.8292418735,4.98708436232
3300,Tienen,Viaductstraat,203,50.8022809834,4.92733258128
3300,Tienen,Aarschotsesteenweg,118,50.8159472902,4.92655665324
3300,Tienen,Boudewijnlaan,18,50.7912920208,4.9328587532
3300,Tienen,Leuvenselaan,35,50.8102792061,4.92845549791
3300,Tienen,Verbroederingsstraat,23,50.8179952192,4.89084181555
3300,Tienen,Delportestraat,44,50.8090116552,4.93100239231
3300,Tienen,Hannuitsesteenweg,294,50.7864010253,4.94520354246
3300,Tienen,Wulmersumsesteenweg,588,49.2933351651,2.30668956214
3300,Tienen,Gilainstraat,147,50.8125227489,4.93521326286
3300,Tienen,Klein Spanuit,4,50.7932128819,4.94010537754
3300,Tienen,Groneshof,7,50.8220190024,4.88100463438
3300,Tienen,Oude Leuvensestraat,77,50.8113871169,4.92995727214
3300,Tienen,Hollestraat,19,50.7961840154,4.98231767726
3300,Tienen,Onze-Lieve-Vrouwlaan,28,50.7896358103,4.93220577014
3300,Tienen,Potterijstraat,158,50.7977127855,4.93709470772
3300,Tienen,Leuvenselaan,1,50.8098553025,4.92957021418
3300,Tienen,Kauterstraat,63,50.8195949056,4.88998539899
3300,Tienen,Breisemstraat,26,50.813042889,4.92696360885
3300,Tienen,Vierde Lansierslaan,59,50.8085928436,4.92714740259
3300,Tienen,Vianderstraat,52,50.8134826615,4.94576468316
3300,Tienen,Alpenstraat,8,50.8205409095,4.88331894638
3300,Tienen,Diestsesteenweg,341,50.8226523452,4.93763828774
3300,Tienen,Van Dormaelstraat,12,50.8134011888,4.92258041621
3300,Tienen,Oude Kleerkopersstraat,5,50.8045194714,4.93851968862
3300,Tienen,Wulmersumsesteenweg,81,50.798006258,4.95458617878
3300,Tienen,Glabbeeksestraat,21,50.8387944407,4.92823628769
3300,Tienen,Leuvenselaan,407,50.8151737376,4.91368815876
3300,Tienen,Rubenshof,20,50.8143214964,4.93829544405
3300,Tienen,Heelblok,41,50.7971288,4.92661501897
3300,Tienen,Meendijkstraat,27,50.8038110862,4.93696289356
3300,Tienen,Paardenbrugstraat,5,50.8033468799,4.94621323452
3300,Tienen,Krekeldreef,2,50.8226318659,4.92528987563
3300,Tienen,Diestsesteenweg,44,50.8146989271,4.93523098658
3300,Tienen,Diestsesteenweg,215,50.8193338083,4.93671822927
3300,Tienen,Herestraat,64,50.8307163249,4.98440090245
3300,Tienen,Tiensebaan,27,50.7765005514,4.95078324196
3300,Tienen,Anemonenlaan,6,50.8148801929,4.9522820766
3300,Tienen,Groot Begijnhof,22,50.8010587766,4.94204352122
3300,Tienen,Dreefstraat,4,50.7675114404,4.94793094939
3300,Tienen,Hoegaardenstraat,65,50.8030678905,4.93625933249
3300,Tienen,Oplintersesteenweg,604A,50.8279731158,4.98278229951
3300,Tienen,Hannuitsesteenweg,552,50.7683014017,4.96030325905
3300,Tienen,Kumtichstraat,53,50.8208894891,4.88922602274
3300,Tienen,Wulmersumsesteenweg,607,50.774144208,4.97558044371
3300,Tienen,Processieweg,32,50.7941376718,4.9823277039
3300,Tienen,Hollestraat,3,50.7969102206,4.98197508996
3300,Tienen,Hamelendreef,49,50.8168246313,4.95393490012
3300,Tienen,Leuvenselaan,623,50.8200440022,4.89913930945
3300,Tienen,Papenkelderstraat,4,50.8067767951,4.93000549723
3300,Tienen,Romeinsebaan,19,50.8367613953,4.91559983477
3300,Tienen,Houtemstraat,397,50.8208501417,4.94876183185
3300,Tienen,Leuvenselaan,152,50.8114349713,4.9238241831
3300,Tienen,Outgaardenstraat,14,50.7932527351,4.9350142241
3300,Tienen,Tiensebaan,162,50.7669278802,4.94778994441
3300,Tienen,Houbaertstraat,65,50.7896728179,4.98205229536
3300,Tienen,Veeweidestraat,1,50.8393541542,4.96282760845
3300,Tienen,De Brouwerstraat,14,50.813976741,4.91799664278
3300,Tienen,Sint-Truidensesteenweg,40,50.8009802513,4.9560485151
3300,Tienen,Bosschelstraat,33,50.8001026169,4.98800568589
3300,Tienen,Hof ter Mereweg,126,50.8346587222,4.99880621426
3300,Tienen,Vissenakenstraat,194,50.8232330967,4.93349566995
3300,Tienen,Oplintersesteenweg,237,50.8194143029,4.94859438417
3300,Tienen,Kummenbaan,47,50.8285755257,4.99338938401
3300,Tienen,Diestsesteenweg,196,50.8187249183,4.93618224177
3300,Tienen,Houbaertstraat,29,50.7917066077,4.98249950298
3300,Tienen,Goossensvest,116,50.8059401027,4.93223300519
3300,Tienen,Slachthuisstraat,111,50.8058086178,4.95193505546
3300,Tienen,Veldbornstraat,96,50.8107492982,4.94223298333
3300,Tienen,Oplintersesteenweg,646,50.8289301366,4.98530509952
3300,Tienen,Zegestraat,25,50.812049117,4.93631772273
3300,Tienen,Vissenakenstraat,328,50.8340494519,4.92902526731
3300,Tienen,Donystraat,80,50.8071255832,4.94652597512
3300,Tienen,Vianderdal,7,50.8185645225,4.94778904266
3300,Tienen,Croonestraat,7,50.806676845,4.94143346448
3300,Tienen,Hamelendreef,85,50.8092558296,4.95353062475
3300,Tienen,Houtemstraat,20,50.8143563936,4.9361446649
3300,Tienen,Leuvenselaan,425,50.8153233395,4.91308680861
3300,Tienen,Seringenhof,5I,50.8121661352,4.92382005073
3300,Tienen,Avendorenstraat,52,50.8067377805,4.93011768142
3300,Tienen,Walenberg,15,50.7909452328,4.94321508061
3300,Tienen,Nieuw Overlaar,118,50.7982068878,4.924929859
3300,Tienen,Pastorijstraat,308,50.8029847423,4.96313338007
3300,Tienen,Leuvenselaan,285,50.8135721821,4.91840228009
3300,Tienen,Romeinsebaan,190,50.8456930421,4.90824378062
3300,Tienen,Daalstraat,60,50.8164693879,4.89086005015
3300,Tienen,Broekstraat,35,50.8061223496,4.93526379609
3300,Tienen,Beauduinstraat,81,50.8039599343,4.9433204052
3300,Tienen,Populierenstraat,33,50.832038312,4.96233334435
3300,Tienen,Drijboomstraat,15,50.7736695365,4.97913960664
3300,Tienen,Pastorijstraat,192,50.8031824429,4.95790370096
3300,Tienen,Potterijstraat,241,50.7952932499,4.93638985595
3300,Tienen,Pollepelstraat,8,50.8135528335,4.93446411863
3300,Tienen,Beggaardenstraat,25,50.8034103308,4.94318444484
3300,Tienen,Oplintersesteenweg,66,50.8141731574,4.94352022578
3300,Tienen,Broekstraat,1,50.8065502414,4.93677156676
3300,Tienen,Eeuwfeeststraat,30,50.8078841171,4.94425159348
3300,Tienen,Mulkstraat,122,50.8016972094,4.92946959657
3300,Tienen,Oplintersesteenweg,599,50.8261257928,4.97877372363
3300,Tienen,Kliniekstraat,42,50.8115096589,4.9323500283
3300,Tienen,Pastorijstraat,50,50.8023922183,4.95126122453
3300,Tienen,Sint-Genovevaplein,9,50.8289687132,4.98853896491
3300,Tienen,Donystraat,34,50.80673699,4.94434679006
3300,Tienen,Roosmolen,30,50.8072896194,4.95366307469
3300,Tienen,Acacialaan,29,50.8186413856,4.92978806364
3300,Tienen,Groenstraat,24,50.8013130549,4.93785350784
3300,Tienen,Houtemstraat,262,50.8192102773,4.94576520957
3300,Tienen,Hannuitsesteenweg,79,50.7932982512,4.93882237012
3300,Tienen,Oplintersesteenweg,456,50.8241316634,4.97233727858
3300,Tienen,Potterijstraat,176,50.7972520114,4.9368441639
3300,Tienen,Getestraat,26,50.7976710577,4.93526235803
3300,Tienen,Lijsterhof,6,50.815462402,4.93648113556
3300,Tienen,Houtemstraat,244,50.8187525461,4.94464500087
3300,Tienen,Sint-Hubertusstraat,104,50.8336519859,4.99177454043
3300,Tienen,Groot Overlaar,93,50.7973322659,4.92115244254
3300,Tienen,Meierstraat,17,50.7946226696,4.97572750564
3300,Tienen,Gasthuismolenstraat,14,50.8039655859,4.94290153624
3300,Tienen,Rozenhof,29,50.8237458742,4.9251786037
3300,Tienen,Beauduinstraat,63,50.8042417177,4.94270756947
3300,Tienen,Wulmersumsesteenweg,625,50.7732705229,4.97709341083
3300,Tienen,Oorlogsvrijwilligersstraat,6,50.8070749106,4.94557207347
3300,Tienen,Schoolpad,7,50.7975961778,4.98394015107
3300,Tienen,Groot Overlaar,5,50.8002042298,4.92550319254
3300,Tienen,Potstraat,16,50.7896674225,4.94104712128
3300,Tienen,Raeymaeckersvest,9,50.8101035795,4.92978132568
3300,Tienen,Pastorijstraat,118,50.8037295617,4.95520215551
3300,Tienen,Aststraat,14,50.7873896447,4.93513618977
3300,Tienen,Hoegaardenstraat,83,50.8029838756,4.93547181525
3300,Tienen,Leuvenselaan,267,50.8132412941,4.9194291434
3300,Tienen,Herestraat,300,50.8401063996,4.97504283818
3300,Tienen,Astridvest,67,50.8071770805,4.9314727581
3300,Tienen,Astridvest,32,50.8083346246,4.93102195811
3300,Tienen,Mulkstraat,104,50.8018712607,4.93010565507
3300,Tienen,Oude Vestenstraat,24,50.8096413506,4.93665371112
3300,Tienen,Leuvenselaan,232,50.8124975279,4.92060126801
3300,Tienen,Kauterstraat,45,50.8200357719,4.89046826538
3300,Tienen,Vissenakenstraat,123,50.817414136,4.93428171554
3300,Tienen,Aarschotsesteenweg,565,50.8370108408,4.91873341718
3300,Tienen,Houtemstraat,410,50.8232896777,4.95159373453
3300,Tienen,Sint-Truidensesteenweg,573,50.7972865562,4.98937303533
3300,Tienen,De Brouwerstraat,42,50.8144492394,4.91878318362
3300,Tienen,Aarschotsesteenweg,717,50.8459999791,4.90993335629
3300,Tienen,Pastorijstraat,326,50.8032584382,4.96362032364
3300,Tienen,Leuvenselaan,694,50.8229047733,4.88856910132
3300,Tienen,Oplintersesteenweg,13,50.8129675344,4.9434088464
3300,Tienen,Vissenakenstraat,585,50.8472140238,4.91881559832
3300,Tienen,Dragonderstraat,21,50.7967993533,4.93834553279
3300,Tienen,Wulmersumsesteenweg,63,50.7984820673,4.9543939418
3300,Tienen,Torsinplein,22,50.8038753582,4.94036084881
3300,Tienen,Daalstraat,42,50.8170919071,4.88987716448
3300,Tienen,Potterijstraat,123,50.7984738868,4.9369246105
3300,Tienen,Aarschotsesteenweg,301,50.8219427456,4.92514915543
3300,Tienen,Violetstraat,25,50.8091570065,4.9313235127
3300,Tienen,Oude Leuvensestraat,95,50.8121312294,4.92869494027
3300,Tienen,Valkenswaardlaan,24,50.8229517877,4.93247326104
3300,Tienen,Pastorijstraat,174,50.8030839907,4.95706630745
3300,Tienen,Mulkstraat,157,50.8007557225,4.92628498378
3300,Tienen,Kabbeekvest,25,50.8129396767,4.93646101104
3300,Tienen,Ganzendries,67,50.826594462,4.99287690524
3300,Tienen,Groenhofstraat,12,50.8204751972,4.88611244228
3300,Tienen,Wulmersumsesteenweg,453,50.7850337667,4.96330592176
3300,Tienen,Veldbornstraat,78,50.8103156107,4.94230970134
3300,Tienen,Vissenakenstraat,384,50.837880894,4.92591781103
3300,Tienen,Oplintersesteenweg,403,50.8214568969,4.96093157555
3300,Tienen,Academiestraat,7,50.8077235679,4.93888585613
3300,Tienen,Molenstraat,45,50.8039875776,4.9499929723
3300,Tienen,Bloemenstraat,14,50.8205975922,4.88148485214
3300,Tienen,Ketelmakersstraat,48,50.8107311465,4.92942799572
3300,Tienen,Sint-Truidensesteenweg,29,50.8007722122,4.95495728804
3300,Tienen,Pastorijstraat,39,50.8022525191,4.95219891371
3300,Tienen,Kapucijnenstraat,24,50.8050862655,4.94520575222
3300,Tienen,Sint-Hubertusstraat,58,50.8329859839,4.9911382566
3300,Tienen,Gilainstraat,112,50.8120398746,4.93481042504
3300,Tienen,Reizigersstraat,95,50.8031001729,4.9450327148
3300,Tienen,Wolmarkt,3,50.8058851709,4.93830683664
3300,Tienen,Wolmarkt,19,50.8055762006,4.93895060215
3300,Tienen,Oplintersesteenweg,137,50.8160575878,4.94469569091
3300,Tienen,Begijnenstraat,44,50.799425867,4.89432811958
3300,Tienen,Vissenakenstraat,95,50.8167791523,4.93445557113
3300,Tienen,Mulkstraat,58,50.8021550152,4.93172670822
3300,Tienen,Wulmersumsesteenweg,27,50.7996864185,4.95405785535
3300,Tienen,Wulmersumsesteenweg,10,50.8005062967,4.9540940259
3300,Tienen,Aarschotsesteenweg,547,50.8362586092,4.91981632351
3300,Tienen,Eeuwfeeststraat,50,50.8079263693,4.94498251226
3300,Tienen,Maalderijweg,34,50.8142531312,4.88705707732
3300,Tienen,Sint-Truidensesteenweg,244,50.799892349,4.96776149937
3300,Tienen,Residentie Hageland,26,50.80755699,4.94528983382
3300,Tienen,Delportestraat,26,50.8085713393,4.93163672923
3300,Tienen,Kumtichstraat,35,50.820660514,4.88851900351
3300,Tienen,Sint-Martinusstraat,23,50.8079611822,4.92897923443
3300,Tienen,Tiensebaan,98,50.770341854,4.94927049253
3300,Tienen,Driemolenstraat,5,50.8029710363,4.93813546963
3300,Tienen,Sint-Laurentiusstraat,8,50.7689767331,4.95816587987
3300,Tienen,Roosmolen,50,50.8072253828,4.9541223875
3300,Tienen,Groenhofstraat,65,50.8228454103,4.88489855322
3300,Tienen,Sint-Margrietestraat,15,50.8287817527,4.96000348922
3300,Tienen,Wijnmeerstraat,10,50.8344051072,4.99358942567
3300,Tienen,Houtemstraat,179,50.8176988751,4.94451103555
3300,Tienen,Beauduinstraat,10,50.8056312716,4.9412416779
3300,Tienen,Sliksteenvest,29,50.8104159523,4.94651095584
3300,Tienen,Kasteelstraat,169,50.8231304093,4.92966696774
3300,Tienen,Kauterstraat,27,50.8204267646,4.89114770986
3300,Tienen,Diestsesteenweg,26,50.8143029624,4.93518591289
3300,Tienen,Aarschotsesteenweg,50,50.8137170561,4.9271105367
3300,Tienen,Ketelmakersstraat,54,50.8108812566,4.92946979974
3300,Tienen,Houtemstraat,40,50.8150077981,4.93657114212
3300,Tienen,Sint-Truidensesteenweg,517,50.797896404,4.98326291215
3300,Tienen,Dragonderstraat,74,50.7972021764,4.94041317085
3300,Tienen,Bostenberg,35,50.7928870983,4.93663156215
3300,Tienen,Kumtichstraat,152,50.8243166114,4.89486992361
3300,Tienen,Gilainstraat,130,50.8125104655,4.93476047201
3300,Tienen,Viaductstraat,24,50.8061949585,4.93075743809
3300,Tienen,Jodenbeemdstraat,2,50.8188452814,4.89150959694
3300,Tienen,Potterijstraat,95,50.7998321927,4.93801119381
3300,Tienen,Wijngaardestraat,19,50.8233653647,4.96149793823
3300,Tienen,Hamelendreef,7,50.8194417944,4.95012059788
3300,Tienen,Sint-Truidensesteenweg,126,50.8005899814,4.95999780703
3300,Tienen,Leuvensestraat,78,50.8092881868,4.93305650008
3300,Tienen,Vianderstraat,16,50.8127243705,4.94435784631
3300,Tienen,Leopoldvest,47,50.8076793629,4.94703503888
3300,Tienen,Hoegaardenstraat,30,50.8030449568,4.93796428205
3300,Tienen,St.-Maurusweg,5,50.798029607,4.96491549103
3300,Tienen,Dr. J. Geensstraat,21,50.8076963174,4.93401365755
3300,Tienen,Aarschotsesteenweg,429,50.8271394653,4.92348715958
3300,Tienen,Leuvensestraat,96,50.8095322122,4.93224571875
3300,Tienen,Kerkomstraat,111,50.8339931359,4.88394915794
3300,Tienen,Vogelzangstraat,1,50.8166737198,4.93370716216
3300,Tienen,Vissenakenstraat,348,50.8357194997,4.92751723118
3300,Tienen,Grote Markt,3,50.8084136712,4.93608383146
3300,Tienen,Potterijstraat,59,50.8005575718,4.9386791955
3300,Tienen,Kumtichstraat,17,50.8203638881,4.88780145134
3300,Tienen,Spoorwegstraat,101,50.8152976865,4.88491438778
3300,Tienen,Van Audenhovestraat,43,50.7906827101,4.96663574441
3300,Tienen,Houtemstraat,653,50.8331718648,4.95969761708
3300,Tienen,De Brouwerstraat,60,50.8155354945,4.92036605993
3300,Tienen,Sint-Rochusstraat,12,50.7702960473,4.94940687429
3300,Tienen,Breynissemberg,28,50.8168156097,4.94624737523
3300,Tienen,Kastelweg,20,50.7966160996,4.93479672703
3300,Tienen,Sint-Truidensesteenweg,108,50.8007051589,4.95889020194
3300,Tienen,Broekstraat,114,50.8062154512,4.93277656795
3300,Tienen,Oude Heerweg,60,50.7969803126,4.98101923856
3300,Tienen,Uilstraat,108,50.8450367111,4.98610613965
3300,Tienen,Reizigersstraat,59,50.8027741554,4.94271844472
3300,Tienen,Driemolenstraat,39,50.802240357,4.93761406465
3300,Tienen,Vissenakenstraat,59,50.8155778125,4.93457265043
3300,Tienen,Ark Van Noëstraat,24,50.8103020922,4.94412995603
3300,Tienen,Pastorijstraat,156,50.8030046997,4.95638634449
3300,Tienen,Sparrenstraat,15,50.8214183683,4.88469525296
3300,Tienen,Groot Overlaar,57,50.7992400064,4.92375561742
3300,Tienen,Diestsesteenweg,143,50.8175334161,4.93636524666
3300,Tienen,Bostenberg,17,50.7909402331,4.93613348174
3300,Tienen,Aarschotsesteenweg,681,50.8435961005,4.912131306
3300,Tienen,Groot Overlaar,103,50.7971431187,4.92088581522
3300,Tienen,Pastorijstraat,136,50.802922159,4.95563654538
3300,Tienen,Danebroekstraat,32,50.8062158999,4.93499223958
3300,Tienen,Grote Markt,37,50.8072219175,4.93652189301
3300,Tienen,Oplintersesteenweg,119,50.8155880293,4.94449836476
3300,Tienen,Kleine Molenstraat,16,50.8033727861,4.96183197521
3300,Tienen,Kattenstraat,19,50.8058794955,4.94193690702
3300,Tienen,Pastorijstraat,290,50.8028010857,4.96251209853
3300,Tienen,Vianderdal,32,50.8153541305,4.95083913216
3300,Tienen,Daalstraat,41B,50.8174520875,4.88859248869
3300,Tienen,Sint-Truidensesteenweg,535,50.7977604892,4.98464559661
3300,Tienen,Begijnenstraat,62,50.7999234632,4.89522624117
3300,Tienen,Avendorenstraat,69,50.8072496572,4.92965020669
3300,Tienen,Groot Begijnhof,42,50.8010761236,4.94169546677
3300,Tienen,Groenhofstraat,83,50.824018703,4.88370647575
3300,Tienen,Mulkstraat,94,50.8019461388,4.93044446561
3300,Tienen,Viaductstraat,194,50.8027504988,4.92777099137
3300,Tienen,Grijpenveldstraat,32,50.8046282014,4.92270670838
3300,Tienen,Kleine Molenstraat,34,50.8036198186,4.96252542177
3300,Tienen,Breisemstraat,105,50.8148311432,4.9248684003
3300,Tienen,Leopoldvest,71,50.805532321,4.94646836405
3300,Tienen,Leeuwerikweg,8,50.7952725267,4.95332559417
3300,Tienen,Kerkstraat,20,50.8005280847,4.95234149466
3300,Tienen,Oplintersesteenweg,355,50.8208902666,4.95518036687
3300,Tienen,Aarschotsesteenweg,254,50.8193605091,4.92539459557
3300,Tienen,Torenstraat,49,50.8024341714,4.954976032
3300,Tienen,Vissenakenstraat,550,50.8444348188,4.91906872261
3300,Tienen,Jubileumlaan,35,50.8017263455,4.95884996821
3300,Tienen,Dragonderstraat,41,50.7968226781,4.93894625394
3300,Tienen,Kasteelstraat,1,50.8152924753,4.92749806486
3300,Tienen,Trapstraat,6,50.8063905519,4.93925430852
3300,Tienen,Aarschotsesteenweg,39,50.8157583901,4.9271272767
3300,Tienen,Neerlintersesteenweg,38,50.8298752612,4.9932752244
3300,Tienen,Hoegaardenstraat,12,50.8035401776,4.93859889426
3300,Tienen,Kerkomstraat,29,50.8275467915,4.88312261656
3300,Tienen,O.L.V. ten Steenstraat,48,50.7989098382,4.96386785977
3300,Tienen,Sint-Barbarastraat,105,50.8164345098,4.87955164507
3300,Tienen,Hortensialaan,5,50.8132326295,4.92333984471
3300,Tienen,Groot Overlaar,192,50.7926160561,4.9150502049
3300,Tienen,Kerkstraat,73,50.8002869255,4.95069068154
3300,Tienen,Kasteelstraat,17,50.8157265604,4.92797590927
3300,Tienen,Leuvenselaan,831,50.8240996751,4.88650463331
3300,Tienen,Distelstraat,9,50.8083408083,4.9282683935
3300,Tienen,Paardenbrugstraat,22,50.8035446071,4.94618700692
3300,Tienen,Waterstraat,43,50.8436146375,4.91587375259
3300,Tienen,Aandorenstraat,57,50.8013704964,4.95209547063
3300,Tienen,Wulmersumsesteenweg,387,50.7879908046,4.96090003061
3300,Tienen,Papenweg,11,50.8301924641,4.99260987064
3300,Tienen,Beauduinstraat,144,50.8031291116,4.94652961565
3300,Tienen,Vianderstraat,87,50.8144203639,4.94862711647
3300,Tienen,Kasteelstraat,35,50.8163179687,4.92738041759
3300,Tienen,Leuvenselaan,169,50.8119556052,4.92326744655
3300,Tienen,Oude Kleerkopersstraat,22,50.804806804,4.93901475576
3300,Tienen,Slachthuisstraat,83,50.8055497099,4.95067058678
3300,Tienen,Sint-Truidensesteenweg,671,50.7968777601,5.00347372091
3300,Tienen,Kumtichstraat,270,50.8322925795,4.90725728043
3300,Tienen,O.L.V. ten Steenstraat,72,50.7986543838,4.96490227954
3300,Tienen,Hannuitsesteenweg,105,50.7925357189,4.93937733842
3300,Tienen,Oplintersesteenweg,528,50.8263027417,4.97776656879
3300,Tienen,Avendorenstraat,34,50.8066617685,4.93083935074
3300,Tienen,Torenstraat,14,50.801577456,4.95448684663
3300,Tienen,Sint-Truidensesteenweg,600,50.7973135319,5.0028051107
3300,Tienen,Breisemstraat,178,50.8159785974,4.92232883582
3300,Tienen,Slachthuisstraat,65,50.8054254501,4.94978787402
3300,Tienen,Piepelboomstraat,70,50.8025497359,4.96623769429
3300,Tienen,Neerlintersesteenweg,4,50.8294354646,4.99126821923
3300,Tienen,Leuvenselaan,339,50.8144375644,4.91580726542
3300,Tienen,Houtemstraat,362,50.8211999571,4.94870328
3300,Tienen,Oplintersesteenweg,373,50.8211852538,4.95725268629
3300,Tienen,Aandorenstraat,22,50.8020625752,4.95066159781
3300,Tienen,Pastorijstraat,272,50.8029988395,4.96202047767
3300,Tienen,Strijdersstraat,14,50.8118802443,4.93810366909
3300,Tienen,Aarschotsesteenweg,136,50.8163660554,4.92642071288
3300,Tienen,Boudewijnlaan,36,50.7915058858,4.93256134735
3300,Tienen,Leuvenselaan,114,50.8110125141,4.92509790145
3300,Tienen,Groot Overlaar,121,50.7966601657,4.91999317688
3300,Tienen,Hergiswillaan,39,50.820195339,4.89316461305
3300,Tienen,Vianderstraat,34,50.813121033,4.94506438277
3300,Tienen,Vissenakenstraat,24,50.8144163655,4.93463841079
3300,Tienen,Mulkstraat,76,50.8020695841,4.9310966654
3300,Tienen,Veeweidestraat,17,50.8394653518,4.96599309387
3300,Tienen,Avendorenstraat,87,50.8073065623,4.9291436703
3300,Tienen,Sacreasgang,3,50.8032943851,4.93743643867
3300,Tienen,Moespikstraat,79,50.8000348439,4.93700845187
3300,Tienen,Kumtichstraat,1,50.8200659303,4.88744450316
3300,Tienen,Schansstraat,10,50.8156685835,4.92582495256
3300,Tienen,Piepelboomstraat,138,50.8037688416,4.9682800671
3300,Tienen,Mulkstraat,23,50.8030640464,4.93352312056
3300,Tienen,Beekstraat,35,50.8311798714,4.99085980577
3300,Tienen,Kerkstraat,55,50.800449136,4.95122621852
3300,Tienen,O.L.V. ten Steenstraat,90,50.7984936516,4.9655886509
3300,Tienen,Ijzerstraat,11,50.8124421927,4.93801285545
3300,Tienen,Generaal Guffensstraat,23,50.8086489116,4.94678221735
3300,Tienen,Leuvenselaan,813,50.8239960934,4.88738231127
3300,Tienen,Vissenakenstraat,77,50.8161120802,4.93453523623
3300,Tienen,Slachthuisstraat,30,50.8062590692,4.94993537498
3300,Tienen,Sint-Pietersstraat,103,50.8400175273,4.90646718081
3300,Tienen,Potterijstraat,77,50.8002418051,4.9383923609
3300,Tienen,Distelstraat,52,50.8089608887,4.92976044604
3300,Tienen,Leopoldvest,53,50.8074903602,4.94720594762
3300,Tienen,Aarschotsesteenweg,610,50.8356192724,4.91904803706
3300,Tienen,Molenstraat,63,50.8049410613,4.95017075525
3300,Tienen,Beekstraat,1,50.8304102697,4.9950388171
3300,Tienen,Aandorenstraat,75,50.8012518831,4.95287777813
3300,Tienen,Metselstraat,78,50.8389857582,4.9238880563
3300,Tienen,Leuvenselaan,187,50.8122839897,4.92275795182
3300,Tienen,Strijdersstraat,49,50.8110103694,4.9385502975
3300,Tienen,Viaductstraat,176,50.8036472901,4.928098875
3300,Tienen,Hennemarkt,4,50.8066207062,4.94041226191
3300,Tienen,Herestraat,46,50.8305388515,4.98486502214
3300,Tienen,Nieuw Overlaar,39,50.7984667137,4.92719107265
3300,Tienen,Reizigersstraat,77,50.8026039468,4.94354882695
3300,Tienen,Moespikstraat,26,50.8012075304,4.93679537129
3300,Tienen,Peperstraat,24,50.8063184695,4.93805089532
3300,Tienen,Albertvest,22,50.81264233,4.93385223193
3300,Tienen,Houtemstraat,625,50.8315182708,4.95971627437
3300,Tienen,Oude Heerweg,93,50.7973423403,4.97921183037
3300,Tienen,Pastorijstraat,346,50.803300993,4.96428565076
3300,Tienen,Schansstraat,17,50.8158535325,4.92546003936
3300,Tienen,Leuvenselaan,805,50.8237117709,4.88751882832
3300,Tienen,Oorbeeksesteenweg,185,50.7989946728,4.89830496846
3300,Tienen,Ambachtenlaan,6,50.8011038919,4.97027339974
3300,Tienen,Keibergstraat,71,50.8214793563,4.88676313908
3300,Tienen,Distelstraat,70,50.8087388837,4.93038846464
3300,Tienen,Oplintersesteenweg,428,50.8235516454,4.97050179178
3300,Tienen,Torenstraat,22,50.8017893018,4.95451402905
3300,Tienen,Bostsestraat,61,50.8014015827,4.94032990967
3300,Tienen,Ijzerenwegstraat,28,50.807516764,4.92784273363
3300,Tienen,Hoveniersstraat,30,50.8118062358,4.94629236794
3300,Tienen,Pastorijstraat,189,50.802966847,4.95808584943
3300,Tienen,Veeweidestraat,10,50.8395293143,4.96255410649
3300,Tienen,Kleineveldstraat,80,50.8350485868,4.88962685229
3300,Tienen,Paardenbrugstraat,14,50.8035641081,4.94596976371
3300,Tienen,Oplintersesteenweg,317,50.8207016699,4.9542622075
3300,Tienen,Ganzendries,50,50.8278054072,4.99226774296
3300,Tienen,Outgaardenstraat,7,50.7946732436,4.9360506034
3300,Tienen,Strijdersstraat,22,50.8117094561,4.93826605229
3300,Tienen,Werkmanssteeg,25,50.8165993253,4.93694911759
3300,Tienen,Gallicstraat,69,50.7880963838,4.93391923233
3300,Tienen,Leuvenselaan,486,50.8168209764,4.90664512608
3300,Tienen,Goossensvest,17,50.8051385878,4.93349669558
3300,Tienen,Oude Kleerkopersstraat,14,50.8047613559,4.93861880987
3300,Tienen,Oplintersesteenweg,173,50.8171088055,4.94507243071
3300,Tienen,Pastorijstraat,85,50.8025030269,4.95406143998
3300,Tienen,Leuvensestraat,15,50.8085764483,4.93547754683
3300,Tienen,Glabbeeksestraat,28,50.8395028431,4.92857340183
3300,Tienen,Tiensebaan,179,50.766683556,4.94716760283
3300,Tienen,Viaductstraat,87,50.8042427572,4.9277271719
3300,Tienen,Diestsesteenweg,89,50.8156926195,4.9358531547
3300,Tienen,Jubileumlaan,10,50.8013672396,4.95864571905
3300,Tienen,Nieuwstraat,36,50.8068457215,4.93969426276
3300,Tienen,Mulkstraat,150,50.8013923062,4.92844853399
3300,Tienen,Donystraat,95,50.806814268,4.94621540877
3300,Tienen,Paardenbrugstraat,32,50.8035653894,4.94651171318
3300,Tienen,Houtemstraat,5,50.8135878787,4.93600909524
3300,Tienen,Kabbeekvest,122,50.8128297691,4.94169320748
3300,Tienen,Tramstraat,41,50.810777411,4.91955151951
3300,Tienen,Sint-Martinusstraat,41,50.808330989,4.93020623722
3300,Tienen,Sliksteenvest,55,50.8096856835,4.94746155128
3300,Tienen,Pastorijstraat,228,50.8032386933,4.96011922867
3300,Tienen,Heidestraat,28,50.8398172501,4.90304624081
3300,Tienen,Oorbeeksesteenweg,167,50.7994384213,4.89925556993
3300,Tienen,Keienpoelweg,10,50.7947215565,4.98729920694
3300,Tienen,Processieweg,52,50.7934634951,4.98210870094
3300,Tienen,Aarschotsesteenweg,121,50.8178029564,4.92654122236
3300,Tienen,Hannuitsesteenweg,196,50.7900006792,4.9421853651
3300,Tienen,Verlatstraat,13,50.8073211404,4.93056575103
3300,Tienen,Groenhofstraat,37,50.8217400004,4.88571920102
3300,Tienen,Leuvenselaan,786,50.8256623658,4.87909392635
3300,Tienen,Kapelstraat,20,50.8062959602,4.94234803496
3300,Tienen,Schansstraat,35,50.8157653971,4.92474862378
3300,Tienen,Groot Overlaar,32,50.7992183703,4.92463953816
3300,Tienen,Withuisstraat,40,50.8119064419,4.92644397706
3300,Tienen,Kasteelstraat,10,50.8171245077,4.92700969441
3300,Tienen,Oude Leuvensestraat,80,50.8110838942,4.9292808085
3300,Tienen,Verbroederingsstraat,6,50.8185743729,4.88885595079
3300,Tienen,Wulmersumsesteenweg,332,50.7877155351,4.96207069059
3300,Tienen,Lindebaan,51,50.8281574529,4.99084745656
3300,Tienen,Donystraat,59,50.8062820133,4.94489467401
3300,Tienen,Kapucijnenstraat,69,50.8047426895,4.94609589255
3300,Tienen,Leuvenselaan,270,50.8128706553,4.91942650196
3300,Tienen,Kerkstraat,40,50.8003410392,4.95173939717
3300,Tienen,Echostraat,14,50.8215606811,4.88318266241
3300,Tienen,Veemarkt,43,50.8058654755,4.94026318643
3300,Tienen,Keibergstraat,53,50.8224045742,4.88684700124
3300,Tienen,Pastorijstraat,67,50.8024129499,4.95319764251
3300,Tienen,Daalstraat,57,50.8162688311,4.89013268659
3300,Tienen,Aarschotsesteenweg,382,50.8224915146,4.92436669865
3300,Tienen,Potterijstraat,138,50.7982305723,4.93730466747
3300,Tienen,Viaductstraat,69,50.804974563,4.92815354641
3300,Tienen,Sint-Barbarastraat,196,50.8143690364,4.88454801735
3300,Tienen,Broekstraat,8,50.8064628814,4.93711895839
3300,Tienen,Oplintersesteenweg,51,50.8140029301,4.94387799898
3300,Tienen,Sint-Jorisstraat,58,50.7997615559,4.89097330923
3300,Tienen,Vianderheuvel,7,50.8157193443,4.94865634592
3300,Tienen,Liefdestraat,43,50.8081821673,4.94486561742
3300,Tienen,Kastelweg,40,50.7959227567,4.93467532716
3300,Tienen,Broekstraat,45,50.8061324802,4.93480509433
3300,Tienen,Begijnenstraat,36,50.7993773452,4.89380229117
3300,Tienen,Gilainstraat,58,50.8098671704,4.93665487967
3300,Tienen,Donystraat,9,50.8058430328,4.94282828399
3300,Tienen,Albertvest,14,50.8126620353,4.93405339186
3300,Tienen,Pastorijstraat,364,50.8030124624,4.96379950808
3300,Tienen,Gallicstraat,87,50.7877763539,4.93283656244
3300,Tienen,Papenkelderstraat,11,50.8065706929,4.92973559873
3300,Tienen,Spoorwegstraat,30,50.8167408836,4.88618271106
3300,Tienen,Sint-Truidensesteenweg,216,50.8001164746,4.96561351419
3300,Tienen,Sint-Truidensesteenweg,73,50.8005813757,4.95674544724
3300,Tienen,Goossensvest,35,50.8056150899,4.93313454429
3300,Tienen,De Brouwerstraat,7,50.8136923652,4.9186725821
3300,Tienen,Pastorijstraat,103,50.8026326073,4.95470101972
3300,Tienen,Aandorenstraat,14,50.8021393732,4.95025880596
3300,Tienen,Aarschotsesteenweg,299,50.8218992152,4.92517219896
3300,Tienen,Oplintersesteenweg,210,50.8177736804,4.94487453312
3300,Tienen,Gilainstraat,23,50.8092338861,4.93762537702
3300,Tienen,Werkmanssteeg,1,50.8164052185,4.93611832251
3300,Tienen,Utsenakenweg,95,50.8171242041,4.97720640036
3300,Tienen,Gilainstraat,127,50.8121375173,4.93527232847
3300,Tienen,Sint-Jorisstraat,23,50.7985012801,4.89147408332
3300,Tienen,Biezenstraat,23,50.8020407485,4.92564028433
3300,Tienen,Diestsesteenweg,151,50.8177219299,4.93640300181
3300,Tienen,Astridvest,39,50.8079274893,4.9308689632
3300,Tienen,Tulpenlaan,4,50.8188552863,4.95077394796
3300,Tienen,Vissenakenstraat,16,50.8142138484,4.93474495033
3300,Tienen,Herestraat,278,50.8385790357,4.97495440436
3300,Tienen,Potstraat,9,50.7908596374,4.94051956522
3300,Tienen,Oplintersesteenweg,582,50.8275589808,4.98173021752
3300,Tienen,Sint-Hubertusstraat,39A,50.8324380166,4.99207457232
3300,Tienen,Maalderijweg,95,50.8100921337,4.88903617504
3300,Tienen,Paependaalstraat,19,50.8253078629,4.8869402005
3300,Tienen,Rozenhof,20,50.8237788301,4.92645223146
3300,Tienen,Sint-Truidensesteenweg,234,50.7999326186,4.96734083964
3300,Tienen,Beauduinstraat,35,50.8048823472,4.94173307639
3300,Tienen,Van Dormaelstraat,19,50.8139513732,4.9215521784
3300,Tienen,Seringenhof,7,50.8124167796,4.92338228961
3300,Tienen,Sint-Pietersstraat,189,50.8363517184,4.90538076096
3300,Tienen,Keistraat,15,50.8017124449,4.95391966238
3300,Tienen,Herestraat,48,50.8303168724,4.98459524681
3300,Tienen,Van Audenhovestraat,61,50.7911311942,4.96802869065
3300,Tienen,Gasthuismolenstraat,7,50.8042736441,4.94224659962
3300,Tienen,Veldbornstraat,33,50.8081072908,4.94316269335
3300,Tienen,Aarschotsesteenweg,156,50.8168456173,4.9262793896
3300,Tienen,Lijsterhof,13,50.8158381392,4.9364890817
3300,Tienen,Broekstraat,63,50.8061808156,4.93408594377
3300,Tienen,Jodenstraat,18,50.7866856689,4.93831602583
3300,Tienen,Uilstraat,91,50.84459387,4.98343967372
3300,Tienen,Veeweidestraat,8,50.839199413,4.96212344136
3300,Tienen,Meerstraat,98,50.7725599849,4.97069316852
3300,Tienen,Sint-Truidensesteenweg,91,50.8005188978,4.95740671897
3300,Tienen,Doolhofstraat,32,50.7675392755,4.95289016347
3300,Tienen,Bloemenstraat,22,50.8214741818,4.88105475121
3300,Tienen,Hamelendreef,39,50.8173787745,4.95330349451
3300,Tienen,Nieuw Overlaar,49,50.7979757913,4.92741390227
3300,Tienen,Kaakstraat,15,50.8358156361,4.9265102852
3300,Tienen,Gilainstraat,76,50.8108130019,4.93565180381
3300,Tienen,Sint-Barbarastraat,215,50.8135532538,4.88563876017
3300,Tienen,Rietstraat,24,50.819285761,4.8932425872
3300,Tienen,Heelblok,23,50.7961941617,4.92752974757
3300,Tienen,Sint-Truidensesteenweg,352,50.7995086282,4.97121760171
3300,Tienen,Paependaalstraat,37,50.8255469511,4.88905721364
3300,Tienen,Hannuitsesteenweg,233,50.7877481566,4.94332307991
3300,Tienen,Kleine Bergstraat,36,50.8046841546,4.94051284121
3300,Tienen,Oorlogsvrijwilligersstraat,13,50.8075935886,4.94583510054
3300,Tienen,Raeymaeckersvest,24,50.8111030421,4.92839791391
3300,Tienen,Bostenberg,10,50.789370396,4.93502404534
3300,Tienen,Broedersblok,18,50.7895720295,4.96242868777
3300,Tienen,Utsenakenweg,115,50.8165896049,4.97600603758
3300,Tienen,Berkenhof,5,50.8067564169,4.92894869696
3300,Tienen,Zijdelingsestraat,1,50.8085144144,4.92608022653
3300,Tienen,Lijsterhof,31,50.8153967599,4.93707732831
3300,Tienen,Wulmersumsesteenweg,262,50.7917253665,4.95868272603
3300,Tienen,Diestsesteenweg,386,50.8307274302,4.94074386151
3300,Tienen,Hannuitsesteenweg,90,50.7938613215,4.93885260238
3300,Tienen,Kloosterstraat,1,50.8250511501,4.99463212525
3300,Tienen,Bergévest,25,50.8040329878,4.94686887115
3300,Tienen,Wulmersumsesteenweg,17,50.8000391854,4.95391344059
3300,Tienen,Keistraat,33,50.8022416018,4.95395334694
3300,Tienen,Spikdorenstraat,5,50.8096972663,4.92459381598
3300,Tienen,Houtemstraat,29,50.8146143682,4.9370968119
3300,Tienen,Driemolenstraat,49,50.8021997509,4.93721976083
3300,Tienen,Bergévest,1,50.8046482817,4.94644486967
3300,Tienen,Beggaardenstraat,68,50.8033494178,4.94270021833
3300,Tienen,Pastorijstraat,121,50.8026800273,4.95560741855
3300,Tienen,Oorbeeksesteenweg,149,50.7999718668,4.90034778307
3300,Tienen,Aarschotsesteenweg,318,50.8204247237,4.92507341485
3300,Tienen,Tassinstraat,9,50.817942821,4.88597911222
3300,Tienen,Gilainstraat,94,50.8112276007,4.93515323695
3300,Tienen,Zijdelingsestraat,25,50.8089291736,4.92550157987
3300,Tienen,De Scheper,26,50.8197251155,4.93546104261
3300,Tienen,Aarschotsesteenweg,364,50.8220978421,4.92450098491
3300,Tienen,Eeuwfeeststraat,37,50.8076611042,4.94424630838
3300,Tienen,Alpenstraat,1,50.8196857425,4.88451685097
3300,Tienen,Hoveniersstraat,12,50.8121271531,4.94567680647
3300,Tienen,Bloemenstraat,7,50.8199465059,4.88252040167
3300,Tienen,Waterstraat,33,50.8434464694,4.91538591214
3300,Tienen,Acacialaan,20,50.8189062907,4.92924911774
3300,Tienen,Leuvensestraat,47,50.8092027769,4.93423126941
3300,Tienen,Donystraat,77,50.8067101442,4.94543565043
3300,Tienen,Leuvenselaan,8,50.8097429559,4.92915172886
3300,Tienen,Aandorenstraat,42,50.8018145158,4.95182321559
3300,Tienen,Veldbornstraat,15,50.8074789991,4.94283067726
3300,Tienen,Breisemstraat,90,50.8142200373,4.92492019688
3300,Tienen,Rubenshof,5,50.8142012187,4.93716588563
3300,Tienen,Diestsesteenweg,105,50.816031132,4.93601092382
3300,Tienen,Beauduinstraat,17,50.8052969565,4.94123788885
3300,Tienen,Verlatstraat,31,50.8077238319,4.93057709217
3300,Tienen,Kloosterstraat,25,50.8239892449,4.99310344475
3300,Tienen,Pastorijstraat,49,50.8023108297,4.95254819692
3300,Tienen,Leuvenselaan,551,50.818639294,4.90269013057
3300,Tienen,Houtemstraat,306,50.8199962884,4.94718041008
3300,Tienen,Breynissemberg,21,50.8161494872,4.94749817239
3300,Tienen,O.L.V. ten Steenstraat,56,50.7988784939,4.96433898429
3300,Tienen,Waaibergstraat,126,50.8117509681,4.94162329595
3300,Tienen,Vierde Lansierslaan,34,50.8087831495,4.9284104359
3300,Tienen,Fabiolapark,38,50.7896796368,4.94429337344
3300,Tienen,Galgestraat,113,50.8154571174,4.91814563576
3300,Tienen,Sint-Hubertusstraat,41,50.8327622979,4.9912600721
3300,Tienen,Huiskensstraat,21,50.8227548346,4.97594238605
3300,Tienen,Oplintersesteenweg,120,50.8154415782,4.9440790907
3300,Tienen,Potterijstraat,221,50.7957940774,4.9363342023
3300,Tienen,Wulmersumsesteenweg,409,50.7873163766,4.96153964741
3300,Tienen,Leuvenselaan,224,50.8123974749,4.92084826497
3300,Tienen,Oude Weg,39,50.7887905479,4.94419909643
3300,Tienen,Dr. J. Geensstraat,28,50.8074379607,4.93389945844
3300,Tienen,Grote Markt,12,50.8084703266,4.93765415741
3300,Tienen,Leuvensestraat,61,50.8093550064,4.93364768496
3300,Tienen,Kastelweg,29,50.7966073666,4.9342415772
3300,Tienen,Sint-Katharinastraat,3,50.8030592916,4.93847318653
3300,Tienen,Putstraat,72,50.7947716953,4.98399566741
3300,Tienen,Gasthuismolenstraat,22,50.8038085112,4.94312575503
3300,Tienen,Aarschotsesteenweg,192,50.8178377312,4.9259593776
3300,Tienen,Kumtichstraat,8,50.8203979645,4.88741496102
3300,Tienen,Leuvenselaan,81,50.810789455,4.92691498616
3300,Tienen,Groot Overlaar,189,50.7921243596,4.91392160206
3300,Tienen,Grensstraat,3,50.8205157612,4.95752444723
3300,Tienen,Diestsesteenweg,258,50.8205003741,4.93630132723
3300,Tienen,Albertvest,42,50.8124852194,4.93311887781
3300,Tienen,Meerstraat,3,50.7693849357,4.95977548831
3300,Tienen,Herestraat,107,50.8329991035,4.98100852911
3300,Tienen,Stokstraat,80,50.846408079,4.99525602613
3300,Tienen,Spanuit,25,50.7933688003,4.93770016342
3300,Tienen,Diestsesteenweg,276,50.8209708068,4.93656204073
3300,Tienen,Leuvenselaan,359,50.8146433972,4.91517948236
3300,Tienen,Leuvenselaan,63,50.8107565399,4.92765227542
3300,Tienen,Beekstraat,8,50.8305189952,4.9944767271
3300,Tienen,Oplintersesteenweg,102,50.8150217595,4.94389458574
3300,Tienen,Groenstraat,52,50.800974304,4.93855799418
3300,Tienen,Steenwegstraat,23,50.8077605279,4.92787017923
3300,Tienen,Minderbroedersstraat,25,50.804828266,4.93783762743
3300,Tienen,Eeuwfeeststraat,49,50.8076793399,4.94474254367
3300,Tienen,Waaibergstraat,108,50.8116547847,4.9409783602
3300,Tienen,Vissenakenstraat,450,50.8406756908,4.92353945801
3300,Tienen,Vissenakenstraat,221,50.8227620465,4.93433020394
3300,Tienen,Danebroekstraat,39,50.8064642007,4.93469473815
3300,Tienen,Groot Overlaar,201,50.791531928,4.91301368023
3300,Tienen,Paardenbrugstraat,60,50.8036389187,4.94691381901
3300,Tienen,Bostsestraat,15,50.8032177946,4.94005677566
3300,Tienen,Potstraat,59,50.7868424356,4.94119298057
3300,Tienen,Sint-Truidensesteenweg,412,50.7988856362,4.97829890154
3300,Tienen,Aarschotsesteenweg,402,50.822986886,4.92424624417
3300,Tienen,Sint-Martinusstraat,6,50.8079288061,4.92826774402
3300,Tienen,Galgestraat,16,50.81341753,4.9198228442
3300,Tienen,Bosveldstraat,47,50.7927331008,4.97950599541
3300,Tienen,Klein Spanuit,64,50.7953659951,4.93888262571
3300,Tienen,Breisemstraat,72,50.8137819754,4.9253145959
3300,Tienen,Sliksteenvest,20,50.8106218781,4.94742739339
3300,Tienen,Torenstraat,7,50.8014212888,4.95484849039
3300,Tienen,Aandorenstraat,60,50.8016470263,4.95251001841
3300,Tienen,Soesterlaan,14,50.8232067897,4.93036771927
3300,Tienen,Broekstraat,10,50.8064140872,4.93704062021
3300,Tienen,Paardenbrugstraat,42,50.8037213634,4.94660286568
3300,Tienen,Hoegaardenstraat,19,50.8033313889,4.93812763512
3300,Tienen,Vissenakenstraat,612,50.850735118,4.91757238079
3300,Tienen,Sint-Truidensesteenweg,625,50.7965996879,4.99639206934
3300,Tienen,Spoorwegstraat,65,50.8162261596,4.88580922421
3300,Tienen,Leeuwerikweg,1,50.7956832612,4.95199538482
3300,Tienen,Kasteelstraat,45,50.8166247293,4.92737469939
3300,Tienen,Kumtichstraat,285,50.8317560011,4.9074870518
3300,Tienen,Moespikstraat,54,50.8005162899,4.93705626318
3300,Tienen,Sint-Truidensesteenweg,369,50.7988029806,4.97519152
3300,Tienen,O.L.V. Broedersstraat,5,50.8067737568,4.94095538481
3300,Tienen,Anjelierenlaan,16,50.8159906765,4.95144074915
3300,Tienen,Houbaertstraat,19,50.7925482302,4.98306804378
3300,Tienen,Distelstraat,24,50.8086784843,4.92873480991
3300,Tienen,Keienpoelweg,45,50.7959848208,4.99482270931
3300,Tienen,Aarschotsesteenweg,420,50.8237588721,4.92386081366
3300,Tienen,Houtemstraat,280,50.8195749114,4.9463474272
3300,Tienen,Kleine Bergstraat,18,50.804723234,4.94112520579
3300,Tienen,Aarschotsesteenweg,336,50.8213714916,4.92477921368
3300,Tienen,Aarschotsesteenweg,174,50.8172524148,4.92612684081
3300,Tienen,Pastorijstraat,32,50.8023423021,4.95077784314
3300,Tienen,Torsinplein,14,50.8040676498,4.93951396056
3300,Tienen,Dr. J. Geensstraat,4,50.8077310673,4.93556496435
3300,Tienen,Broedersblok,36,50.7891920526,4.96445722573
3300,Tienen,Avendorenstraat,9,50.8066776548,4.93176117139
3300,Tienen,Grijpenwegstraat,75,50.8109556654,4.91625893858
3300,Tienen,Tiensebaan,53,50.7747729188,4.95004855967
3300,Tienen,Zegestraat,47,50.8121157106,4.93728538684
3300,Tienen,Leuvenselaan,377,50.8148415643,4.91461404124
3300,Tienen,Pollepelstraat,25,50.8136919637,4.93396844194
3300,Tienen,Houtemstraat,324,50.820369417,4.94767958914
3300,Tienen,Leuvenselaan,633,50.8203664683,4.89858308609
3300,Tienen,Keibergstraat,27,50.8232279278,4.88642505426
3300,Tienen,Oude Leuvensestraat,34,50.810599571,4.93075137996
3300,Tienen,Albertvest,60,50.812384457,4.93248169917
3300,Tienen,Leuvenselaan,447,50.8155945213,4.91230252949
3300,Tienen,Swinnenstraat,14,50.8143422702,4.92111021974
3300,Tienen,Trapstraat,13,50.8061534785,4.93897973939
3300,Tienen,Spiegelstraat,6,50.8065565989,4.93864455348
3300,Tienen,Populierenstraat,43,50.832642473,4.96361801111
3300,Tienen,Pastorijstraat,402,50.8021433013,4.96493334161
3300,Tienen,Reizigersstraat,80,50.8031744201,4.94397473546
3300,Tienen,Konijnenbergstraat,63,50.7711419602,4.95212526455
3300,Tienen,Leuvenselaan,395,50.8150136008,4.91404162272
3300,Tienen,Hennemarkt,11,50.8061939544,4.94009976851
3300,Tienen,Dragonderstraat,58,50.7971062899,4.93970616942
3300,Tienen,Leuvenselaan,658,50.8219223632,4.89169896394
3300,Tienen,Nieuw Overlaar,67,50.7978143545,4.92629732721
3300,Tienen,Getestraat,54,50.7978942508,4.93331460808
3300,Tienen,Kronkelweg,18,50.8361278976,4.90955737357
3300,Tienen,Moespikstraat,72,50.800141176,4.93730834656
3300,Tienen,Vissenakenstraat,80,50.8157560025,4.93416100422
3300,Tienen,Ganzendries,194,50.8239561553,4.99839329429
3300,Tienen,Breisemstraat,54,50.8133998068,4.92580812657
3300,Tienen,Kasteelstraat,81,50.8176212483,4.92741336983
3300,Tienen,Minderbroedersstraat,1,50.8059514394,4.93791606609
3300,Tienen,Potterijstraat,80,50.7998402999,4.93834039821
3300,Tienen,Glabbeeksestraat,4,50.8386600556,4.9262920688
3300,Tienen,Beauduinstraat,126,50.8032174062,4.94587088046
3300,Tienen,Leuvenselaan,142,50.8113220873,4.92415927197
3300,Tienen,Villapark,27,50.8195768154,4.95737246699
3300,Tienen,Sint-Gillisplein,34,50.8179725623,4.88748581523
3300,Tienen,Vogelzangstraat,8,50.8164027257,4.93354780679
3300,Tienen,Maagdendalweg,24,50.8233880399,4.99521699453
3300,Tienen,Neerlintersesteenweg,46,50.8300879507,4.99376592825
3300,Tienen,Viaductstraat,52,50.8057577357,4.93001758621
3300,Tienen,Oude Heerweg,57,50.797200533,4.98159233933
3300,Tienen,Ketelmakersstraat,26,50.8103423037,4.92967846979
3300,Tienen,Sint-Truidensesteenweg,20,50.801085052,4.95495906216
3300,Tienen,Windmolenveld,55,50.8161611543,4.94357931337
3300,Tienen,Houtemstraat,571,50.8287187412,4.95821889153
3300,Tienen,Groot Overlaar,42,50.8003878426,4.92683485714
3300,Tienen,Gilainstraat,109,50.8117480549,4.93590799115
3300,Tienen,Vissenakenstraat,138,50.8180802699,4.93363282806
3300,Tienen,Leuvensestraat,124,50.8095382548,4.93089561103
3300,Tienen,Klein Spanuit,82,50.7962099293,4.93865044921
3300,Tienen,Grote Bergstraat,18,50.8042749443,4.94014283217
3300,Tienen,Verlatstraat,41,50.8080053218,4.93053604917
3300,Tienen,O.L.V. ten Steenstraat,2,50.799737327,4.96500467562
3300,Tienen,Merelhof,4,50.8153189387,4.91676586281
3300,Tienen,Aarschotsesteenweg,85,50.8168430974,4.92678937427
3300,Tienen,22e Liniestraat,1,50.8235286692,4.9525778465
3300,Tienen,Engelbeekstraat,4,50.7988244562,4.89674196383
3300,Tienen,Moespikstraat,90,50.7997172822,4.93749756089
3300,Tienen,Strijdersstraat,7,50.8119522451,4.93760607273
3300,Tienen,Avendorenstraat,70,50.806998652,4.92963316467
3300,Tienen,Oplintersesteenweg,564,50.8270156814,4.98007010931
3300,Tienen,Wulmersumsesteenweg,126,50.7973680703,4.95537456421
3300,Tienen,Jubileumlaan,63,50.8018920004,4.95683759925
3300,Tienen,Withuisstraat,5,50.8114006209,4.925888572
3300,Tienen,Oplintersesteenweg,281,50.8202792407,4.95130590017
3300,Tienen,Vianderstraat,9,50.8125223444,4.94461858557
3300,Tienen,Aarschotsesteenweg,32,50.8133206908,4.92754442864
3300,Tienen,Begijnenstraat,18,50.7987508773,4.89319312928
3300,Tienen,De Brouwerstraat,22,50.8140855053,4.91822920933
3300,Tienen,Leopoldvest,3,50.8091328173,4.94776830658
3300,Tienen,Grijpenwegstraat,57,50.8111735567,4.91689757046
3300,Tienen,Gilainstraat,51,50.8101573783,4.93737392442
3300,Tienen,Beauduinstraat,108,50.8037134417,4.94489099009
3300,Tienen,Kerkstraat,5,50.8009879446,4.95293081606
3300,Tienen,Strijdersstraat,50,50.8110524812,4.93892993809
3300,Tienen,Galgestraat,34,50.8140169134,4.91918579689
3300,Tienen,Groot Begijnhof,57,50.8013656502,4.94240049796
3300,Tienen,Kerkomstraat,20,50.8271348664,4.88249102435
3300,Tienen,Potterijstraat,203,50.7962117715,4.93634789887
3300,Tienen,Wulmersumsesteenweg,108,50.7977806683,4.95520296849
3300,Tienen,Oplintersesteenweg,546,50.8266378282,4.97905502224
3300,Tienen,Sint-Truidensesteenweg,430,50.7986505346,4.98038662636
3300,Tienen,Wolmarkt,12,50.806016106,4.93859359185
3300,Tienen,Metselstraat,61,50.8383481364,4.92251588259
3300,Tienen,Oude Leuvensestraat,16,50.8101748456,4.93130334896
3300,Tienen,Sint-Truidensesteenweg,55,50.8006011541,4.95608293091
3300,Tienen,Kerkstraat,29,50.8006847358,4.95191729577
3300,Tienen,Vianderstraat,70,50.8138695551,4.94633589355
3300,Tienen,Doolhofstraat,42,50.7672671297,4.95228175942
3300,Tienen,Leuvensestraat,106,50.8096012574,4.93172199622
3300,Tienen,Withuisstraat,29,50.8116299383,4.9265520799
3300,Tienen,Leuvenselaan,45,50.8103741552,4.92813241547
3300,Tienen,Nieuw Overlaar,85,50.798775382,4.92493530997
3300,Tienen,Aarschotsesteenweg,67,50.8164921153,4.92696301367
3300,Tienen,Groot Begijnhof,14,50.8007481089,4.94152478374
3300,Tienen,Oude Heerweg,75,50.7972298414,4.98026884567
3300,Tienen,Neerlintersesteenweg,207,50.8366057259,5.01364315553
3300,Tienen,Vierde Lansierslaan,16,50.8091647283,4.92918924233
3300,Tienen,Dahlialaan,16,50.8165121119,4.95401317153
3300,Tienen,Bostenberg,8,50.7892441707,4.93487687142
3300,Tienen,Oplintersesteenweg,499,50.8226265151,4.9677459576
3300,Tienen,Leopoldvest,27,50.8084377075,4.9475708962
3300,Tienen,Leuvenselaan,160,50.8114966239,4.9235814264
3300,Tienen,Pitsaertstraat,15,50.7649847032,4.94341482617
3300,Tienen,Putstraat,36,50.7959941885,4.98511550779
3300,Tienen,Ijzerenwegstraat,11,50.8072900417,4.92789877371
3300,Tienen,Diestsesteenweg,90,50.8159065368,4.93552751165
3300,Tienen,Dreefstraat,28,50.767125043,4.94952776979
3300,Tienen,Oude Leuvensestraat,87,50.8115358394,4.92921922749
3300,Tienen,Hoegaardenstraat,73,50.8031368713,4.93582690666
3300,Tienen,Distelstraat,59,50.8086191499,4.93018002697
3300,Tienen,Sint-Pietersstraat,60,50.8400155991,4.90776667325
3300,Tienen,Oplintersesteenweg,411,50.8217755453,4.96106431609
3300,Tienen,Wulmersumsesteenweg,362,50.7868610321,4.96272800818
3300,Tienen,Eeuwfeeststraat,14,50.8078263095,4.94364846182
3300,Tienen,Groenstraat,16,50.8013945612,4.9373422355
3300,Tienen,Aandorenstraat,7,50.8018158875,4.95004754264
3300,Tienen,Ark Van Noëstraat,52,50.8105514878,4.94531408994
3300,Tienen,Leuvenselaan,277,50.8134403041,4.91886090872
3300,Tienen,Torenstraat,39,50.8021843268,4.95492524943
3300,Tienen,Onze-Lieve-Vrouwlaan,2,50.7905055316,4.93560375509
3300,Tienen,Tiensebaan,35,50.7759978042,4.95044566891
3300,Tienen,Echostraat,7,50.8212805006,4.88348230921
3300,Tienen,Aarschotsesteenweg,128,50.816181693,4.92647329986
3300,Tienen,Acacialaan,5,50.8186209964,4.92846973565
3300,Tienen,Hollestraat,29,50.7958487977,4.9826229488
3300,Tienen,Zegestraat,1,50.8119335291,4.93560828264
3300,Tienen,Lentelaan,3,50.787575284,4.93632389239
3300,Tienen,Liefdestraat,31,50.8081352162,4.94450508911
3300,Tienen,Verbroederingsstraat,13,50.8181636842,4.88985414456
3300,Tienen,Papenkelderstraat,28,50.8063535413,4.93025141991
3300,Tienen,Oplintersesteenweg,672,50.8291681595,4.98631717108
3300,Tienen,Vondelstraat,47,50.8181750566,4.89624664176
3300,Tienen,Roosmolen,14,50.8079121513,4.95339671001
3300,Tienen,Groot Begijnhof,32,50.801274329,4.94201196226
3300,Tienen,Rozenhof,5,50.8233254309,4.92546003147
3300,Tienen,Veldstraat,15,50.8124484122,4.92508964708
3300,Tienen,Vierde Lansierslaan,69,50.8084116643,4.9267586216
3300,Tienen,Wulmersumsesteenweg,635,50.7730976088,4.97744603976
3300,Tienen,Diestsesteenweg,205,50.8190756139,4.93675654663
3300,Tienen,Sint-Truidensesteenweg,440,50.7985256265,4.98104716986
3300,Tienen,Kapelstraat,19,50.806190931,4.94209676862
3300,Tienen,Houtemstraat,369,50.8201832199,4.9480102333
3300,Tienen,Maalderijweg,70,50.8110290176,4.88934735537
3300,Tienen,Gilainstraat,4,50.808505383,4.9377659594
3300,Tienen,Veemarkt,13,50.8051826029,4.94022664897
3300,Tienen,Gallicstraat,80,50.7869692232,4.9317948735
3300,Tienen,Waterstraat,124,50.8453316793,4.91873447572
3300,Tienen,Aarschotsesteenweg,14,50.8126594725,4.9278111307
3300,Tienen,Berkenhof,12,50.806569622,4.92845713882
3300,Tienen,Biezenstraat,4,50.8011470977,4.92608662538
3300,Tienen,Oplintersesteenweg,58,50.814137793,4.94272104196
3300,Tienen,Hoegaardenstraat,91,50.8029442351,4.93517370353
3300,Tienen,Vissenakenstraat,640,50.8525906796,4.91897389287
3300,Tienen,Leuvensestraat,8,50.8080523915,4.93533672329
3300,Tienen,Oude Leuvensestraat,69,50.8111093376,4.92958064177
3300,Tienen,Strijdersstraat,39,50.8112309212,4.93832240009
3300,Tienen,Bosveldstraat,1,50.7923521952,4.98299272105
3300,Tienen,Meerstraat,45,50.7708511987,4.96642757734
3300,Tienen,Moespikstraat,18,50.801354921,4.93674877831
3300,Tienen,Pastorijstraat,182,50.803109784,4.95738965981
3300,Tienen,Merelhof,11,50.8150808938,4.91705256569
3300,Tienen,Nieuw Overlaar,128,50.7986365263,4.92439746504
3300,Tienen,Vissenakenstraat,493,50.8419318522,4.92268053747
3300,Tienen,Grote Markt,40,50.8073102978,4.9360192918
3300,Tienen,Hoegaardenstraat,55,50.8031656935,4.93664993607
3300,Tienen,Viaductstraat,213,50.8020948741,4.92737420477
3300,Tienen,Groenhofstraat,20,50.8209801844,4.8857189278
3300,Tienen,Klein Spanuit,28,50.7941846437,4.93954401795
3300,Tienen,Sint-Jorisstraat,4,50.7973531363,4.89224927822
3300,Tienen,Veldbornstraat,86,50.8104843555,4.94229033601
3300,Tienen,Breisemstraat,36,50.8131263859,4.9265149324
3300,Tienen,Oplintersesteenweg,536,50.8264186336,4.97835157387
3300,Tienen,Aarschotsesteenweg,264,50.8195800099,4.92507958969
3300,Tienen,Hoegaardenstraat,5,50.8037112197,4.93823679368
3300,Tienen,Herestraat,207,50.8389723119,4.97830312877
3300,Tienen,Veldstraat,33,50.812605895,4.92499913858
3300,Tienen,Veemarkt,31,50.8054382013,4.9393204931
3300,Tienen,Broedersblok,79,50.7873789281,4.96638511326
3300,Tienen,Heelblok,4,50.7974342914,4.928306361
3300,Tienen,Herestraat,92,50.8312490578,4.9834265739
3300,Tienen,Romeinsebaan,29,50.8372272878,4.91514783752
3300,Tienen,Glabbeeksestraat,11,50.8386336309,4.92717780854
3300,Tienen,Aststraat,201,50.7723452676,4.94207186918
3300,Tienen,Meendijkstraat,17,50.803789954,4.93729730468
3300,Tienen,Waterstraat,106,50.8446124208,4.91733240931
3300,Tienen,Hergiswillaan,14,50.8195415098,4.89127509647
3300,Tienen,Vissenakenstraat,504,50.8424433702,4.9210243603
3300,Tienen,Beauduinstraat,101,50.803597702,4.94442410375
3300,Tienen,Oude Vestenstraat,16,50.8096061935,4.93611752641
3300,Tienen,Kumtichstraat,63,50.8211488822,4.88948037871
3300,Tienen,Tiensebaan,172,50.7666314245,4.94765602065
3300,Tienen,Valkenswaardlaan,16,50.8225090624,4.93244963982
3300,Tienen,Wulmersumsesteenweg,71,50.7982715361,4.95448125248
3300,Tienen,Baroniestraat,7,50.7639501997,4.94504603945
3300,Tienen,Kapelstraat,37,50.8056533118,4.9421934933
3300,Tienen,Kabbeekvest,33,50.8129171326,4.93666066944
3300,Tienen,Leuvenselaan,259,50.8131191181,4.91979295142
3300,Tienen,Elsenbosweg,29,50.8170735167,4.92370490482
3300,Tienen,Violetstraat,33,50.8088735107,4.93079032644
3300,Tienen,Leuvenselaan,314,50.8133545218,4.91794609029
3300,Tienen,Slachthuisstraat,103,50.8057153316,4.95162248428
3300,Tienen,Villapark,10,50.8198505686,4.95742372287
3300,Tienen,Houtemstraat,387,50.8205589535,4.94843650688
3300,Tienen,Potstraat,24,50.789406982,4.94113954048
3300,Tienen,Bosveldstraat,61,50.7927820697,4.97897687616
3300,Tienen,Vissenakenstraat,52,50.8151222347,4.93434366788
3300,Tienen,Kumtichstraat,45,50.8205969251,4.88907234785
3300,Tienen,Veldbornstraat,68,50.8101023653,4.9424025884
3300,Tienen,Aarschotsesteenweg,282,50.8201946708,4.92514973836
3300,Tienen,Kauterstraat,3,50.8212279312,4.89235598579
3300,Tienen,Valkenswaardlaan,34,50.8233438352,4.93099610699
3300,Tienen,Diestsesteenweg,168,50.8179681439,4.93598010261
3300,Tienen,Hannuitsesteenweg,36,50.7957889308,4.9375052033
3300,Tienen,Potterijstraat,131,50.7983188657,4.93670967549
3300,Tienen,Acacialaan,19,50.8186232348,4.92926078333
3300,Tienen,Broekstraat,98,50.8060562109,4.9333234283
3300,Tienen,Pastorijstraat,128,50.8028904669,4.95534121109
3300,Tienen,Reizigersstraat,52,50.8030053289,4.94274623647
3300,Tienen,O.L.V. Broedersstraat,12,50.8070215985,4.94104920455
3300,Tienen,Broekstraat,47,50.8061782805,4.9347406672
3300,Tienen,Stokstraat,9,50.8406224214,4.99476397532
3300,Tienen,Hamelendreef,57,50.8161003645,4.95500365071
3300,Tienen,Pastorijstraat,60,50.8024142161,4.95159175675
3300,Tienen,Ganzendries,75,50.8264255261,4.99314973495
3300,Tienen,Oude Heerweg,118,50.7970953897,4.97608398563
3300,Tienen,Mulkstraat,84,50.8020764592,4.93078833804
3300,Tienen,Goossensvest,88,50.8052913982,4.93269865499
3300,Tienen,Wulmersumsesteenweg,208,50.7944709958,4.95675056974
3300,Tienen,Hoveniersstraat,40,50.8116258563,4.94655605599
3300,Tienen,Pastorijstraat,336,50.8034167581,4.96388407274
3300,Tienen,Aarschotsesteenweg,311,50.8221664468,4.9251229947
3300,Tienen,Paependaalstraat,20,50.8256851393,4.8871691855
3300,Tienen,Drijboomstraat,25,50.7738125192,4.97892482517
3300,Tienen,Potterijstraat,52,50.800309039,4.93887449845
3300,Tienen,Beauduinstraat,71,50.8040964874,4.94299137806
3300,Tienen,Aarschotsesteenweg,798,50.8479113397,4.90689811337
3300,Tienen,Sint-Hubertusstraat,84,50.8340208478,4.98989434588
3300,Tienen,Ganzendries,22,50.8285706883,4.99169848728
3300,Tienen,Diestsesteenweg,54,50.8149436446,4.93528388658
3300,Tienen,Vissenakenstraat,166,50.8205023755,4.93376881774
3300,Tienen,Pastorijstraat,42,50.8023847656,4.95104266162
3300,Tienen,Oplintersesteenweg,245,50.8196087611,4.94917338858
3300,Tienen,Delportestraat,18,50.8084222268,4.93181754499
3300,Tienen,Leuvenselaan,415,50.8152309173,4.91341679553
3300,Tienen,Sint-Truidensesteenweg,269,50.799513293,4.96711931135
3300,Tienen,Slachthuisstraat,121,50.805947077,4.95243702407
3300,Tienen,Pastorijstraat,146,50.8029690697,4.95601619665
3300,Tienen,Pollepelstraat,78,50.8148693904,4.93267697234
3300,Tienen,Houtemstraat,252,50.81890201,4.94509102297
3300,Tienen,Breynissemberg,2,50.8146747159,4.94720400875
3300,Tienen,Potterijstraat,166,50.7975314979,4.93699421407
3300,Tienen,Romeinsebaan,40,50.8378556966,4.91356053735
3300,Tienen,Konijnenbergstraat,45,50.7718489053,4.95254488938
3300,Tienen,Kerkomstraat,174,50.8383276994,4.88207186999
3300,Tienen,Dalweg,34,50.831784638,4.98604836073
3300,Tienen,Diestsesteenweg,18,50.8140933342,4.93512705167
3300,Tienen,Pastorijstraat,14,50.802359256,4.95018846675
3300,Tienen,Donystraat,70,50.8070643536,4.94614513106
3300,Tienen,Zegestraat,15,50.8119856093,4.93599202127
3300,Tienen,Herestraat,225,50.8395361103,4.9763391033
3300,Tienen,Breisemstraat,89,50.8144861914,4.92517351747
3300,Tienen,Violetstraat,15,50.8092856154,4.93159278855
3300,Tienen,Vissenakenstraat,338,50.8351052987,4.92767176023
3300,Tienen,Oplintersesteenweg,76,50.8144116107,4.94358486942
3300,Tienen,Koffiestraat,10,50.8346081405,4.88269785389
3300,Tienen,Populierenstraat,25,50.8317943489,4.96243559017
3300,Tienen,Waterstraat,68,50.8437968244,4.91549634052
3300,Tienen,Potterijstraat,148,50.7979772429,4.93717393753
3300,Tienen,Keistraat,8,50.8016505851,4.95345386915
3300,Tienen,Violetstraat,1,50.8094830232,4.93206195519
3300,Tienen,Groenstraat,34,50.8009295013,4.93786276548
3300,Tienen,Kabbeekvest,1,50.8129259976,4.93531362026
3300,Tienen,Aarschotsesteenweg,555,50.8364730557,4.91934907331
3300,Tienen,Grijpenwegstraat,290,50.8126135827,4.88996909878
3300,Tienen,Sint-Martinusstraat,13,50.8078289632,4.92865530653
3300,Tienen,Sint-Truidensesteenweg,583,50.7971553936,4.99093050582
3300,Tienen,Lindebaan,76,50.8285453025,4.99124847354
3300,Tienen,Wijnmeerstraat,53,50.8366121996,4.99404568669
3300,Tienen,Leuvenselaan,433,50.8154328438,4.91281434693
3300,Tienen,Kliniekstraat,50,50.8115826791,4.93266263969
3300,Tienen,Houtemstraat,180,50.8175150899,4.94320009374
3300,Tienen,Huiskensstraat,2,50.8240835647,4.97439222949
3300,Tienen,Leuvenselaan,705,50.8218099537,4.89339495452
3300,Tienen,Dragonderstraat,11,50.7967563053,4.93789932839
3300,Tienen,Zegestraat,33,50.8120978118,4.93665757725
3300,Tienen,Vissenakenstraat,113,50.817187318,4.93435703479
3300,Tienen,Werkmanssteeg,43,50.8168654444,4.9374264489
3300,Tienen,Vinkenhof,8,50.8157401179,4.93753273672
3300,Tienen,Beauduinstraat,3,50.8055365823,4.94091606002
3300,Tienen,Sint-Barbarastraat,89,50.8169634812,4.87855922371
3300,Tienen,Kapellenblokstraat,20,50.8339349803,4.88185903704
3300,Tienen,Oplintersesteenweg,654,50.828973416,4.98562220433
3300,Tienen,Astridvest,57,50.8074851159,4.93122078088
3300,Tienen,Viaductstraat,231,50.8017249072,4.9274942197
3300,Tienen,Lindebaan,23,50.8274769702,4.98786933825
3300,Tienen,Rozenhof,19,50.8237252957,4.92648054916
3300,Tienen,Beauduinstraat,53,50.804398112,4.94253029786
3300,Tienen,Nieuw Overlaar,42,50.799037651,4.92745688125
3300,Tienen,Bietenweg,2,50.796552229,4.95453245258
3300,Tienen,Hoegaardenstraat,37,50.8032180879,4.93731989436
3300,Tienen,Goossensvest,108,50.8057491796,4.93237783898
3300,Tienen,Pastorijstraat,164,50.803039417,4.95668739273
3300,Tienen,Vissenakenstraat,374,50.8371508748,4.92666442189
3300,Tienen,Potterijstraat,113,50.7987188659,4.93709027714
3300,Tienen,Bosschelstraat,25,50.7996443817,4.98761819713
3300,Tienen,Houbaertstraat,73,50.7894057358,4.98198186959
3300,Tienen,Sint-Pietersstraat,182,50.8353214063,4.90702483991
3300,Tienen,Oplintersesteenweg,23,50.813220784,4.94349935209
3300,Tienen,Hannuitsesteenweg,89,50.7930044484,4.93900943386
3300,Tienen,Klein Spanuit,46,50.7949306058,4.93916102725
3300,Tienen,Kabbeekvest,61,50.8126323007,4.93818486481
3300,Tienen,Wulmersumsesteenweg,3,50.8004891418,4.95376725441
3300,Tienen,Meierstraat,27,50.794245578,4.97556448507
3300,Tienen,Kapelstraat,5,50.806707301,4.94176809757
3300,Tienen,Veldbornstraat,8,50.8073739119,4.94204111427
3300,Tienen,Sint-Truidensesteenweg,287,50.7994321486,4.96786812558
3300,Tienen,Lombardstraat,26,50.804345535,4.94131596014
3300,Tienen,Gallicstraat,34,50.7891349831,4.93807368383
3300,Tienen,Uilstraat,116,50.8451033896,4.98706561404
3300,Tienen,Veldstraat,61,50.8142863202,4.92391065721
3300,Tienen,Kauterstraat,17,50.8208966545,4.89175325298
3300,Tienen,Swinnenstraat,7,50.8149376056,4.92121853673
3300,Tienen,Sint-Truidensesteenweg,116,50.800875622,4.95935069057
3300,Tienen,Sint-Gillisplein,9,50.8197158902,4.88754083009
3300,Tienen,Oude Weg,22,50.7890691715,4.94313273064
3300,Tienen,Spiegelstraat,13,50.806640188,4.93800144734
3300,Tienen,Lisstraat,4,50.8183980546,4.89150603905
3300,Tienen,Danebroekstraat,22,50.8065461162,4.93508134447
3300,Tienen,Pastorijstraat,282,50.8029044974,4.96225847234
3300,Tienen,Ganzendries,141,50.8246155262,4.99511485046
3300,Tienen,Broekstraat,106,50.8061298913,4.93303276038
3300,Tienen,Herestraat,21,50.8303305659,4.98697846321
3300,Tienen,Torsinplein,7,50.8035445094,4.93918599367
3300,Tienen,Groot Overlaar,218,50.7916820952,4.91435700015
3300,Tienen,Leopoldvest,45,50.8077604791,4.94697488679
3300,Tienen,Hakendoverstraat,16,50.7956938146,4.98119822662
3300,Tienen,Aarschotsesteenweg,419,50.8262622202,4.92373781848
3300,Tienen,Vissenakenstraat,593,50.847638825,4.91882724952
3300,Tienen,Oplintersesteenweg,636,50.8287302413,4.98459715611
3300,Tienen,Oplintersesteenweg,363,50.82109532,4.95623938266
3300,Tienen,Eeuwfeeststraat,60,50.8079336979,4.94550231087
3300,Tienen,Houtemstraat,643,50.8328339896,4.96004342929
3300,Tienen,Bruulstraat,25,50.8184168515,4.88418603049
3300,Tienen,Groot Overlaar,85,50.798143791,4.92088395348
3300,Tienen,Soesterlaan,7,50.8222928909,4.93021628843
3300,Tienen,Aarschotsesteenweg,437,50.8276391832,4.92318888476
3300,Tienen,Kerkstraat,12,50.8005903036,4.95261009626
3300,Tienen,Vissenakenstraat,356,50.8360286627,4.92730909782
3300,Tienen,Vogelzangstraat,10,50.8163766633,4.9334715738
3300,Tienen,Groenhofstraat,55,50.8224481234,4.88521067698
3300,Tienen,Ark Van Noëstraat,34,50.8104913437,4.94454743871
3300,Tienen,Roosmolen,60,50.8076165198,4.95412498978
3300,Tienen,Hoegaardenstraat,20,50.8033376674,4.93855543919
3300,Tienen,Oplintersesteenweg,446,50.8239488086,4.97183150575
3300,Tienen,Kastelweg,30,50.7962145457,4.93488451593
3300,Tienen,Donystraat,24,50.8066086945,4.9438367328
3300,Tienen,Sporthalstraat,1,50.8194005616,4.94522401143
3300,Tienen,Withuisstraat,12,50.8115110143,4.92515190527
3300,Tienen,Sparrenstraat,6,50.8209625503,4.88409106378
3300,Tienen,Avendorenstraat,95,50.807413062,4.92886827671
3300,Tienen,Begijnenstraat,90,50.8003192057,4.89686004391
3300,Tienen,Hakendoverstraat,34,50.794862818,4.98120895962
3300,Tienen,Leuvenselaan,98,50.810752234,4.9258211485
3300,Tienen,Sliksteenvest,19,50.810720726,4.94605200313
3300,Tienen,Pastorijstraat,264,50.8030725517,4.96175540902
3300,Tienen,St.-Lambertusstraat,20,50.7911719418,4.90865491769
3300,Tienen,Leuvensestraat,68,50.809111413,4.93339887147
3300,Tienen,Bostsestraat,8,50.803508894,4.94038675097
3300,Tienen,Diestsesteenweg,36,50.8145293631,4.93521560349
3300,Tienen,Viaductstraat,34,50.8060567657,4.93051786136
3300,Tienen,Aandorenstraat,49,50.8015592546,4.95174060627
3300,Tienen,Roosmolen,42,50.8068500887,4.9540796894
3300,Tienen,Peperstraat,16,50.8065089486,4.93783244357
3300,Tienen,Oplintersesteenweg,231A,50.8192506577,4.94818279823
3300,Tienen,Houtemstraat,525,50.8283461454,4.9558681918
3300,Tienen,Avendorenstraat,59,50.8071627505,4.92994498511
3300,Tienen,Heidestraat,46,50.8402955525,4.90264165199
3300,Tienen,Kauterstraat,35,50.8202363961,4.89077703434
3300,Tienen,Pastorijstraat,246,50.8031558087,4.9606700462
3300,Tienen,Diestsesteenweg,251,50.8203172551,4.93704177103
3300,Tienen,Vianderstraat,95,50.8145714562,4.95001024274
3300,Tienen,Slachthuisstraat,91,50.8056015228,4.95100775274
3300,Tienen,Dennenstraat,4,50.8217872506,4.88246006673
3300,Tienen,Groot Overlaar,67,50.7984474142,4.92260761398
3300,Tienen,Aarschotsesteenweg,42,50.8135397044,4.92746473306
3300,Tienen,Meerstraat,10,50.7697163967,4.96004220378
3300,Tienen,Vianderdal,22,50.8163644018,4.95028033478
3300,Tienen,Bronstraat,1,50.8143228705,4.94899868439
3300,Tienen,Sint-Truidensesteenweg,37,50.8007229252,4.95526677713
3300,Tienen,Sint-Martinusstraat,31,50.8080429571,4.92928652988
3300,Tienen,Hannuitsesteenweg,133,50.7912237181,4.94009850317
3300,Tienen,Sint-Truidensesteenweg,252,50.8001617379,4.96824313443
3300,Tienen,Leuvenselaan,195,50.8122607669,4.92238407281
3300,Tienen,Walenberg,6,50.7907331884,4.94205474132
3300,Tienen,Oplintersesteenweg,464,50.8243221233,4.97267539133
3300,Tienen,Metselstraat,86,50.8392362306,4.92409304757
3300,Tienen,Potterijstraat,184,50.7970367346,4.93683773199
3300,Tienen,Sint-Katharinastraat,10,50.8031670204,4.93885469383
3300,Tienen,Pollepelstraat,129,50.8165974756,4.93217975624
3300,Tienen,Getestraat,18,50.797623904,4.93555045319
3300,Tienen,Kapucijnenstraat,34,50.8050309734,4.94566275264
3300,Tienen,Wijnmeerstraat,35,50.8352921488,4.99476561489
3300,Tienen,Beauduinstraat,88,50.8040674104,4.94373186236
3300,Tienen,Eeuwfeeststraat,42,50.8079035817,4.94469903928
3300,Tienen,Delportestraat,36,50.8087934966,4.93129645925
3300,Tienen,Bunsbeekstraat,31,50.8295343281,4.95529496192
3300,Tienen,Beemdstraat,8,50.7918432917,4.98115416069
3300,Tienen,Wulmersumsesteenweg,190,50.7949791358,4.95647622145
3300,Tienen,Pastorijstraat,318,50.803135031,4.96340326649
3300,Tienen,De Brouwerstraat,50,50.8147649282,4.91947878812
3300,Tienen,Herestraat,100,50.831444311,4.9827080122
3300,Tienen,Dr. J. Geensstraat,11,50.8077868599,4.93455020194
3300,Tienen,Hannuitsesteenweg,18,50.7964316431,4.93698205168
3300,Tienen,Potterijstraat,69,50.8003814762,4.93860201727
3300,Tienen,Wulmersumsesteenweg,35,50.7994214411,4.95415669116
3300,Tienen,Sint-Truidensesteenweg,525,50.797806612,4.98360189618
3300,Tienen,Oplintersesteenweg,227,50.819148803,4.94789203641
3300,Tienen,Vissenakenstraat,69,50.8158876868,4.93455523864
3300,Tienen,Oplintersesteenweg,518,50.8261108451,4.97730988584
3300,Tienen,Groenhofstraat,91,50.8243405639,4.88345509972
3300,Tienen,Groot Overlaar,49,50.7993996774,4.92405653249
3300,Tienen,Albertvest,32,50.8125399007,4.93348689908
3300,Tienen,Slachthuisstraat,20,50.8057963046,4.94887737051
3300,Tienen,Vianderstraat,77,50.8143401099,4.94773201413
3300,Tienen,Vissenakenstraat,475,50.8407598362,4.92395659376
3300,Tienen,Daelhemstraat,24,50.8479408836,4.91976387729
3300,Tienen,Groot Overlaar,111,50.7968660072,4.92043758607
3300,Tienen,Moespikstraat,89,50.7998013195,4.9371867784
3300,Tienen,Pollepelstraat,43,50.8140900113,4.93360074559
3300,Tienen,Beekstraat,27,50.8312323671,4.99224694271
3300,Tienen,Reizigersstraat,69,50.802831539,4.94307919945
3300,Tienen,Groot Overlaar,164,50.7936873867,4.91672144354
3300,Tienen,Leuvensestraat,86,50.8093674101,4.93271607677
3300,Tienen,Breisemstraat,168,50.8160454475,4.92353240835
3300,Tienen,Vierde Lansierslaan,9,50.8094784078,4.92905294317
3300,Tienen,Dahlialaan,9,50.8158334318,4.95333648867
3300,Tienen,Sint-Barbarastraat,18,50.8191113424,4.88393437525
3300,Tienen,Aandorenstraat,32,50.8018764483,4.95139158718
3300,Tienen,Breisemstraat,133,50.8161073008,4.92402469758
3300,Tienen,Hannuitsesteenweg,506,50.7715655621,4.9574548777
3300,Tienen,Metselstraat,68,50.8383827,4.92305791408
3300,Tienen,Molenstraat,71,50.8051114313,4.94989692171
3300,Tienen,Leuvenselaan,106,50.810879961,4.92565509168
3300,Tienen,Boomgaardendreef,3,50.8106224191,4.94893440078
3300,Tienen,Wulmersumsesteenweg,88,50.7982438527,4.95503668187
3300,Tienen,Aandorenstraat,67,50.8013427115,4.95249332919
3300,Tienen,Oude Leuvensestraat,9,50.8104634301,4.9321796994
3300,Tienen,Groot Overlaar,146,50.7942637794,4.91747778261
3300,Tienen,Mulkstraat,66,50.80212203,4.93146344111
3300,Tienen,Vissenakenstraat,34,50.814647122,4.93454810328
3300,Tienen,Sint-Barbarastraat,168,50.8153986577,4.88280682933
3300,Tienen,Tiensebaan,3,50.7778702296,4.95142152012
3300,Tienen,Slachthuisstraat,73,50.8054822618,4.95024129417
3300,Tienen,Onze-Lieve-Vrouwlaan,38,50.7892677657,4.93089714368
3300,Tienen,Kerkomstraat,19,50.8268872778,4.88312802577
3300,Tienen,Meendijkstraat,3,50.8038421725,4.93783632617
3300,Tienen,Viaductstraat,16,50.8063145516,4.93101367687
3300,Tienen,Kasteelstraat,27,50.8160270008,4.92746763495
3300,Tienen,Sint-Hubertusstraat,66,50.8333580041,4.99047442193
3300,Tienen,Kerkomstraat,103,50.8335908623,4.88394502833
3300,Tienen,Potterijstraat,34,50.8006655546,4.93913757346
3300,Tienen,Begijnenstraat,151,50.8016171189,4.90166782719
3300,Tienen,Leuvenselaan,159,50.8118550273,4.9236239696
3300,Tienen,Kerkstraat,83,50.8001876461,4.9504075817
3300,Tienen,Gilainstraat,155,50.8126671778,4.93525828203
3300,Tienen,Ketelmakersstraat,44,50.8106695256,4.92954900087
3300,Tienen,Galgestraat,9,50.812961374,4.92070292133
3300,Tienen,De Brouwerstraat,39,50.8153934153,4.9214989044
3300,Tienen,Oude Kleerkopersstraat,32,50.8049551477,4.93934456296
3300,Tienen,Breynissemberg,16A,50.8155451447,4.94676105959
3300,Tienen,Goossensvest,53,50.8061531638,4.93258741023
3300,Tienen,Goetsenhovenplein,13,50.7663471033,4.94966190354
3300,Tienen,Sint-Truidensesteenweg,134,50.8005702594,4.96039589801
3300,Tienen,Grimdeveld,14,50.8023608727,4.9576681218
3300,Tienen,Jubileumlaan,27,50.802210327,4.95848237641
3300,Tienen,Kerkstraat,30,50.8004193278,4.95203075175
3300,Tienen,Begijnenstraat,54,50.7996687215,4.89473966174
3300,Tienen,Kerkstraat,65,50.8003744588,4.9509313634
3300,Tienen,Reizigersstraat,87,50.80305406,4.94473947997
3300,Tienen,Minderbroedersstraat,43,50.8041698164,4.93810275185
3300,Tienen,Withuisstraat,30,50.8118221859,4.92614642253
3300,Tienen,Oude Diestsebaan,93,50.823335929,4.93889566579
3300,Tienen,Leuvenselaan,177,50.8120598126,4.92301752626
3300,Tienen,Vissenakenstraat,404,50.8388480725,4.92518719081
3300,Tienen,Sint-Truidensesteenweg,429,50.7985118915,4.9777354387
3300,Tienen,Sint-Helenavest,6,50.8024620486,4.93520449274
3300,Tienen,Mulkstraat,13,50.8027852621,4.93410198388
3300,Tienen,Oplintersesteenweg,482,50.8249243646,4.97436176727
3300,Tienen,Sint-Truidensesteenweg,19,50.8007833397,4.95456632099
3300,Tienen,Leuvenselaan,651,50.8205243143,4.89697509143
3300,Tienen,Oude Leuvensestraat,52,50.8108895359,4.93038678731
3300,Tienen,Dragonderstraat,51,50.7968714393,4.9394552258
3300,Tienen,Generaal Guffensstraat,13,50.8081894751,4.94597337511
3300,Tienen,Aarschotsesteenweg,246,50.8191904462,4.92552172246
3300,Tienen,Vierde Lansierslaan,52,50.8084737731,4.927684146
3300,Tienen,Avendorenstraat,77,50.8072894662,4.92946595613
3300,Tienen,Houtemstraat,352,50.8209912434,4.94842481077
3300,Tienen,Aandorenstraat,85,50.8011592232,4.95321467962
3300,Tienen,Sint-Truidensesteenweg,5,50.8009200244,4.95398370495
3300,Tienen,Sint-Rochusstraat,20,50.7700856928,4.94989337203
3300,Tienen,Ark Van Noëstraat,16,50.8101926003,4.94376311328
3300,Tienen,Vondelstraat,8,50.8205364264,4.89346233304
3300,Tienen,Molenstraat,53,50.8045137895,4.94976894128
3300,Tienen,Groenhofstraat,42,50.8223787694,4.88466989603
3300,Tienen,Zoutleeuwstraat,6,50.7736645813,4.9777101379
3300,Tienen,Moespikstraat,36,50.8009796264,4.93681602347
3300,Tienen,Sint-Truidensesteenweg,643,50.7965041342,4.99883283108
3300,Tienen,Sint-Laurentiusstraat,61,50.7684156854,4.95230054628
3300,Tienen,Gallicstraat,16,50.7896314508,4.93909814448
3300,Tienen,Daalstraat,39,50.8175870284,4.88881422468
3300,Tienen,Kleine Molenstraat,24,50.8035051747,4.96210447102
3300,Tienen,Kastelweg,12,50.7968078622,4.93520372579
3300,Tienen,Steenwegstraat,4,50.8083646602,4.9276602889
3300,Tienen,Neerlintersesteenweg,28,50.8297535653,4.99269673298
3300,Tienen,Leopoldvest,63,50.8072162688,4.94716752962
3300,Tienen,Vissenakenstraat,457,50.839975907,4.92488934214
3300,Tienen,Gilainstraat,102,50.811444698,4.93513627303
3300,Tienen,Leuvenselaan,124,50.8111234605,4.92473597688
3300,Tienen,Grote Markt,29,50.8067213023,4.93686755699
3300,Tienen,Schansstraat,1,50.81593009,4.92603438248
3300,Tienen,Heidestraat,18,50.8393325661,4.90358803836
3300,Tienen,Vinckenboschvest,20,50.80236607,4.94136745706
3300,Tienen,Kerkstraat,35,50.8006255981,4.95175172219
3300,Tienen,Kleine Molenstraat,32,50.8035903864,4.96244375966
3300,Tienen,Pastorijstraat,113,50.8026338431,4.95531573527
3300,Tienen,Distelstraat,42,50.808888766,4.92940899136
3300,Tienen,Leeuwerikweg,6,50.7957854042,4.95292899359
3300,Tienen,Sint-Pietersstraat,77,50.8415103925,4.90726389747
3300,Tienen,Avendorenstraat,14,50.8063837,4.93185171306
3300,Tienen,Mulkstraat,109,50.8018208818,4.92893114553
3300,Tienen,Gozewijnstraat,8,50.769059461,4.94912027142
3300,Tienen,Pollepelstraat,41,50.814041157,4.93362754473
3300,Tienen,Bosveldstraat,58,50.7926520366,4.97706779034
3300,Tienen,Sint-Barbarastraat,188,50.8146382582,4.88404297135
3300,Tienen,Schansstraat,40,50.8155409213,4.92474852146
3300,Tienen,Tramstraat,173,50.8076245721,4.92332260339
3300,Tienen,Jubileumlaan,20,50.8013488554,4.9576013916
3300,Tienen,Galgestraat,39,50.8137150806,4.92003563338
3300,Tienen,Bostsestraat,3,50.8034595348,4.93996423793
3300,Tienen,Diestsesteenweg,378,50.8232990089,4.93741108835
3300,Tienen,Avendorenstraat,48,50.806797589,4.93041208127
3300,Tienen,Leopoldvest,37,50.8081328764,4.94744044139
3300,Tienen,Hortensialaan,7,50.8132944758,4.92330268839
3300,Tienen,Withuisstraat,35,50.8116855515,4.926710098
3300,Tienen,Pastorijstraat,374,50.8028634146,4.9635155921
3300,Tienen,Moespikstraat,11,50.8014737804,4.9363569761
3300,Tienen,Broekstraat,55,50.8062012917,4.93440654441
3300,Tienen,Piepelboomstraat,80,50.8029455787,4.96611107515
3300,Tienen,Donystraat,49,50.8064536897,4.94426131555
3300,Tienen,Villapark,19,50.8199516454,4.95693466597
3300,Tienen,Potterijstraat,128,50.7985600501,4.93741603534
3300,Tienen,Veeweidestraat,20,50.8405199941,4.96497815122
3300,Tienen,Beauduinstraat,142,50.8031412853,4.94639456683
3300,Tienen,Houtemstraat,453,50.8257669392,4.95247395058
3300,Tienen,O.L.V. ten Steenstraat,38,50.7989973403,4.96326055607
3300,Tienen,Paardenbrugstraat,24,50.8035582858,4.94623881474
3300,Tienen,Kummenbaan,101,50.8290562285,4.99840601387
3300,Tienen,Vissenakenstraat,570,50.8466911775,4.91839469863
3300,Tienen,Oude Diestsebaan,16,50.8163837268,4.93843340121
3300,Tienen,O.L.V. ten Steenstraat,62,50.7988199018,4.96456421436
3300,Tienen,Wulmersumsesteenweg,160,50.79610614,4.95620208403
3300,Tienen,Diestsesteenweg,135,50.817348321,4.93632696548
3300,Tienen,Broekstraat,73,50.806213854,4.9336855436
3300,Tienen,Oude Kleerkopersstraat,24,50.8048720466,4.93903810502
3300,Tienen,Pastorijstraat,392,50.8024655667,4.96320583251
3300,Tienen,Bostsestraat,51,50.8019008657,4.94020419193
3300,Tienen,Sint-Genovevaplein,14,50.82938157,4.9885649946
3300,Tienen,Pastorijstraat,131,50.8027154282,4.95598763334
3300,Tienen,Kumtichstraat,369,50.836273749,4.91730001617
3300,Tienen,Oude Weg,16,50.7882750013,4.94194137199
3300,Tienen,Vissenakenstraat,128,50.8173553664,4.93394170395
3300,Tienen,Vianderdal,16,50.8169179821,4.94983081137
3300,Tienen,Houtemstraat,360,50.8211671682,4.94864397816
3300,Tienen,Gilainstraat,68,50.8101599714,4.9355975279
3300,Tienen,Oplintersesteenweg,61,50.8142410947,4.94396477702
3300,Tienen,Aandorenstraat,24,50.8021805175,4.95087954165
3300,Tienen,Sliksteenvest,45,50.8099525952,4.94711551338
3300,Tienen,Kumtichstraat,108,50.8233412182,4.89292610265
3300,Tienen,Herestraat,286,50.8392031082,4.97498943554
3300,Tienen,Hamelendreef,80,50.8117086167,4.95810382858
3300,Tienen,Leopoldvest,19,50.8086479492,4.94763179978
3300,Tienen,Oude Leuvensestraat,50,50.8109068901,4.93040473092
3300,Tienen,Vissenakenstraat,22,50.8143680091,4.93467372903
3300,Tienen,Houtemstraat,206,50.8178714252,4.94399191261
3300,Tienen,Vianderstraat,32,50.8130928668,4.94497875768
3300,Tienen,Ketelmakersstraat,38,50.8105430502,4.92952776887
3300,Tienen,Ijzerenwegstraat,18,50.807495593,4.92749445243
3300,Tienen,Leuvenselaan,179,50.8120662243,4.92295445962
3300,Tienen,Minderbroedersstraat,41,50.8042232504,4.93809573828
3300,Tienen,Getestraat,64,50.7981517162,4.93215920409
3300,Tienen,Sint-Gillisplein,39,50.8179905291,4.88673757955
3300,Tienen,Onze-Lieve-Vrouwlaan,9,50.7906052487,4.93439246796
3300,Tienen,Sint-Truidensesteenweg,400,50.7990500762,4.97760538038
3300,Tienen,Sint-Barbarastraat,207,50.8135895911,4.88514578465
3300,Tienen,Houtemstraat,530,50.8286716487,4.95628418011
3300,Tienen,Oplintersesteenweg,418,50.8235158968,4.96990069451
3300,Tienen,Pastorijstraat,95,50.8025405768,4.95444437432
3300,Tienen,Donystraat,85,50.8067456543,4.94580042648
3300,Tienen,Tassinstraat,67,50.8167650139,4.88301236189
3300,Tienen,Hannuitsesteenweg,207,50.7888060619,4.94252293919
3300,Tienen,Keibergstraat,37,50.822980441,4.88662783424
3300,Tienen,Begijnenstraat,181,50.8022885338,4.90319380108
3300,Tienen,Melkweg,1,50.8203105857,4.99141454612
3300,Tienen,Aarschotsesteenweg,445,50.8285843029,4.92310848865
3300,Tienen,Vierde Lansierslaan,50,50.8085015384,4.92776222765
3300,Tienen,Sint-Hubertusstraat,25,50.8315639496,4.9910400623
3300,Tienen,Diestsesteenweg,271,50.8208268681,4.93712017294
3300,Tienen,Distelstraat,60,50.8089358711,4.93015954919
3300,Tienen,O.L.V. ten Steenstraat,44,50.7989502724,4.96371275809
3300,Tienen,Nieuw Overlaar,7,50.7991146442,4.92584577035
3300,Tienen,Leuvenselaan,280,50.8129901739,4.91907316405
3300,Tienen,Withuisstraat,17,50.8115226848,4.92623226091
3300,Tienen,Generaal Guffensstraat,25,50.8086948633,4.94685230525
3300,Tienen,Albertvest,24,50.8126210884,4.93378301568
3300,Tienen,Konijnenbergstraat,108,50.768776791,4.95129510907
3300,Tienen,Peperstraat,22,50.8063656403,4.93800081713
3300,Tienen,Vianderstraat,48,50.8133912969,4.94562436008
3300,Tienen,Sint-Martinusstraat,25,50.8079634519,4.92906850432
3300,Tienen,Kapelstraat,10,50.8067920149,4.94216596092
3300,Tienen,Breynissemberg,9,50.8154725828,4.94765529351
3300,Tienen,Sliksteenvest,63,50.8094982578,4.94769519836
3300,Tienen,Bostenberg,20,50.7912341755,4.93560133725
3300,Tienen,Houtemstraat,547,50.8283237622,4.9572468816
3300,Tienen,Kauterstraat,30,50.8198939347,4.89104797769
3300,Tienen,Huiskensstraat,9,50.823145951,4.97403880736
3300,Tienen,Raeymaeckersvest,14,50.8109977943,4.92869377718
3300,Tienen,Donystraat,107,50.8069031747,4.94670782323
3300,Tienen,Dalweg,75,50.8311575257,4.98488364172
3300,Tienen,Maalderijweg,32,50.8144590049,4.88713668394
3300,Tienen,Viaductstraat,218,50.802048934,4.92784521005
3300,Tienen,Breisemstraat,82,50.8140225389,4.92510757749
3300,Tienen,Hannuitsesteenweg,449,50.7726339023,4.95592248496
3300,Tienen,Dragonderstraat,18,50.7969588593,4.93752716212
3300,Tienen,Kummenbaan,65,50.8292104955,4.99525461783
3300,Tienen,Sint-Margrietestraat,13,50.8287610209,4.95967604806
3300,Tienen,Aarschotsesteenweg,166,50.8170753298,4.92618036773
3300,Tienen,Ganzendries,80,50.8268293745,4.99334771328
3300,Tienen,Driemolenstraat,7,50.8029287874,4.938097789
3300,Tienen,Van Audenhovestraat,51,50.7906815082,4.9670643362
3300,Tienen,Aarschotsesteenweg,392,50.8227051534,4.92424447366
3300,Tienen,Utsenakenweg,32,50.8194845099,4.98285187505
3300,Tienen,Weggevoerdenstraat,58,50.7979714841,4.95249600062
3300,Tienen,Aarschotsesteenweg,131,50.8181379002,4.9264882929
3300,Tienen,Gilainstraat,86,50.8110812174,4.93545625202
3300,Tienen,Aarschotsesteenweg,463,50.8303150888,4.92244799416
3300,Tienen,Houtemstraat,429,50.8228019451,4.95169072109
3300,Tienen,Oude Leuvensestraat,39,50.8108482935,4.93088801455
3300,Tienen,Kastelweg,17,50.7970826034,4.93523881088
3300,Tienen,Hannuitsesteenweg,225,50.787992382,4.94327444223
3300,Tienen,Ganzendries,34,50.8282231186,4.99193901277
3300,Tienen,Aarschotsesteenweg,148,50.8166525732,4.92636167503
3300,Tienen,Gallicstraat,57,50.7882912913,4.93488482558
3300,Tienen,Vondelstraat,3,50.8205356557,4.89267099021
3300,Tienen,Viaductstraat,22,50.8062350134,4.93080317536
3300,Tienen,Alexianenweg,25,50.8085780734,4.94160703107
3300,Tienen,Wulmersumsesteenweg,30,50.7998285572,4.95437965333
3300,Tienen,Kapucijnenstraat,75,50.8047286519,4.9462990212
3300,Tienen,Pastorijstraat,7,50.8021701818,4.95069825416
3300,Tienen,Pastorijstraat,77,50.8024790015,4.95359837939
3300,Tienen,Driemolenstraat,59,50.8021536072,4.93681773016
