PKANCODE,COMMUNE_NL,STREET_NL,HUISNR,LAT,LON
3550,Heusden-Zolder,Terlaemenlaan,7,51.0104004135,5.27078853447
3550,Heusden-Zolder,Koolmijnlaan,95,51.039204108,5.29901906824
3550,Heusden-Zolder,Sint-Jobstraat,207,50.9794869216,5.27477264342
3550,Heusden-Zolder,Broederspad,37,50.9804522977,5.26828265542
3550,Heusden-Zolder,Neerveldstraat,11,51.0373932732,5.33739701538
3550,Heusden-Zolder,Klokstraat,27,51.0164423237,5.28198282104
3550,Heusden-Zolder,Edward Staintonstraat,65,51.0390781277,5.30472607607
3550,Heusden-Zolder,Nieuwstraat,161,51.0219201034,5.33420004438
3550,Heusden-Zolder,'t Wiek,10,51.0315122316,5.33008950566
3550,Heusden-Zolder,Kanaalweg,58,51.0218617115,5.25514934828
3550,Heusden-Zolder,Heikant,49,51.0157031747,5.29989414673
3550,Heusden-Zolder,Schootstraat,118,51.0306242917,5.2857873504
3550,Heusden-Zolder,Schobbenberg,46,51.0217385042,5.32266314224
3550,Heusden-Zolder,Sluisbamd,48,51.0266146764,5.30886658913
3550,Heusden-Zolder,Vlamingenlaan,21,51.0089723803,5.29085479803
3550,Heusden-Zolder,Het Heike,2,51.0232491731,5.23726508514
3550,Heusden-Zolder,Schuttershof,13,51.0218757214,5.31437489711
3550,Heusden-Zolder,Bolderdal,121,50.9800624794,5.30276714585
3550,Heusden-Zolder,Sint-Barbaraplein,1,51.0422188432,5.30713223437
3550,Heusden-Zolder,Sint-Rochusstraat,10,51.0185252399,5.31039614418
3550,Heusden-Zolder,M. Scheperslaan,88,51.024479512,5.33842826605
3550,Heusden-Zolder,Cijnshofstraat,1,51.0328498423,5.28092190832
3550,Heusden-Zolder,Witte Barier,72,51.0167156261,5.31097656046
3550,Heusden-Zolder,Sint-Jozefsstraat,48,51.0206258861,5.3194815162
3550,Heusden-Zolder,Langstraat,26,51.0352976689,5.33315072657
3550,Heusden-Zolder,Paardenweg,6,51.0394158708,5.27489782733
3550,Heusden-Zolder,Koerselsebaan,96,51.0404601548,5.28259947707
3550,Heusden-Zolder,Kapelstraat,17,51.0333684863,5.27837502473
3550,Heusden-Zolder,Meeuwenlaan,49,50.9847856583,5.25966589947
3550,Heusden-Zolder,Heidestraat,13,50.9794948537,5.27822671827
3550,Heusden-Zolder,Bavostraat,31,51.0285272248,5.24482309057
3550,Heusden-Zolder,Pater Beckersstraat,15,51.0333038361,5.24751528838
3550,Heusden-Zolder,Koolmijnlaan,449,51.0363703635,5.33919316893
3550,Heusden-Zolder,Sint-Lutgardisstraat,72,51.0399255001,5.29884091803
3550,Heusden-Zolder,G. Gezellelaan,137,51.0285559134,5.27269969895
3550,Heusden-Zolder,Inakker,106,51.0176125991,5.30678449253
3550,Heusden-Zolder,Schaapsweg,43,51.0408621574,5.27576885579
3550,Heusden-Zolder,O.L. Vrouwstraat,178,51.0102155683,5.26943008675
3550,Heusden-Zolder,Koerselsebaan,132,51.0435067395,5.28169715908
3550,Heusden-Zolder,Pleinstraat,39,50.9996128128,5.25579359017
3550,Heusden-Zolder,Schansstraat,198,51.0470442522,5.3135353827
3550,Heusden-Zolder,Koolmijnlaan,113,51.0394666977,5.29970101913
3550,Heusden-Zolder,Zeven Septemberlaan,20,51.042141111,5.30450930429
3550,Heusden-Zolder,Heuvelstraat,25,51.0413367285,5.28603231393
3550,Heusden-Zolder,Voortstraat,53,51.0427134146,5.27099476597
3550,Heusden-Zolder,Kerkstraat,79,50.9939702253,5.25286874663
3550,Heusden-Zolder,Inakker,88,51.0184091125,5.30831379227
3550,Heusden-Zolder,Berkenstraat,2,51.0518865191,5.33378464937
3550,Heusden-Zolder,Naaldert,30,51.0391846335,5.31017223899
3550,Heusden-Zolder,De Panestraat,79,51.0082724012,5.2880576721
3550,Heusden-Zolder,Sint-Jobstraat,188,50.9806151549,5.2748062893
3550,Heusden-Zolder,Schaltusstraat,54,50.9995931214,5.26177939271
3550,Heusden-Zolder,Rubenslaan,20,51.0276397368,5.31165742774
3550,Heusden-Zolder,Bevrijdingsstraat,16,51.0394031812,5.30849536725
3550,Heusden-Zolder,Geenrijt,79,51.0344569904,5.26988855159
3550,Heusden-Zolder,Inakker,124,51.0169969137,5.30567616525
3550,Heusden-Zolder,Hemelrijk,86,51.0255804949,5.24664595443
3550,Heusden-Zolder,Ubbelstraat,32,51.0132669913,5.28926806304
3550,Heusden-Zolder,Edward Staintonstraat,83,51.0410701889,5.31055854747
3550,Heusden-Zolder,Laamheidestraat,26,51.0087110281,5.2746874135
3550,Heusden-Zolder,Sint-Lutgardisstraat,54,51.0403534176,5.29850991558
3550,Heusden-Zolder,Broederspad,19,50.9809066557,5.27076761398
3550,Heusden-Zolder,Brugstraat,74,51.0365954061,5.2902653667
3550,Heusden-Zolder,Diepeweg,4,51.0137717829,5.27329956226
3550,Heusden-Zolder,Kloosterstraat,10,51.0330786728,5.28803174532
3550,Heusden-Zolder,Vrunstraat,35,50.988364473,5.27834357855
3550,Heusden-Zolder,Padbroekweg,13,51.0286914964,5.23791053498
3550,Heusden-Zolder,Vlassertstraat,9,51.052908533,5.31566666679
3550,Heusden-Zolder,Breugellaan,26,51.0280562429,5.30951110633
3550,Heusden-Zolder,Halstraat,6,51.0443556575,5.29717299018
3550,Heusden-Zolder,Edward Staintonstraat,101,51.0410252818,5.31146283167
3550,Heusden-Zolder,Ernest Claeslaan,13,51.0274497046,5.30719240546
3550,Heusden-Zolder,Dorpshof,14,51.0194798945,5.31246748189
3550,Heusden-Zolder,Laaglandstraat,18,50.9975097014,5.25164418463
3550,Heusden-Zolder,Ringlaan,239,51.0271420165,5.32448678555
3550,Heusden-Zolder,Het Heike,26,51.0212284172,5.23727361538
3550,Heusden-Zolder,Oude Baan,57,51.0450423169,5.29329803718
3550,Heusden-Zolder,Kruiswegstraat,28,51.0338206818,5.28993982236
3550,Heusden-Zolder,Hoensbroeckstraat,11,51.0418673042,5.27588360191
3550,Heusden-Zolder,Kruiswegstraat,4,51.0354861501,5.28845232198
3550,Heusden-Zolder,Christoffelhof,19,51.0290356251,5.24249725555
3550,Heusden-Zolder,Vroenweg,10,51.0252210717,5.23612911885
3550,Heusden-Zolder,Heemstraat,6,51.0295557566,5.27056624298
3550,Heusden-Zolder,Kruisherenstraat,8,51.0270771009,5.23473403667
3550,Heusden-Zolder,Begonialaan,2,50.9835814327,5.29197359273
3550,Heusden-Zolder,A. Cuppenslaan,55,51.0268093858,5.3082036482
3550,Heusden-Zolder,Acht Meilaan,14,51.0260734192,5.32906630143
3550,Heusden-Zolder,Sint-Quirinusstraat,16,50.9995308112,5.24855715539
3550,Heusden-Zolder,Garenstraat,48,51.0368187877,5.27052932379
3550,Heusden-Zolder,Landweg,11,51.020143642,5.31908503234
3550,Heusden-Zolder,Cijnshofstraat,25,51.0321674718,5.2829674075
3550,Heusden-Zolder,Dwarsweg,16,51.0174262194,5.30267497528
3550,Heusden-Zolder,Kollebloem,23,51.0282267094,5.33484580271
3550,Heusden-Zolder,de Borghgravelaan,10,51.0127546368,5.2789338835
3550,Heusden-Zolder,Rodenbachlaan,80,51.0262827251,5.30602233328
3550,Heusden-Zolder,Zandstraat,83,50.9835699715,5.28519023818
3550,Heusden-Zolder,Rodenbachlaan,16,51.0243978182,5.30794212711
3550,Heusden-Zolder,Koolmijnlaan,131,51.0399032489,5.30039243138
3550,Heusden-Zolder,Lillostraat,7,51.0363838054,5.33844589655
3550,Heusden-Zolder,Polenstraat,5,51.0420891735,5.30525233823
3550,Heusden-Zolder,Jan Frans Willemslaan,30,51.0158011075,5.29276525127
3550,Heusden-Zolder,Azalealaan,16,50.9850334007,5.30454432444
3550,Heusden-Zolder,Zandstraat,37,50.9836154671,5.27953382184
3550,Heusden-Zolder,Sint-Annastraat,7,51.0177865161,5.28995427741
3550,Heusden-Zolder,Schootstraat,254,51.035788014,5.29954340376
3550,Heusden-Zolder,Laarstraat,4,50.9966394508,5.24794324606
3550,Heusden-Zolder,Processieweg,4,51.0297719654,5.27550110185
3550,Heusden-Zolder,Hertenlaan,8,50.9866525478,5.26780327559
3550,Heusden-Zolder,Kleuterweg,50,51.0430985744,5.29897902449
3550,Heusden-Zolder,Lusthofstraat,38,51.0218941566,5.23301863996
3550,Heusden-Zolder,Schreverland,37,51.0355307448,5.27615466279
3550,Heusden-Zolder,Kerkedries,1,50.9972798753,5.24996110514
3550,Heusden-Zolder,Brandeborg,18,51.0197950274,5.3208182421
3550,Heusden-Zolder,Dorpsstraat,39,51.0229175941,5.312846551
3550,Heusden-Zolder,Heikant,32,51.0158947733,5.30215914176
3550,Heusden-Zolder,Kapelstraat,35,51.0328356711,5.27134730242
3550,Heusden-Zolder,Aanhofstraat,39,51.0282321344,5.33303388702
3550,Heusden-Zolder,Koerselsebaan,8,51.0343667604,5.28264810898
3550,Heusden-Zolder,Halstraat,147,51.050709448,5.31643010288
3550,Heusden-Zolder,Vrunstraat,47,50.9887835606,5.27979686014
3550,Heusden-Zolder,Halstraat,94,51.0483407489,5.30613653022
3550,Heusden-Zolder,H. Vanveldekelaan,26,51.0259185313,5.30706233918
3550,Heusden-Zolder,Sluisbamd,36,51.0259906136,5.30937207121
3550,Heusden-Zolder,Ghoosstraat,7,51.0325213657,5.27674868041
3550,Heusden-Zolder,Brugstraat,92,51.036240467,5.29182859944
3550,Heusden-Zolder,Hemelrijk,68,51.0243819263,5.24765433024
3550,Heusden-Zolder,Kerkenblookstraat,43,51.0374225592,5.28516422475
3550,Heusden-Zolder,De Drij Dreven,30,51.0159816319,5.32187511049
3550,Heusden-Zolder,Nieuwstraat,79,51.0196245633,5.32651253003
3550,Heusden-Zolder,Gemeentewinning,3,51.040629095,5.27650995107
3550,Heusden-Zolder,Heikant,67,51.0152320024,5.29804375765
3550,Heusden-Zolder,M. Scheperslaan,152,51.0239463934,5.34546226487
3550,Heusden-Zolder,Schootstraat,30,51.0245068921,5.27576839827
3550,Heusden-Zolder,Hofeinde,100,51.0103578457,5.29506918463
3550,Heusden-Zolder,Nieuwstraat,2,51.018825343,5.31816575773
3550,Heusden-Zolder,Ernest Claeslaan,31,51.027202215,5.30544417239
3550,Heusden-Zolder,Kolderhof,27,51.0384493836,5.33309593143
3550,Heusden-Zolder,Garenstraat,36,51.0369173902,5.27226557764
3550,Heusden-Zolder,Acht Meilaan,32,51.0239614938,5.32964458739
3550,Heusden-Zolder,Sint-Quirinusstraat,34,51.0006288786,5.24924540618
3550,Heusden-Zolder,Heikant,14,51.016387997,5.30369279293
3550,Heusden-Zolder,Astridlaan,21,51.0137721208,5.28354222729
3550,Heusden-Zolder,Sterrenwacht,132,50.9859991587,5.25721149302
3550,Heusden-Zolder,Onder De Poort,20,51.0394711588,5.30301759243
3550,Heusden-Zolder,Koolmijnlaan,77,51.0390147394,5.29828539496
3550,Heusden-Zolder,Holleweg,26,51.0261780388,5.27430289796
3550,Heusden-Zolder,Dennenweg,68,51.0498922146,5.31687435187
3550,Heusden-Zolder,Vlinderstraat,16,51.0201341153,5.34736231762
3550,Heusden-Zolder,Bloemenstraat,11,50.9812352871,5.28382040937
3550,Heusden-Zolder,Nieuwstraat,26,51.0187955227,5.32107626253
3550,Heusden-Zolder,Pastoor Paquaylaan,99,51.0433919123,5.30775155822
3550,Heusden-Zolder,Lavendelsteeg,9,51.0532892929,5.31610769233
3550,Heusden-Zolder,Jan Michiel Huybrechtsstraat,8,51.0346456791,5.28748896242
3550,Heusden-Zolder,Joachimstraat,27,51.0354141105,5.2524899058
3550,Heusden-Zolder,M. Scheperslaan,106,51.0233715755,5.34087241009
3550,Heusden-Zolder,Sportalaan,14,51.0311627379,5.28257995957
3550,Heusden-Zolder,Zandstraat,19,50.9835717856,5.27754665879
3550,Heusden-Zolder,De Slogen,36,50.9882546195,5.28204185309
3550,Heusden-Zolder,Schreverland,19,51.0364310755,5.27849275095
3550,Heusden-Zolder,O.L. Vrouwstraat,54,51.0153312886,5.28184313791
3550,Heusden-Zolder,Holleweg,2,51.0282154863,5.27253431606
3550,Heusden-Zolder,Obbeekstraat,73,51.0175994247,5.25591376673
3550,Heusden-Zolder,Halveld,31,51.0477539107,5.29333823758
3550,Heusden-Zolder,Reeënlaan,20,50.9886488001,5.27143065303
3550,Heusden-Zolder,Oude Baan,111,51.0472768301,5.29940639961
3550,Heusden-Zolder,Naaldert,12,51.038852344,5.30872527389
3550,Heusden-Zolder,Belikstraat,9,51.0110166779,5.29812650612
3550,Heusden-Zolder,Halstraat,202,51.0503886122,5.31969537212
3550,Heusden-Zolder,Heuvelstraat,96,51.0418177243,5.29215299032
3550,Heusden-Zolder,Kanadastraat,13,51.0539730969,5.33092082453
3550,Heusden-Zolder,Bloemelingen,10,51.0321202934,5.31639285726
3550,Heusden-Zolder,Hofeinde,82,51.011631917,5.29420745316
3550,Heusden-Zolder,Schootstraat,164,51.031697089,5.28922224777
3550,Heusden-Zolder,Sporkstraat,7,51.0004831862,5.24693337947
3550,Heusden-Zolder,Herckenrodestraat,17,50.9923682777,5.25581274648
3550,Heusden-Zolder,G. Gezellelaan,165,51.0276157239,5.27053896994
3550,Heusden-Zolder,Witte Bosstraat,14A,51.0495586161,5.31763189137
3550,Heusden-Zolder,Hyacintenlaan,3,50.9842487719,5.29689045037
3550,Heusden-Zolder,Kapelstraat,45,51.0328687885,5.26994706367
3550,Heusden-Zolder,Vagevuurpad,6,51.0097909944,5.29748016132
3550,Heusden-Zolder,Edward Staintonstraat,19,51.0379008153,5.30230695569
3550,Heusden-Zolder,Eikenstraat,23,51.0524043466,5.33090480678
3550,Heusden-Zolder,G. Gezellelaan,114B,51.0295595342,5.27255757165
3550,Heusden-Zolder,Eikelenbosstraat,15,51.0491560806,5.29921788929
3550,Heusden-Zolder,Abdijstraat,5,51.0104740885,5.26674123703
3550,Heusden-Zolder,Savoerenweg,1,51.0423098049,5.27121428017
3550,Heusden-Zolder,Belikstraat,80,51.0075106373,5.2920243578
3550,Heusden-Zolder,Pater Beckersstraat,68,51.0309359892,5.23956888653
3550,Heusden-Zolder,Voetpad,52,51.021654178,5.30799453158
3550,Heusden-Zolder,Kortstraat,9,51.0422772138,5.28278727334
3550,Heusden-Zolder,Pater Beckersstraat,86,51.029826873,5.23664589397
3550,Heusden-Zolder,Terlaemenlaan,42,51.0083862771,5.27235591054
3550,Heusden-Zolder,Chrisantenlaan,14,50.9824684127,5.29383566881
3550,Heusden-Zolder,Meilweg,22,51.0416636365,5.27227954757
3550,Heusden-Zolder,Korte Eindstraat,2,51.0394978651,5.30562879613
3550,Heusden-Zolder,Lindelaan,32,51.050279664,5.32840099078
3550,Heusden-Zolder,Westlaan,313,50.9966162238,5.23736562426
3550,Heusden-Zolder,Schansstraat,127,51.043659692,5.30219445233
3550,Heusden-Zolder,Schaapsweg,8,51.042028344,5.27985889416
3550,Heusden-Zolder,Geenrijt,26,51.0375650428,5.27735104307
3550,Heusden-Zolder,Edward Staintonstraat,37,51.0386168383,5.30379103003
3550,Heusden-Zolder,Vredestraat,8,50.982835454,5.28656741773
3550,Heusden-Zolder,Veldstraat,23,51.0000387569,5.24644877182
3550,Heusden-Zolder,Weyerman,70,51.0043133717,5.29434089019
3550,Heusden-Zolder,Kerkstraat,26,50.996683727,5.248838143
3550,Heusden-Zolder,Knaepenstraat,11,51.0403686524,5.27843244798
3550,Heusden-Zolder,Ringlaan,114,51.0272922597,5.3227669619
3550,Heusden-Zolder,Halstraat,220,51.0504541789,5.32052563154
3550,Heusden-Zolder,Heuvelstraat,78,51.0414301767,5.28923868262
3550,Heusden-Zolder,O.L. Vrouwstraat,125,51.012561979,5.27526842443
3550,Heusden-Zolder,Weg Naar De Grauwe Steen,42,51.0531660617,5.31489839176
3550,Heusden-Zolder,Hofeinde,46,51.0138328737,5.29206927341
3550,Heusden-Zolder,Beringersteenweg,89,51.0333730424,5.25059309569
3550,Heusden-Zolder,Zwaluwstraat,18,51.0413979975,5.30199930645
3550,Heusden-Zolder,Rijkelstraat,67,51.0186059256,5.34655273439
3550,Heusden-Zolder,Heuvelstraat,1,51.0408514787,5.28237897375
3550,Heusden-Zolder,Valentinusstraat,1,51.0500010185,5.32655345211
3550,Heusden-Zolder,Opperstraat,22,51.026528115,5.26177590152
3550,Heusden-Zolder,Nieuwstraat,97,51.0200977868,5.32763794758
3550,Heusden-Zolder,Varensstraat,8,51.0514228107,5.33130564542
3550,Heusden-Zolder,Elf Novemberstraat,31,51.0177466774,5.30455597836
3550,Heusden-Zolder,Kapelstraat,47,51.0328764398,5.2696757607
3550,Heusden-Zolder,Kanaalweg,112,51.0197761774,5.24921501994
3550,Heusden-Zolder,Struikenstraat,9,51.0356508767,5.33219588885
3550,Heusden-Zolder,Sint-Quirinusstraat,62,51.0015400732,5.2509729291
3550,Heusden-Zolder,Ijzersveld,10,51.0234258446,5.25646995837
3550,Heusden-Zolder,Poststraat,21,51.0428590391,5.30838911888
3550,Heusden-Zolder,Pastoor Paquaylaan,145,51.0469333729,5.31903398812
3550,Heusden-Zolder,Boekweitstraat,14,51.0382439813,5.33787646879
3550,Heusden-Zolder,Vrunstraat,88,50.9905915175,5.28436505093
3550,Heusden-Zolder,Waterleidingstraat,8,51.0393072506,5.30204656827
3550,Heusden-Zolder,Rodenbachlaan,62,51.0256162257,5.30546929852
3550,Heusden-Zolder,Schootstraat,12,51.0243405921,5.27392309659
3550,Heusden-Zolder,Stationsstraat,45,51.0315193882,5.32953250565
3550,Heusden-Zolder,Beringerheide,52,51.0403484259,5.25160339412
3550,Heusden-Zolder,Inakker,17,51.0219580156,5.31208600238
3550,Heusden-Zolder,Mommestraat,22,51.0315260811,5.31562123235
3550,Heusden-Zolder,Doornstraat,7,51.0503974008,5.3310472146
3550,Heusden-Zolder,Schansstraat,281,51.0505314439,5.32126485266
3550,Heusden-Zolder,Savoerenweg,25,51.0430115674,5.27420629468
3550,Heusden-Zolder,Bovenstraat,23,51.0254787344,5.24548842953
3550,Heusden-Zolder,Stationsstraat,47,51.0322066843,5.33002422275
3550,Heusden-Zolder,Bieststraat,52,51.0217931911,5.30620992526
3550,Heusden-Zolder,Zolderseweg,4,51.035266178,5.29906394413
3550,Heusden-Zolder,Voortstraat,71,51.0418562716,5.2667140469
3550,Heusden-Zolder,O.L. Vrouwstraat,90,51.0136336487,5.27902736384
3550,Heusden-Zolder,Dekenstraat,21,51.0253969027,5.3222070231
3550,Heusden-Zolder,Merelstraat,23,51.0360527994,5.26723625854
3550,Heusden-Zolder,Garenstraat,64,51.0363252114,5.26829186983
3550,Heusden-Zolder,Zolikenstraat,11,51.0249329273,5.3469995483
3550,Heusden-Zolder,Belikstraat,115,51.0068884993,5.28743873235
3550,Heusden-Zolder,Sterrenwacht,149,50.9876798809,5.25419821472
3550,Heusden-Zolder,H. Hartlaan,4,51.0099862515,5.28644076575
3550,Heusden-Zolder,Bolderdal,39,50.977653458,5.29303454562
3550,Heusden-Zolder,G. Gezellelaan,66,51.0313532008,5.27703423121
3550,Heusden-Zolder,Stationsstraat,10,51.0286011783,5.32784101685
3550,Heusden-Zolder,Poorthoevestraat,19,51.0319353063,5.28398007843
3550,Heusden-Zolder,Everselkiezel,96,51.0258319541,5.23880235309
3550,Heusden-Zolder,Pastoor Paquaylaan,110,51.043892721,5.312371967
3550,Heusden-Zolder,Reigerslaan,13,50.9863372238,5.26498486185
3550,Heusden-Zolder,Pannewinning,7,50.9798571424,5.27396509307
3550,Heusden-Zolder,Melkerijstraat,5,51.0240427712,5.26392445963
3550,Heusden-Zolder,Rijkelstraat,49,51.0193660873,5.34444364999
3550,Heusden-Zolder,Oudstrijderslaan,23,51.0295159687,5.28107901368
3550,Heusden-Zolder,Laambroekstraat,36,51.0193953616,5.33369086705
3550,Heusden-Zolder,De Rijzillen,18,51.0358184009,5.28898225759
3550,Heusden-Zolder,Holstraat,80,51.0193647326,5.31812082977
3550,Heusden-Zolder,Halstraat,119,51.0504192966,5.31414510761
3550,Heusden-Zolder,Beringersteenweg,36,51.0281682597,5.26300936538
3550,Heusden-Zolder,O.L. Vrouwstraat,107,51.0132209279,5.27695780379
3550,Heusden-Zolder,De Lobbert,60,51.0490330993,5.3151169853
3550,Heusden-Zolder,Schaapsweg,61,51.0405237153,5.27343077319
3550,Heusden-Zolder,Ericastraat,4,51.0540341695,5.31686790333
3550,Heusden-Zolder,Verlorenkost,6,51.0204836523,5.32950803691
3550,Heusden-Zolder,Sint-Maartenlaan,2,51.0444444822,5.30910675654
3550,Heusden-Zolder,Olmenstraat,36,51.0538291691,5.33204238784
3550,Heusden-Zolder,Ringlaan,25,51.0238160285,5.31221924852
3550,Heusden-Zolder,Ringlaan,78,51.0263582634,5.31828382751
3550,Heusden-Zolder,Boekweitstraat,32,51.0388280305,5.33715751917
3550,Heusden-Zolder,Ubbersel,8,51.0181902092,5.24777405677
3550,Heusden-Zolder,Sint-Jansblok,79,51.0287885426,5.26805757969
3550,Heusden-Zolder,Kapelhof,27,51.0172021718,5.27947374453
3550,Heusden-Zolder,Ganzenstraat,18,51.0206457592,5.29984625882
3550,Heusden-Zolder,De Nieuwe Dijk,25,51.0501485125,5.30191250755
3550,Heusden-Zolder,Schootstraat,182,51.032960156,5.2906900425
3550,Heusden-Zolder,Witte Bosstraat,26,51.0491385277,5.31822279615
3550,Heusden-Zolder,Rodenbachlaan,44,51.0249850386,5.30530214342
3550,Heusden-Zolder,Heikant,103,51.0145468805,5.29368877128
3550,Heusden-Zolder,Groenstraat,10,51.0158815294,5.27144572225
3550,Heusden-Zolder,Bieststraat,70,51.0208819682,5.30489191368
3550,Heusden-Zolder,Ericastraat,28,51.0533736381,5.31784594616
3550,Heusden-Zolder,Halstraat,137,51.0506685317,5.31571686798
3550,Heusden-Zolder,Koerselsebaan,167,51.0474492094,5.27739076506
3550,Heusden-Zolder,Oude Baan,5,51.0426267955,5.28995041344
3550,Heusden-Zolder,Kleine Venstraat,49,51.0148268585,5.30204848644
3550,Heusden-Zolder,Weg Naar De Grauwe Steen,7,51.0506661382,5.31080557253
3550,Heusden-Zolder,Dijkstraat,18,51.0334500653,5.25716801552
3550,Heusden-Zolder,Schansstraat,263,51.0498653464,5.32052662616
3550,Heusden-Zolder,Nieuwstraat,143,51.0215303636,5.33236199072
3550,Heusden-Zolder,Weg Naar De Grauwe Steen,60,51.0536164069,5.31551797188
3550,Heusden-Zolder,Koolmijnlaan,148,51.0403478188,5.30350622662
3550,Heusden-Zolder,Alvermanstraat,1,50.9942746885,5.25120825115
3550,Heusden-Zolder,Witte Bosstraat,2,51.0500335237,5.31717672268
3550,Heusden-Zolder,Halhei,23,51.052571546,5.31771627641
3550,Heusden-Zolder,Kanunnik Davidlaan,9,51.0168113712,5.29821963519
3550,Heusden-Zolder,Koerselsebaan,114,51.0421792239,5.28164101673
3550,Heusden-Zolder,Kerkstraat,97,50.9941848301,5.2552059939
3550,Heusden-Zolder,G. Gezellelaan,13,51.03176587,5.2797727961
3550,Heusden-Zolder,Oude Baan,29,51.0440661004,5.29075780254
3550,Heusden-Zolder,Sint-Jansblok,2,51.0278130362,5.2699303651
3550,Heusden-Zolder,Boekterheide,54,51.0143029763,5.30228116598
3550,Heusden-Zolder,Schansstraat,4,51.0381045473,5.28728170933
3550,Heusden-Zolder,Heidestraat,102,50.9807530474,5.28861434459
3550,Heusden-Zolder,De Nieuwe Dijk,1,51.0479244079,5.30270242727
3550,Heusden-Zolder,Dikkelstraat,6,51.0049086304,5.26321515685
3550,Heusden-Zolder,Kuilberg,50,50.9768581085,5.2773120166
3550,Heusden-Zolder,Pastoor Paquaylaan,46,51.0423767243,5.30464577884
3550,Heusden-Zolder,Champert,60,51.0341200128,5.26096459989
3550,Heusden-Zolder,G. Gezellelaan,102,51.0299471411,5.27389428563
3550,Heusden-Zolder,Kanaalweg,41,51.0224059659,5.25731537708
3550,Heusden-Zolder,Europastraat,17,51.0502062935,5.31838239081
3550,Heusden-Zolder,Europastraat,1,51.0495075859,5.31919910869
3550,Heusden-Zolder,Borgveld,22,51.0006815076,5.25781768363
3550,Heusden-Zolder,Rodenbachlaan,9,51.0248878928,5.30833070621
3550,Heusden-Zolder,Grootveldstraat,17,51.0118963462,5.28740264784
3550,Heusden-Zolder,Reeënlaan,73,50.9875495802,5.26499752554
3550,Heusden-Zolder,Molenstraat,66,51.0277691688,5.31191791619
3550,Heusden-Zolder,Jan Frans Willemslaan,5,51.0153925787,5.29623043858
3550,Heusden-Zolder,Schansstraat,173,51.0462496326,5.30988006085
3550,Heusden-Zolder,De Hoeven,12,51.0377190392,5.29803707401
3550,Heusden-Zolder,Pleinstraat,14,51.0012654241,5.25386933529
3550,Heusden-Zolder,Laambroekstraat,2,51.0214049455,5.33155080679
3550,Heusden-Zolder,Geenrijt,44,51.0367904777,5.27398221895
3550,Heusden-Zolder,Voetpad,16,51.022181203,5.31128203241
3550,Heusden-Zolder,Roosterstraat,5,51.0132681847,5.2995790666
3550,Heusden-Zolder,Zandstraat,108,50.984004878,5.28898997488
3550,Heusden-Zolder,Ringlaan,43,51.0242160819,5.31399869843
3550,Heusden-Zolder,Schansstraat,307,51.0505228567,5.32235874239
3550,Heusden-Zolder,Vunderstraat,43,51.0368976836,5.3241776548
3550,Heusden-Zolder,Heidestraat,38,50.9805288609,5.28130048393
3550,Heusden-Zolder,Schootstraat,101,51.0297153812,5.28231589616
3550,Heusden-Zolder,Dennenweg,51,51.0491313737,5.31699141999
3550,Heusden-Zolder,Neerveldstraat,18,51.0375306278,5.33662234759
3550,Heusden-Zolder,De Bloken,10,51.0183278299,5.31427299044
3550,Heusden-Zolder,De Panestraat,44,51.0101549808,5.28759319169
3550,Heusden-Zolder,De Nieuwe Dijk,43,51.0516457371,5.30114139484
3550,Heusden-Zolder,Waterlozenstraat,51,50.9860830547,5.29020668677
3550,Heusden-Zolder,H. Hartlaan,28,51.0089925256,5.28401808517
3550,Heusden-Zolder,Middenweg,34,50.9982926567,5.25137559177
3550,Heusden-Zolder,Hoensbroeckstraat,18,51.0423321159,5.2764138104
3550,Heusden-Zolder,O.L. Vrouwstraat,48,51.0155313205,5.28238589353
3550,Heusden-Zolder,O.L. Vrouwstraat,89,51.01430396,5.27810452429
3550,Heusden-Zolder,Molenstraat,74,51.0282113794,5.31170415921
3550,Heusden-Zolder,Kruiskapelstraat,13,51.0424794317,5.27773313292
3550,Heusden-Zolder,Stationsstraat,124,51.0367591828,5.330024239
3550,Heusden-Zolder,Lindelaan,7,51.0520717662,5.33467619197
3550,Heusden-Zolder,Koolmijnlaan,231,51.041897306,5.30623811839
3550,Heusden-Zolder,Sint-Antoniusstraat,7,51.0507808623,5.31407782465
3550,Heusden-Zolder,Schootstraat,5,51.0243638108,5.27245820754
3550,Heusden-Zolder,Minderbroedersstraat,33,51.0446453709,5.31882664188
3550,Heusden-Zolder,Kerkstraat,62,50.9948106711,5.2516254819
3550,Heusden-Zolder,Christoffelhof,12,51.0287014781,5.2418679066
3550,Heusden-Zolder,Inakker,71,51.0194754883,5.30931366158
3550,Heusden-Zolder,De Panestraat,62,51.0095776257,5.28781598177
3550,Heusden-Zolder,Lusthofstraat,13,51.022190133,5.23577432215
3550,Heusden-Zolder,Kapelstraat,106,51.033142477,5.26659012563
3550,Heusden-Zolder,Terlaemenlaan,24,51.0095980263,5.27257523856
3550,Heusden-Zolder,Kerkenblookstraat,25,51.0373773301,5.28300449689
3550,Heusden-Zolder,Zandbergstraat,5,51.0347739004,5.26732276011
3550,Heusden-Zolder,Broederspad,12,50.9804828696,5.27213783009
3550,Heusden-Zolder,Lange Eindstraat,11,51.0393507649,5.30419725047
3550,Heusden-Zolder,Dekenstraat,66,51.026961345,5.32563420073
3550,Heusden-Zolder,G. Gezellelaan,120,51.0291107934,5.2725544625
3550,Heusden-Zolder,Galgeneinde,135,50.9836128007,5.25797487101
3550,Heusden-Zolder,Pastoor Paquaylaan,64,51.0426334703,5.30583192134
3550,Heusden-Zolder,Ubbelstraat,39,51.0136541086,5.28803583659
3550,Heusden-Zolder,Dwarsweg,9,51.0181223382,5.30316774935
3550,Heusden-Zolder,Max Vanmelbeekstraat,16,51.0320048384,5.28515276228
3550,Heusden-Zolder,Mommestraat,75,51.032364297,5.32288650178
3550,Heusden-Zolder,Middenweg,16,50.9990351515,5.25369139891
3550,Heusden-Zolder,Dorpsstraat,49,51.0228836544,5.31379303844
3550,Heusden-Zolder,Everselkiezel,114,51.0243403039,5.23679442549
3550,Heusden-Zolder,Oude Baan,40,51.0440519071,5.29330041997
3550,Heusden-Zolder,Aanhofstraat,49,51.028792989,5.33424178932
3550,Heusden-Zolder,Savoerenweg,43,51.0420164191,5.27389014402
3550,Heusden-Zolder,Voortstraat,47,51.042993659,5.27186888712
3550,Heusden-Zolder,Geenrijt,62,51.0354737378,5.2707896879
3550,Heusden-Zolder,Holstraat,79,51.0191407344,5.31696950687
3550,Heusden-Zolder,Naaldert,37,51.0408929975,5.31279184991
3550,Heusden-Zolder,Schansstraat,191,51.0469742863,5.3123956368
3550,Heusden-Zolder,Padbroekweg,6,51.0267270706,5.24117904116
3550,Heusden-Zolder,Vlassertstraat,26,51.0526570223,5.31613339332
3550,Heusden-Zolder,Voetpad,34,51.0220596867,5.30974047559
3550,Heusden-Zolder,Nieuwstraat,168,51.0226602274,5.33539396909
3550,Heusden-Zolder,O.L. Vrouwstraat,171,51.0111701032,5.26959366569
3550,Heusden-Zolder,Bavostraat,38,51.0280205827,5.24546079465
3550,Heusden-Zolder,Exelgaarden,25,51.0408267108,5.28602516382
3550,Heusden-Zolder,G. Gezellelaan,84,51.0309087198,5.27589636318
3550,Heusden-Zolder,Ernest Claeslaan,6,51.0270055514,5.30821371667
3550,Heusden-Zolder,Beringersteenweg,90,51.0333380719,5.25307257476
3550,Heusden-Zolder,Heidestraat,6,50.9796380172,5.27696535384
3550,Heusden-Zolder,Witte Barier,115,51.0167462212,5.30592041418
3550,Heusden-Zolder,Heikant,39,51.0161343192,5.30107493747
3550,Heusden-Zolder,De Slogen,54,50.9876323641,5.28425819473
3550,Heusden-Zolder,Ubbelstraat,103,51.0117906285,5.28030854549
3550,Heusden-Zolder,Molenstraat,92,51.0291187407,5.31096018883
3550,Heusden-Zolder,Kiewitstraat,45,51.0087887333,5.28084699621
3550,Heusden-Zolder,Oude Baan,128,51.0477679389,5.3019378832
3550,Heusden-Zolder,Vroenweg,27,51.0256309799,5.23354310067
3550,Heusden-Zolder,Lusthofstraat,31,51.0211694697,5.23644198684
3550,Heusden-Zolder,Heuvelstraat,132,51.0432154612,5.29631115268
3550,Heusden-Zolder,Kruiskapelstraat,31,51.0434233726,5.27804366723
3550,Heusden-Zolder,Visserspad,8,51.0253409539,5.34944236125
3550,Heusden-Zolder,Hemelrijk,15,51.0210055705,5.24771705281
3550,Heusden-Zolder,Kleuterweg,14,51.0406971645,5.30163611297
3550,Heusden-Zolder,Toekomststraat,16,51.01124733,5.29130176161
3550,Heusden-Zolder,Roosterstraat,19,51.0137469764,5.29863618861
3550,Heusden-Zolder,Hofstraat,2,51.0121268556,5.28781530871
3550,Heusden-Zolder,Astridlaan,28,51.0131542885,5.28360739083
3550,Heusden-Zolder,Kerkeveld,36,51.0204023087,5.31622825013
3550,Heusden-Zolder,Koolmijnlaan,194,51.0414731874,5.31121105163
3550,Heusden-Zolder,Zandstraat,30,50.9843580581,5.27856627055
3550,Heusden-Zolder,Heuvelstraat,43,51.0416582152,5.28851807145
3550,Heusden-Zolder,Koolmijnlaan,399,51.0373231631,5.33273208231
3550,Heusden-Zolder,Hofeinde,107,51.0094967359,5.29487259534
3550,Heusden-Zolder,Blokveldsteeg,11,51.0220498633,5.32788733549
3550,Heusden-Zolder,Bergstraat,9,51.0393189537,5.2801953854
3550,Heusden-Zolder,Halveld,6,51.0461674141,5.29609232296
3550,Heusden-Zolder,Grootveldstraat,71,51.0120714666,5.29118134351
3550,Heusden-Zolder,Dorpsstraat,85,51.0235744265,5.31631885121
3550,Heusden-Zolder,Sluisbamd,72,51.0289441814,5.30678359
3550,Heusden-Zolder,Grootveldstraat,35,51.0107730204,5.28821508921
3550,Heusden-Zolder,Oude Baan,156,51.0495240263,5.30497721512
3550,Heusden-Zolder,Bosbessenstraat,5,51.0514228071,5.33277812098
3550,Heusden-Zolder,Processieweg,21,51.0290395552,5.27684419152
3550,Heusden-Zolder,Koolmijnlaan,24,51.0376303183,5.29559684702
3550,Heusden-Zolder,Dennenweg,15,51.0464293586,5.31991962916
3550,Heusden-Zolder,Sint-Annastraat,24,51.0176136975,5.28808596912
3550,Heusden-Zolder,Veenderweg,51,51.029171563,5.26851998459
3550,Heusden-Zolder,Naaldert,5,51.0391057957,5.30749369828
3550,Heusden-Zolder,Reeënlaan,55,50.9879499869,5.26704652041
3550,Heusden-Zolder,Schreverland,12,51.0369411394,5.27901710328
3550,Heusden-Zolder,Naaldert,19,51.0399950229,5.3105021071
3550,Heusden-Zolder,Garenstraat,72,51.0358104884,5.26735921111
3550,Heusden-Zolder,Bieststraat,151,51.0182875803,5.29745680282
3550,Heusden-Zolder,Singelstraat,66,51.050998859,5.30861100668
3550,Heusden-Zolder,Veenderweg,15,51.0310124881,5.27255199646
3550,Heusden-Zolder,Schansstraat,109,51.042974048,5.30051562889
3550,Heusden-Zolder,Meylandtlaan,176,51.0128682941,5.29629385159
3550,Heusden-Zolder,Sluisbamd,54,51.027531585,5.30826447896
3550,Heusden-Zolder,De Drij Dreven,19,51.016813826,5.32095270449
3550,Heusden-Zolder,Zandstraat,12,50.9840675896,5.27669549278
3550,Heusden-Zolder,Dorpsstraat,67,51.0229235738,5.31512316554
3550,Heusden-Zolder,Nieuwstraat,62,51.019298131,5.32408201008
3550,Heusden-Zolder,Roerdompenlaan,16,50.9872284106,5.26876960681
3550,Heusden-Zolder,Viverselweg,15,51.0089220291,5.27012323031
3550,Heusden-Zolder,Koolmijnlaan,450,51.0362126434,5.33994985015
3550,Heusden-Zolder,Poelenstraat,29,51.0099837436,5.27861837154
3550,Heusden-Zolder,Pastoor Paquaylaan,82,51.0430280315,5.30768122361
3550,Heusden-Zolder,Bloemenstraat,18,50.9809971137,5.28454020061
3550,Heusden-Zolder,Beringersteenweg,100,51.0337760918,5.25127063361
3550,Heusden-Zolder,Schootstraat,37,51.0260066948,5.27653088061
3550,Heusden-Zolder,Schootstraat,236,51.0350071035,5.29644395512
3550,Heusden-Zolder,Pater Beckersstraat,104,51.0287461345,5.23336247393
3550,Heusden-Zolder,De Drij Dreven,5,51.0176357257,5.32003504492
3550,Heusden-Zolder,Jan Frans Willemslaan,19,51.0155273877,5.29413512841
3550,Heusden-Zolder,Schootstraat,83,51.0289885935,5.28161728871
3550,Heusden-Zolder,Bavostraat,6,51.0269457462,5.24206920816
3550,Heusden-Zolder,Belikstraat,79,51.0079358759,5.29171227868
3550,Heusden-Zolder,Burgemeester Eerdekensstraat,2,51.029512606,5.27452168884
3550,Heusden-Zolder,Snelwegstraat,13,51.0052148881,5.2661560404
3550,Heusden-Zolder,Koolmijnlaan,213,51.0415683741,5.30532347556
3550,Heusden-Zolder,Obbeekstraat,20,51.022338967,5.26492667738
3550,Heusden-Zolder,O.L. Vrouwstraat,2,51.01654438,5.28811897762
3550,Heusden-Zolder,Meeuwenlaan,14,50.9853933732,5.26386571896
3550,Heusden-Zolder,Schobbenberg,11,51.0239418544,5.32018177939
3550,Heusden-Zolder,Hofeinde,99,51.010187726,5.2943198303
3550,Heusden-Zolder,Ubbelstraat,50,51.0129240867,5.28693800805
3550,Heusden-Zolder,Hoensbroeckstraat,46,51.0436012099,5.27588571676
3550,Heusden-Zolder,Sterrenwacht,78,50.9873814248,5.25855476738
3550,Heusden-Zolder,Jordaenslaan,8,51.0284992955,5.31106774654
3550,Heusden-Zolder,Kolderhof,3,51.0376219156,5.33133449521
3550,Heusden-Zolder,Koolmijnlaan,141,51.0401898417,5.30093713538
3550,Heusden-Zolder,Beemdenstraat,29,51.0451775451,5.30087411806
3550,Heusden-Zolder,Belikstraat,62,51.008399171,5.29379941164
3550,Heusden-Zolder,Knaepenstraat,4,51.0408603135,5.27924395313
3550,Heusden-Zolder,De Wallen,13,51.0152256145,5.28730980754
3550,Heusden-Zolder,Pater Beckersstraat,51,51.0302736009,5.24020463389
3550,Heusden-Zolder,A. Cuppenslaan,20,51.0247087592,5.30914802306
3550,Heusden-Zolder,Kanaalweg,23,51.0242644829,5.26307002776
3550,Heusden-Zolder,Kerkeveld,2,51.0189105921,5.31308112452
3550,Heusden-Zolder,Edward Staintonstraat,12,51.0372654804,5.30125670265
3550,Heusden-Zolder,Kortstraat,26,51.0418848689,5.28610780249
3550,Heusden-Zolder,Veenderweg,33,51.029820857,5.27001551483
3550,Heusden-Zolder,Beekstraat,14,51.0145655239,5.28282935152
3550,Heusden-Zolder,Haverveldstraat,41,51.0205134864,5.30727137788
3550,Heusden-Zolder,Everselkiezel,61,51.026450353,5.24365065748
3550,Heusden-Zolder,Voortstraat,17,51.0441392513,5.2774224316
3550,Heusden-Zolder,Heidestraat,84,50.9807290584,5.28642759098
3550,Heusden-Zolder,De Slogen,90,50.9855071043,5.28810213636
3550,Heusden-Zolder,Ringlaan,249,51.0273680689,5.32566404422
3550,Heusden-Zolder,Anjelierenlaan,12,50.9824123598,5.28906634903
3550,Heusden-Zolder,Sint-Lutgardisstraat,36,51.0401359911,5.29793651205
3550,Heusden-Zolder,Uilshoek,8,51.0413567335,5.26994605183
3550,Heusden-Zolder,Viverselweg,33,51.0081730035,5.26815080598
3550,Heusden-Zolder,Kolderstraat,57,51.0389358763,5.33631976277
3550,Heusden-Zolder,Schootstraat,19,51.0251581979,5.27511491067
3550,Heusden-Zolder,Pastoor Paquaylaan,4,51.0417172778,5.30106211821
3550,Heusden-Zolder,Pastoor Paquaylaan,18,51.0418178822,5.3019569199
3550,Heusden-Zolder,Kapelstraat,98,51.0332632794,5.27056571676
3550,Heusden-Zolder,Belikstraat,44,51.0092355514,5.29548144752
3550,Heusden-Zolder,Valentinusstraat,61,51.0533422461,5.32792996821
3550,Heusden-Zolder,Koerselsebaan,142,51.0441952391,5.28098061263
3550,Heusden-Zolder,Merelstraat,41,51.0377372656,5.26663739818
3550,Heusden-Zolder,Jeugdlaan,20,51.0063809344,5.26546239499
3550,Heusden-Zolder,Sportalaan,32,51.0306973934,5.28256174603
3550,Heusden-Zolder,Koolmijnlaan,432,51.035564274,5.3379469942
3550,Heusden-Zolder,Vrunstraat,71,50.9892759084,5.28263735661
3550,Heusden-Zolder,Teggerslaan,31,51.0274251078,5.33613475581
3550,Heusden-Zolder,O.L. Vrouwstraat,36,51.0157274933,5.28388700249
3550,Heusden-Zolder,Voortstraat,1,51.044482509,5.27948830267
3550,Heusden-Zolder,Zwaluwstraat,11,51.0415176032,5.30278710921
3550,Heusden-Zolder,Nieuwstraat,115,51.0209094151,5.32949625345
3550,Heusden-Zolder,Halhei,41,51.0529092541,5.31893520494
3550,Heusden-Zolder,Bevrijdingsstraat,9,51.0400553533,5.3089831561
3550,Heusden-Zolder,Meeuwenlaan,32,50.9855299969,5.2609953481
3550,Heusden-Zolder,Schootstraat,201,51.0354888069,5.29549253862
3550,Heusden-Zolder,Dorpsstraat,111,51.0240814851,5.31778647733
3550,Heusden-Zolder,Nieuwstraat,80,51.0199129262,5.32588659477
3550,Heusden-Zolder,Halstraat,76,51.0475560825,5.30382571537
3550,Heusden-Zolder,Bavostraat,84,51.0325044606,5.25059354542
3550,Heusden-Zolder,Kanaalweg,129,51.0173938284,5.24202762495
3550,Heusden-Zolder,Bolderdal,49,50.9792470084,5.29331919086
3550,Heusden-Zolder,Butastraat,34,51.0275746922,5.23589135701
3550,Heusden-Zolder,Van Eycklaan,2,51.0286068278,5.31010010085
3550,Heusden-Zolder,Weg Naar De Grauwe Steen,95,51.058023256,5.32053163768
3550,Heusden-Zolder,Kuilberg,32,50.9770807496,5.27562919291
3550,Heusden-Zolder,Acht Meilaan,50,51.0222960832,5.33106983252
3550,Heusden-Zolder,Knaepenstraat,18,51.040701594,5.27777387184
3550,Heusden-Zolder,August Vermeylenlaan,19,51.0158837133,5.29623874681
3550,Heusden-Zolder,Hindenlaan,5,50.9862157878,5.26725537884
3550,Heusden-Zolder,Rijkelstraat,7,51.0219400416,5.34169860518
3550,Heusden-Zolder,Poelenstraat,40,51.009648546,5.27940428678
3550,Heusden-Zolder,Edward Staintonstraat,30,51.0383641124,5.304280609
3550,Heusden-Zolder,Pastoor Van Mierlolaan,2,51.0300791926,5.28277905057
3550,Heusden-Zolder,Pastoor Van Mierlolaan,36,51.032291279,5.28035800016
3550,Heusden-Zolder,Dorpshof,7,51.0197115367,5.31141658063
3550,Heusden-Zolder,Ursulinenstraat,15,51.0432556445,5.31056219795
3550,Heusden-Zolder,Mommestraat,29,51.0311381368,5.31707694573
3550,Heusden-Zolder,Inakker,47,51.0204294667,5.31083212533
3550,Heusden-Zolder,Valstraat,6,50.9973020028,5.25356219326
3550,Heusden-Zolder,Teggerslaan,13,51.0270755669,5.33495546316
3550,Heusden-Zolder,Sint-Jansstraat,18,51.0334176063,5.27181147577
3550,Heusden-Zolder,Opperstraat,29,51.0257484955,5.26220676445
3550,Heusden-Zolder,De Rijzillen,11,51.036181956,5.28962417115
3550,Heusden-Zolder,Koerselsebaan,43,51.0356333804,5.28104105891
3550,Heusden-Zolder,Ericastraat,21,51.0539262992,5.31811647142
3550,Heusden-Zolder,Guldensporenlaan,9,51.0084039142,5.29024099
3550,Heusden-Zolder,Havenstraat,33,51.0148854207,5.24467773501
3550,Heusden-Zolder,Sint-Jobstraat,163,50.9820771104,5.27434737454
3550,Heusden-Zolder,Meylandtlaan,105,51.0163995518,5.28819993346
3550,Heusden-Zolder,Bieststraat,16,51.0230342545,5.30937094126
3550,Heusden-Zolder,Kleine Venstraat,7,51.0176847428,5.29857005762
3550,Heusden-Zolder,Schansstraat,56,51.0395904843,5.29413906795
3550,Heusden-Zolder,O.L. Vrouwstraat,153,51.0119307855,5.27218735789
3550,Heusden-Zolder,Stationsstraat,27,51.0297686976,5.32897392774
3550,Heusden-Zolder,Dijkstraat,46,51.0349182904,5.25498157739
3550,Heusden-Zolder,Hofeinde,125,51.0081125918,5.29572695987
3550,Heusden-Zolder,Zolikenstraat,18,51.0249850359,5.34591087122
3550,Heusden-Zolder,Stationsstraat,98,51.0356460975,5.33019726926
3550,Heusden-Zolder,Sint-Jacobusstraat,2,51.0257181404,5.24211500132
3550,Heusden-Zolder,Bieststraat,131,51.0188246764,5.29946382869
3550,Heusden-Zolder,Bieststraat,69,51.0212943681,5.30440100976
3550,Heusden-Zolder,Kluisstraat,56,50.9921422924,5.27868746987
3550,Heusden-Zolder,Weg Naar De Grauwe Steen,59,51.0553606644,5.31649084861
3550,Heusden-Zolder,De Lobbert,24,51.0471202896,5.31223728757
3550,Heusden-Zolder,Pater Beckersstraat,8,51.0339683114,5.2483264551
3550,Heusden-Zolder,Bolderdal,14,50.9792915346,5.29012205825
3550,Heusden-Zolder,Sint-Lutgardisstraat,2,51.0393566961,5.29852575097
3550,Heusden-Zolder,Beringersteenweg,72,51.0312234505,5.25666382669
3550,Heusden-Zolder,Oude Baan,93,51.0461889637,5.29813563367
3550,Heusden-Zolder,Rinkaersweg,36,51.0265828029,5.27575532784
3550,Heusden-Zolder,Schansstraat,227,51.048175015,5.31516408388
3550,Heusden-Zolder,Fazantenlaan,8,50.9876716547,5.27085092358
3550,Heusden-Zolder,G. Gezellelaan,6,51.0327689688,5.27991978646
3550,Heusden-Zolder,Schaapsweg,25,51.041219167,5.27809464321
3550,Heusden-Zolder,Sint-Lutgardisstraat,89,51.0401682269,5.29922689123
3550,Heusden-Zolder,Beringersteenweg,54,51.0295602522,5.26026877572
3550,Heusden-Zolder,Sint-Willibrordusplein,4,51.0338098335,5.28134139577
3550,Heusden-Zolder,Abelenlaan,19,50.9842171778,5.30615062048
3550,Heusden-Zolder,Heidestraat,119,50.9805075075,5.29085489499
3550,Heusden-Zolder,Halstraat,120,51.0486581479,5.3092838987
3550,Heusden-Zolder,Beringerheide,34,51.040489563,5.2536858942
3550,Heusden-Zolder,Dekenstraat,28,51.0263955791,5.32238403612
3550,Heusden-Zolder,Kanaalweg,140,51.019056568,5.2454581804
3550,Heusden-Zolder,Horionweg,13,51.0199960579,5.25577291908
3550,Heusden-Zolder,Kanunnik Davidlaan,26,51.016386146,5.29631910865
3550,Heusden-Zolder,Weg Naar De Grauwe Steen,77,51.0565847278,5.31836115892
3550,Heusden-Zolder,De Kenen,20,51.0130204603,5.2813588436
3550,Heusden-Zolder,Poorthoevestraat,30,51.0311944851,5.28372336998
3550,Heusden-Zolder,Oude Heidestraat,10,50.9833184375,5.28492483334
3550,Heusden-Zolder,Ganzenstraat,11,51.0203832829,5.3008307726
3550,Heusden-Zolder,Irislaan,33,50.9811827101,5.28772459314
3550,Heusden-Zolder,Weg Naar De Grauwe Steen,24,51.0512260801,5.31283956546
3550,Heusden-Zolder,O.L. Vrouwstraat,100,51.0130842484,5.27797465657
3550,Heusden-Zolder,Parklaan,11,51.0178089879,5.27790369324
3550,Heusden-Zolder,Inakker,53,51.0201308711,5.31039994744
3550,Heusden-Zolder,Minderbroedersstraat,15,51.0442383681,5.31742727008
3550,Heusden-Zolder,Meilweg,29,51.0412553719,5.27214489487
3550,Heusden-Zolder,Dennenweg,58,51.0495759301,5.31725715082
3550,Heusden-Zolder,Champert,49,51.0335332855,5.26494737419
3550,Heusden-Zolder,Pastoor Sakstraat,2,51.0236279653,5.31724973317
3550,Heusden-Zolder,Breugellaan,18,51.0276996191,5.3096011573
3550,Heusden-Zolder,Halhei,15,51.0521478732,5.31655452896
3550,Heusden-Zolder,Brugstraat,84,51.0369037865,5.29130501305
3550,Heusden-Zolder,Edward Staintonstraat,93,51.0410526296,5.31103388865
3550,Heusden-Zolder,Hemelrijk,8,51.0204494604,5.24853598965
3550,Heusden-Zolder,Laambroekstraat,11,51.0207498443,5.33146477903
3550,Heusden-Zolder,Naaldert,22,51.0390807093,5.30989167241
3550,Heusden-Zolder,Heikant,77,51.0150828908,5.29687887234
3550,Heusden-Zolder,Sint-Quirinusstraat,2,50.9987496026,5.247980453
3550,Heusden-Zolder,Koolmijnlaan,105,51.0392927292,5.29936233067
3550,Heusden-Zolder,Bouwveldsteeg,8,51.0379469436,5.33778020087
3550,Heusden-Zolder,Kruiskapelstraat,6,51.042165754,5.27806271004
3550,Heusden-Zolder,Haverveldstraat,15,51.0210408234,5.30652766794
3550,Heusden-Zolder,Snelwegstraat,28,51.0061226201,5.26816313163
3550,Heusden-Zolder,Bavostraat,21,51.0278597357,5.24356781802
3550,Heusden-Zolder,Lusthofstraat,6,51.023530166,5.23624487355
3550,Heusden-Zolder,Ijskelder,47,51.0177100185,5.27226771661
3550,Heusden-Zolder,G. Gezellelaan,129,51.0286933866,5.27305959992
3550,Heusden-Zolder,Langeweg,11,51.0217995179,5.32063552877
3550,Heusden-Zolder,Cijnshofstraat,17,51.0324449145,5.28244390402
3550,Heusden-Zolder,Kapelhof,20,51.0173159176,5.28078145363
3550,Heusden-Zolder,Broeksteeg,10,51.0191257531,5.2974493499
3550,Heusden-Zolder,O.L. Vrouwstraat,186,51.0101961589,5.26837194008
3550,Heusden-Zolder,De Hoeven,29,51.0380933859,5.29990011269
3550,Heusden-Zolder,Nieuwstraat,171,51.0221422775,5.33507154042
3550,Heusden-Zolder,Geenrijt,48,51.0361130759,5.27226686662
3550,Heusden-Zolder,Brandeborg,4,51.0194738094,5.31920797214
3550,Heusden-Zolder,Beringersteenweg,11,51.0265059734,5.26501846689
3550,Heusden-Zolder,Astridlaan,13,51.0142282839,5.28414000343
3550,Heusden-Zolder,Galgenbergstraat,31,51.0500488928,5.33010929062
3550,Heusden-Zolder,Holleweg,16,51.0270707576,5.27359630281
3550,Heusden-Zolder,Bieststraat,44,51.0221072037,5.30675115588
3550,Heusden-Zolder,Hemelrijk,76,51.0254173626,5.2499004804
3550,Heusden-Zolder,Dorpsstraat,60,51.0233291422,5.31468222308
3550,Heusden-Zolder,Kleuterweg,42,51.0423116771,5.30050571347
3550,Heusden-Zolder,Sint-Jansblok,69,51.028739865,5.2675338918
3550,Heusden-Zolder,Nieuwstraat,16,51.0190510897,5.32000010649
3550,Heusden-Zolder,Kanaalweg,86,51.0227564254,5.25291933964
3550,Heusden-Zolder,Koolmijnlaan,123,51.0397079611,5.30002165771
3550,Heusden-Zolder,Jan Frans Willemslaan,22,51.0151685129,5.29344980282
3550,Heusden-Zolder,Beringersteenweg,9,51.026482528,5.26558236884
3550,Heusden-Zolder,Vlamingenlaan,31,51.0088489087,5.29221206101
3550,Heusden-Zolder,Pastoor Paquaylaan,109,51.0435420563,5.30834651288
3550,Heusden-Zolder,Koolmijnlaan,348,51.038838742,5.32458774467
3550,Heusden-Zolder,Reeënlaan,98,50.9860580111,5.26271694016
3550,Heusden-Zolder,Jordaenslaan,23,51.0285296967,5.30970666202
3550,Heusden-Zolder,Watertorenstraat,7,51.0474291876,5.32288579912
3550,Heusden-Zolder,Laambroekstraat,9,51.0208821905,5.3313419298
3550,Heusden-Zolder,Oudstrijderslaan,15,51.0297625273,5.28076962113
3550,Heusden-Zolder,Bieststraat,62,51.0212140989,5.30577770664
3550,Heusden-Zolder,O.L. Vrouwstraat,46,51.0152605518,5.28280216731
3550,Heusden-Zolder,Schansstraat,66,51.0403037268,5.29668475167
3550,Heusden-Zolder,Christoffelhof,29,51.0284201456,5.24063783019
3550,Heusden-Zolder,Koolmijnlaan,241,51.0420310413,5.30699784755
3550,Heusden-Zolder,Roerdompenlaan,7,50.9876181753,5.26975958557
3550,Heusden-Zolder,A. Cuppenslaan,45,51.0263183248,5.30862528556
3550,Heusden-Zolder,Kapelstraat,1,51.0343985239,5.28095281912
3550,Heusden-Zolder,Sint-Lutgardisstraat,82,51.0397106465,5.29898878933
3550,Heusden-Zolder,Koolmijnlaan,85,51.0391146971,5.29867322484
3550,Heusden-Zolder,Schansstraat,271,51.0501122274,5.32085711456
3550,Heusden-Zolder,Hindenlaan,19,50.9870763297,5.26670915319
3550,Heusden-Zolder,Halstraat,102,51.0484500234,5.30650267851
3550,Heusden-Zolder,Witte Barier,82,51.0166514762,5.30960180326
3550,Heusden-Zolder,H. Hartlaan,31,51.0090734488,5.28287185955
3550,Heusden-Zolder,Sint-Jansblok,87,51.028856528,5.26861884723
3550,Heusden-Zolder,Heidestraat,140,50.9813740107,5.2930901698
3550,Heusden-Zolder,Bovenstraat,15,51.0258350756,5.24605631238
3550,Heusden-Zolder,Weg Naar De Grauwe Steen,39,51.0537092237,5.31413673883
3550,Heusden-Zolder,Vogelsancklaan,25,51.0074497503,5.30107494304
3550,Heusden-Zolder,Singelstraat,28,51.0512163989,5.30795901738
3550,Heusden-Zolder,Azalealaan,2,50.9829813641,5.30478288731
3550,Heusden-Zolder,Gildenstraat,24,51.0020212542,5.25345477913
3550,Heusden-Zolder,Bremstraat,11,51.0503844594,5.33005657236
3550,Heusden-Zolder,Sint-Quirinusstraat,52,51.0012221012,5.25063811197
3550,Heusden-Zolder,Korte Eindstraat,16,51.0397719943,5.30534226177
3550,Heusden-Zolder,Kleuterweg,60,51.0439072332,5.29728943657
3550,Heusden-Zolder,Heuvelstraat,35,51.0414391322,5.28747139405
3550,Heusden-Zolder,Stenenbrug,17,51.0244316119,5.33357164248
3550,Heusden-Zolder,Lange Eindstraat,4,51.0393424338,5.30477014899
3550,Heusden-Zolder,Merelstraat,15,51.0348183081,5.26875791098
3550,Heusden-Zolder,Broederspad,29,50.9803433388,5.2691165015
3550,Heusden-Zolder,Langeweg,9,51.0216910728,5.32043904673
3550,Heusden-Zolder,Vrunstraat,25,50.9880030643,5.27723000305
3550,Heusden-Zolder,Rodenbachlaan,26,51.0241446588,5.30676007002
3550,Heusden-Zolder,Beringerheide,62,51.0410977593,5.25341635025
3550,Heusden-Zolder,Polenstraat,19,51.0423712779,5.30599664549
3550,Heusden-Zolder,Vogelsancklaan,1,51.011148102,5.29928695278
3550,Heusden-Zolder,Het Heike,16,51.0221319384,5.23707045479
3550,Heusden-Zolder,Burgemeester Eerdekensstraat,9,51.0294905224,5.27525301293
3550,Heusden-Zolder,Boomgaardstraat,12,51.0208075027,5.31808724342
3550,Heusden-Zolder,De Slogen,99,50.9846266313,5.2874479398
3550,Heusden-Zolder,Schootstraat,190,51.0332842301,5.29158506927
3550,Heusden-Zolder,Witte Barier,64,51.0165343192,5.31217449388
3550,Heusden-Zolder,Eikelenbosstraat,8,51.0485236241,5.30033597219
3550,Heusden-Zolder,Grootveldstraat,78,51.0126790364,5.29135933934
3550,Heusden-Zolder,Toekomststraat,7,51.0119564302,5.29235702519
3550,Heusden-Zolder,Sint-Lutgardisstraat,64,51.0400952924,5.29871867145
3550,Heusden-Zolder,Pastoor Paquaylaan,36,51.0421100602,5.3032354309
3550,Heusden-Zolder,Rodenbachlaan,52,51.0253784827,5.30540837568
3550,Heusden-Zolder,Berkenstraat,34,51.0531059094,5.33404444274
3550,Heusden-Zolder,Schreverland,3,51.0367770324,5.28006829319
3550,Heusden-Zolder,Obbeekstraat,81,51.0194027152,5.25314957776
3550,Heusden-Zolder,Langstraat,34,51.0352521691,5.33413884691
3550,Heusden-Zolder,Jeugdlaan,101,51.0047716929,5.25619441211
3550,Heusden-Zolder,Sint-Lutgardisstraat,18,51.0396916717,5.29826148863
3550,Heusden-Zolder,Schobbenberg,72,51.0196071092,5.32389390768
3550,Heusden-Zolder,Ernest Claeslaan,21,51.0273946111,5.30637889285
3550,Heusden-Zolder,Corbiestraat,19,51.0357219948,5.27470280134
3550,Heusden-Zolder,Gasthuisstraat,9,51.043877964,5.31858730916
3550,Heusden-Zolder,Kerkenblookstraat,53,51.0376367119,5.28504636892
3550,Heusden-Zolder,Schootstraat,244,51.0351672585,5.29827182003
3550,Heusden-Zolder,Stationsstraat,144,51.0375024594,5.3289665684
3550,Heusden-Zolder,Bergstraat,26,51.0402175457,5.28078896337
3550,Heusden-Zolder,Laamheidestraat,16,51.007980033,5.27443572969
3550,Heusden-Zolder,Koolmijnlaan,382,51.0371377751,5.33082306877
3550,Heusden-Zolder,Kleuterweg,5,51.0404080412,5.30122966267
3550,Heusden-Zolder,Voetpad,44,51.021953645,5.30875755189
3550,Heusden-Zolder,A. Cuppenslaan,10,51.0247200171,5.31015703733
3550,Heusden-Zolder,Schaltusstraat,64,50.999361946,5.25990197871
3550,Heusden-Zolder,Champert,32,51.0345936698,5.25790160363
3550,Heusden-Zolder,G. Gezellelaan,140,51.0283835848,5.27089561674
3550,Heusden-Zolder,Berkenstraat,16,51.0524988233,5.33395817161
3550,Heusden-Zolder,Koerselsebaan,88,51.0398787214,5.2828865585
3550,Heusden-Zolder,Kapelstraat,25,51.0332459649,5.27738506152
3550,Heusden-Zolder,Olmenstraat,11,51.0521958664,5.3321479489
3550,Heusden-Zolder,Elfde-Julilaan,5,51.0094509758,5.28907844618
3550,Heusden-Zolder,Everselkiezel,17,51.0296682128,5.25536824892
3550,Heusden-Zolder,Veldstraat,41,50.9999731514,5.24379279723
3550,Heusden-Zolder,Schobbenberg,54,51.0211226704,5.32297770392
3550,Heusden-Zolder,Hofeinde,90,51.0110352213,5.29459010186
3550,Heusden-Zolder,Langstraat,16,51.0346419027,5.33259770278
3550,Heusden-Zolder,Sint-Quirinusstraat,70,51.0018739389,5.25154954335
3550,Heusden-Zolder,Rinkaersweg,46,51.0270962456,5.27663569779
3550,Heusden-Zolder,Lusthofstraat,28,51.022139294,5.23414491793
3550,Heusden-Zolder,M. Scheperslaan,180,51.024766987,5.34857534261
3550,Heusden-Zolder,Halveld,21,51.0470223738,5.29398506764
3550,Heusden-Zolder,Sint-Hubertusstraat,11,51.0212634258,5.3100711064
3550,Heusden-Zolder,Kruiskapelstraat,28,51.0438053819,5.2776545181
3550,Heusden-Zolder,Nieuwstraat,48,51.0191358834,5.32282815788
3550,Heusden-Zolder,O.L. Vrouwstraat,207,51.0088701472,5.2668817439
3550,Heusden-Zolder,Nieuwland,9,50.9791020062,5.28091681279
3550,Heusden-Zolder,Galgenbergstraat,13,51.0499120377,5.32876939797
3550,Heusden-Zolder,Sint-Jansstraat,36,51.0344528063,5.27082175569
3550,Heusden-Zolder,M. Scheperslaan,116,51.0232182907,5.3422106771
3550,Heusden-Zolder,Hofstraat,9,51.0120286434,5.28870631926
3550,Heusden-Zolder,Veenderweg,8,51.0317293217,5.27148677043
3550,Heusden-Zolder,Rodenbachlaan,70,51.0259559529,5.3059653254
3550,Heusden-Zolder,Heidestraat,21,50.9795992809,5.27897438718
3550,Heusden-Zolder,Bergstraat,2,51.0390616132,5.28205784037
3550,Heusden-Zolder,Beringerheide,44,51.0403898391,5.25268501515
3550,Heusden-Zolder,Borgveld,19,51.0004574484,5.25714439147
3550,Heusden-Zolder,Biezenhof,11,51.0155473543,5.30676518802
3550,Heusden-Zolder,Boekterheide,34,51.0146085729,5.30354451707
3550,Heusden-Zolder,Mangelbeekstraat,1,51.0174397057,5.25502767778
3550,Heusden-Zolder,Heuvelstraat,17,51.0413560379,5.28511153109
3550,Heusden-Zolder,Inakker,96,51.0181042162,5.30752107861
3550,Heusden-Zolder,Belikstraat,69,51.0084137552,5.29268752977
3550,Heusden-Zolder,Knaepenstraat,36,51.0400960082,5.27509879531
3550,Heusden-Zolder,Zandstraat,75,50.9835934742,5.28412383809
3550,Heusden-Zolder,Bieststraat,148,51.0180620849,5.29813245247
3550,Heusden-Zolder,Kapelanijstraat,12,51.0337675668,5.27999783346
3550,Heusden-Zolder,Champert,14,51.0354326982,5.25438181107
3550,Heusden-Zolder,Stenenbrug,35,51.0230980606,5.33523709685
3550,Heusden-Zolder,Poelenstraat,12,51.011704585,5.27785950179
3550,Heusden-Zolder,Van Eycklaan,18,51.0291852154,5.30934848162
3550,Heusden-Zolder,Veenderweg,58,51.02868061,5.26611061858
3550,Heusden-Zolder,Eikenstraat,15,51.052045124,5.33072811603
3550,Heusden-Zolder,Vlamingenlaan,13,51.0095143467,5.29031913837
3550,Heusden-Zolder,Sint-Lutgardisstraat,46,51.0402194133,5.29828965729
3550,Heusden-Zolder,Schootstraat,262,51.0360914744,5.30037668511
3550,Heusden-Zolder,Sterrenwacht,122,50.9865126816,5.25913260849
3550,Heusden-Zolder,O.L. Vrouwstraat,133,51.0121510809,5.27372468403
3550,Heusden-Zolder,Rond Punt,11,51.0425215154,5.31016154324
3550,Heusden-Zolder,Beatrijslaan,11,51.0227898483,5.33223940117
3550,Heusden-Zolder,Begonialaan,34,50.9814383489,5.29116004083
3550,Heusden-Zolder,O.L. Vrouwstraat,18,51.0161463287,5.28591780668
3550,Heusden-Zolder,Vunderstraat,35,51.0372221501,5.32533621008
3550,Heusden-Zolder,Molenstraat,31,51.0259583378,5.31516758354
3550,Heusden-Zolder,Pastoor Van Mierlolaan,9,51.0302533731,5.28171895019
3550,Heusden-Zolder,Reeënlaan,27,50.9887364864,5.27025455491
3550,Heusden-Zolder,Haverveldstraat,68,51.018898541,5.30451002956
3550,Heusden-Zolder,Halstraat,230,51.0507019555,5.32095654961
3550,Heusden-Zolder,Kanaalweg,120,51.0195282621,5.24775800162
3550,Heusden-Zolder,Sint-Maartenlaan,34,51.047325589,5.30719148766
3550,Heusden-Zolder,Nieuwstraat,87,51.019819129,5.32702805261
3550,Heusden-Zolder,Rode Kruisstraat,34,51.0373468539,5.30742817213
3550,Heusden-Zolder,Van Eycklaan,9,51.0289983445,5.3103680033
3550,Heusden-Zolder,Brugstraat,38,51.0354723829,5.28717641671
3550,Heusden-Zolder,G. Gezellelaan,193,51.0263685545,5.26874690115
3550,Heusden-Zolder,Everselkiezel,43,51.0271742653,5.24700786017
3550,Heusden-Zolder,Kapelstraat,73,51.0321127046,5.26482221736
3550,Heusden-Zolder,Koolmijnlaan,424,51.0356076426,5.33585541202
3550,Heusden-Zolder,Joachimstraat,20,51.0344779288,5.25237042257
3550,Heusden-Zolder,Galgeneinde,109,50.9836015256,5.26109945777
3550,Heusden-Zolder,Ringlaan,104,51.0271958767,5.32168145566
3550,Heusden-Zolder,Sportalaan,24,51.0309522287,5.28294651125
3550,Heusden-Zolder,Lijsterbessenstraat,7,51.0516411541,5.33372324825
3550,Heusden-Zolder,Savoerenweg,17,51.0427805762,5.27318366799
3550,Heusden-Zolder,Onder De Poort,27,51.0394259992,5.30354227427
3550,Heusden-Zolder,Sint-Jansblok,16,51.0283094275,5.26927533713
3550,Heusden-Zolder,Kooidries,7,51.0356161737,5.27775845742
3550,Heusden-Zolder,Singelstraat,56,51.0517515918,5.30799929011
3550,Heusden-Zolder,Kuilberg,5,50.9780623304,5.27496737527
3550,Heusden-Zolder,Schansstraat,117,51.0433277107,5.30096858784
3550,Heusden-Zolder,Edward Staintonstraat,29,51.0382959846,5.30285296096
3550,Heusden-Zolder,O.L. Vrouwstraat,115,51.0129526289,5.2761950249
3550,Heusden-Zolder,Bevrijdingsstraat,2,51.0404449875,5.30815881874
3550,Heusden-Zolder,Landweg,36,51.0208950527,5.32192387515
3550,Heusden-Zolder,Meylandtlaan,194,51.0120657146,5.29846512481
3550,Heusden-Zolder,Zandstraat,179,50.9846050828,5.29800000293
3550,Heusden-Zolder,Kolderstraat,65,51.0392737441,5.3369715415
3550,Heusden-Zolder,Westlaan,321,50.9958431828,5.23561375798
3550,Heusden-Zolder,Witte Bosstraat,16,51.0494562153,5.31788938227
3550,Heusden-Zolder,Kerkeveld,18,51.019540043,5.31509621548
3550,Heusden-Zolder,Edward Staintonstraat,3,51.0370735055,5.30052470949
3550,Heusden-Zolder,Kanaalweg,15,51.0245640958,5.26426527594
3550,Heusden-Zolder,Beringersteenweg,99,51.0343722793,5.24865455388
3550,Heusden-Zolder,Gasthuisstraat,18,51.0459183684,5.319298441
3550,Heusden-Zolder,Boekterheide,48,51.0144802538,5.30238317875
3550,Heusden-Zolder,Dunantplein,16,51.0231185698,5.32052652103
3550,Heusden-Zolder,G. Gezellelaan,175,51.0270078785,5.26981849256
3550,Heusden-Zolder,Halstraat,212,51.0499370056,5.32009151971
3550,Heusden-Zolder,Beekstraat,5,51.0151336209,5.28321796905
3550,Heusden-Zolder,Eikenstraat,33,51.052769257,5.33107847944
3550,Heusden-Zolder,Rode Kruisstraat,16,51.0397091999,5.30596911395
3550,Heusden-Zolder,De Lobbert,50,51.048443047,5.31413995618
3550,Heusden-Zolder,Pater Beckersstraat,76,51.0304310627,5.23839933192
3550,Heusden-Zolder,Berkenstraat,48,51.0536642349,5.33414611231
3550,Heusden-Zolder,Koolmijnlaan,406,51.0363704211,5.33319394411
3550,Heusden-Zolder,Koolmijnlaan,39,51.0385453519,5.295782802
3550,Heusden-Zolder,Belikstraat,70,51.0078239652,5.29300419118
3550,Heusden-Zolder,Stukkenstraat,2,51.0302460552,5.31048834621
3550,Heusden-Zolder,Hofeinde,72,51.0120884041,5.29371770927
3550,Heusden-Zolder,Sint-Annastraat,39,51.0178736442,5.28613323455
3550,Heusden-Zolder,Kollebloem,15,51.0280024739,5.33503561794
3550,Heusden-Zolder,Koolmijnlaan,176,51.0414769046,5.3092405976
3550,Heusden-Zolder,De Slogen,11,50.9875819693,5.27877732108
3550,Heusden-Zolder,De Nieuwe Dijk,17,51.0497087456,5.30177551653
3550,Heusden-Zolder,Koolmijnlaan,294,51.0410439775,5.31537172052
3550,Heusden-Zolder,Kerkeveld,9,51.0187795535,5.31449818775
3550,Heusden-Zolder,Slagmolenstraat,4,51.0113753735,5.26279167617
3550,Heusden-Zolder,Vrunstraat,78,50.9913478659,5.28298589908
3550,Heusden-Zolder,Halvijvers,23,51.0471243992,5.30511471718
3550,Heusden-Zolder,Graaf de Theuxlaan,31,51.0237826381,5.27236316883
3550,Heusden-Zolder,Inakker,25,51.0216772179,5.31112735021
3550,Heusden-Zolder,Sint-Jobstraat,90,50.9870840978,5.27531245259
3550,Heusden-Zolder,Merelstraat,68,51.0449704825,5.26037314981
3550,Heusden-Zolder,Heikant,5,51.0168527441,5.30436280268
3550,Heusden-Zolder,Kerkenblookstraat,71,51.0364809811,5.28735476795
3550,Heusden-Zolder,Acht Meilaan,24,51.0246685136,5.32918542975
3550,Heusden-Zolder,Bovenstraat,68,51.024975714,5.23909090419
3550,Heusden-Zolder,Zwaluwstraat,4,51.0417174753,5.30327008112
3550,Heusden-Zolder,Holstraat,52,51.0205836145,5.31687759178
3550,Heusden-Zolder,Dorpsstraat,138,51.0249065715,5.31933343666
3550,Heusden-Zolder,Sint-Jobstraat,233,50.9779445408,5.27728738058
3550,Heusden-Zolder,Veldstraat,33,50.9998266516,5.24503166153
3550,Heusden-Zolder,Sportalaan,5,51.0310057275,5.28149783289
3550,Heusden-Zolder,Singelstraat,74,51.0503755767,5.30892979273
3550,Heusden-Zolder,Kanaalweg,102,51.0201799556,5.25142711914
3550,Heusden-Zolder,Berkenstraat,46,51.0535735527,5.33412127628
3550,Heusden-Zolder,Dekenstraat,74,51.0270710439,5.32619482091
3550,Heusden-Zolder,Schansstraat,253,51.0496611218,5.31989008915
3550,Heusden-Zolder,Langstraat,46,51.0354163322,5.33516708365
3550,Heusden-Zolder,Opperstraat,12,51.0271875908,5.26238050319
3550,Heusden-Zolder,Bieststraat,7,51.023664159,5.30942807662
3550,Heusden-Zolder,Inakker,1,51.0227715239,5.31284488673
3550,Heusden-Zolder,Graaf de Theuxlaan,13,51.0251270815,5.2697214054
3550,Heusden-Zolder,Bolderdal,5,50.9786950599,5.28930730751
3550,Heusden-Zolder,Bieststraat,80,51.020323413,5.30404707548
3550,Heusden-Zolder,Hoensbroeckstraat,36,51.0430516851,5.27609409161
3550,Heusden-Zolder,Sint-Lutgardisstraat,48,51.0402807656,5.29831839672
3550,Heusden-Zolder,Geenrijt,16,51.0376294334,5.27822062506
3550,Heusden-Zolder,Stationsstraat,91,51.0352915187,5.33153049359
3550,Heusden-Zolder,Herckenrodestraat,25,50.9915938072,5.25497874455
3550,Heusden-Zolder,Meylandtlaan,141,51.0144302184,5.29161418619
3550,Heusden-Zolder,Oudstrijderslaan,33,51.0298781857,5.28149336992
3550,Heusden-Zolder,Kerkstraat,16,50.9975286514,5.24912911757
3550,Heusden-Zolder,Hofstraat,18,51.0127108862,5.28926795604
3550,Heusden-Zolder,Edward Staintonstraat,40,51.0388055636,5.30542614445
3550,Heusden-Zolder,Butastraat,44,51.0282763132,5.23528396773
3550,Heusden-Zolder,De Panestraat,16,51.0115092528,5.28650383105
3550,Heusden-Zolder,Voortstraat,61,51.0423966525,5.26955883063
3550,Heusden-Zolder,Schansstraat,135,51.0436454966,5.30269199275
3550,Heusden-Zolder,Dekenstraat,56,51.0267690967,5.32482171865
3550,Heusden-Zolder,Pastorijstraat,23,51.0341898671,5.27768939612
3550,Heusden-Zolder,Schansstraat,188,51.0465318277,5.31229301392
3550,Heusden-Zolder,Bovenstraat,33,51.0248250401,5.24485654431
3550,Heusden-Zolder,Kleine Venstraat,24,51.0169837003,5.30017487999
3550,Heusden-Zolder,Savoerenweg,35,51.0426149294,5.27386935681
3550,Heusden-Zolder,De Wallen,6,51.0150094882,5.2884043524
3550,Heusden-Zolder,Stationsstraat,73,51.0339653676,5.33090196985
3550,Heusden-Zolder,Nieuwstraat,100,51.0214774038,5.32701468965
3550,Heusden-Zolder,Schootstraat,172,51.0322789903,5.28961306807
3550,Heusden-Zolder,Ubbelstraat,59,51.0131860449,5.28570545732
3550,Heusden-Zolder,Hofeinde,11,51.0158275082,5.28822631919
3550,Heusden-Zolder,M. Scheperslaan,78,51.0254649786,5.33699769702
3550,Heusden-Zolder,Middenweg,7,50.9992456339,5.25515493955
3550,Heusden-Zolder,Max Vanmelbeekstraat,7,51.0320049833,5.28641447589
3550,Heusden-Zolder,Minderbroedersstraat,41,51.045269878,5.3198293085
3550,Heusden-Zolder,Sint-Lutgardisstraat,9,51.0394207865,5.29791189567
3550,Heusden-Zolder,Belikstraat,125,51.0066495518,5.28633331472
3550,Heusden-Zolder,Merelstraat,33,51.0369714569,5.26658776614
3550,Heusden-Zolder,Rijkelstraat,59,51.0188370198,5.34566961607
3550,Heusden-Zolder,Koerselsebaan,157,51.046949363,5.27783612689
3550,Heusden-Zolder,Nieuwstraat,153,51.0216844317,5.33325259195
3550,Heusden-Zolder,Sint-Jacobusstraat,9,51.0252935767,5.24340736953
3550,Heusden-Zolder,M. Scheperslaan,25,51.0268470156,5.33101047387
3550,Heusden-Zolder,Opperstraat,30,51.0260848349,5.26179951399
3550,Heusden-Zolder,Abdijstraat,37,51.0110794305,5.26238972508
3550,Heusden-Zolder,Meilweg,12,51.0420183882,5.27442876877
3550,Heusden-Zolder,Nicolaistraat,11,51.0332563984,5.28972169912
3550,Heusden-Zolder,Pater Beckersstraat,23,51.0330555914,5.24647301166
3550,Heusden-Zolder,Teggerslaan,6,51.027203556,5.33401668776
3550,Heusden-Zolder,Poorthoevestraat,3,51.0330946906,5.28319581739
3550,Heusden-Zolder,Halhei,33,51.0527661911,5.31851653088
3550,Heusden-Zolder,Schootstraat,154,51.0314397244,5.28782946091
3550,Heusden-Zolder,Weg Naar De Grauwe Steen,128,51.0570982472,5.3205393405
3550,Heusden-Zolder,De Rijzillen,4,51.035617255,5.28941344651
3550,Heusden-Zolder,Schaltusstraat,9,51.0024057887,5.26360615836
3550,Heusden-Zolder,Rubenslaan,27,51.027137301,5.31133197738
3550,Heusden-Zolder,Guldensporenlaan,2,51.0086356618,5.29161778113
3550,Heusden-Zolder,Jeugdlaan,136,51.0032854597,5.25336184011
3550,Heusden-Zolder,Kerkstraat,87,50.9940550673,5.2546150761
3550,Heusden-Zolder,Klokstraat,20,51.016557361,5.2834792361
3550,Heusden-Zolder,Ringlaan,88,51.0266074933,5.31934832106
3550,Heusden-Zolder,Pater Amideuslaan,1,51.0419917477,5.31412093029
3550,Heusden-Zolder,Geenrijt,87,51.0339855846,5.26924117666
3550,Heusden-Zolder,Boekterheide,64,51.0137043504,5.30143097657
3550,Heusden-Zolder,Molenstraat,56,51.0273484558,5.31221977248
3550,Heusden-Zolder,Geenrijt,34,51.0374891758,5.27519386209
3550,Heusden-Zolder,Weg Naar De Grauwe Steen,50,51.0533439737,5.31514360995
3550,Heusden-Zolder,Kerkstraat,34,50.9963973141,5.24981029888
3550,Heusden-Zolder,Ubbelstraat,24,51.0133408597,5.28999488912
3550,Heusden-Zolder,Minderbroedersstraat,8,51.0423623828,5.31240839966
3550,Heusden-Zolder,Vrunstraat,96,50.9910430479,5.28529148874
3550,Heusden-Zolder,Kleuterweg,11A,51.0405443368,5.30077422991
3550,Heusden-Zolder,Horionweg,6,51.0208908258,5.25572189299
3550,Heusden-Zolder,Poststraat,13,51.0427058611,5.30879359049
3550,Heusden-Zolder,De Panestraat,34,51.0105702186,5.28714420026
3550,Heusden-Zolder,Weg Naar De Grauwe Steen,14,51.0507856465,5.31189006838
3550,Heusden-Zolder,Holstraat,48,51.0208921864,5.31654874851
3550,Heusden-Zolder,Dorpsstraat,59,51.0230044422,5.31442379189
3550,Heusden-Zolder,Dennenweg,41,51.0487572809,5.31744163859
3550,Heusden-Zolder,Olmenstraat,4,51.05182436,5.33122020423
3550,Heusden-Zolder,Lavendelsteeg,16,51.0536206376,5.31634404389
3550,Heusden-Zolder,Sluisbamd,64,51.0284145359,5.30729843169
3550,Heusden-Zolder,G. Gezellelaan,130,51.0289185951,5.27157081643
3550,Heusden-Zolder,Langeweg,18,51.0223581278,5.32138138875
3550,Heusden-Zolder,Inakker,61,51.0198638862,5.30979195898
3550,Heusden-Zolder,Meylandtlaan,131,51.0150694488,5.29057488986
3550,Heusden-Zolder,G. Gezellelaan,74,51.0313191361,5.27642767333
3550,Heusden-Zolder,Schaapsweg,88,51.040922315,5.2695871882
3550,Heusden-Zolder,Mommestraat,83,51.0323662472,5.32406429747
3550,Heusden-Zolder,Singelstraat,21,51.0513813553,5.305884131
3550,Heusden-Zolder,Naaldert,29,51.0403731936,5.31166172411
3550,Heusden-Zolder,Sint-Lutgardisstraat,107,51.03977743,5.29947891662
3550,Heusden-Zolder,Stationsstraat,116,51.0364847307,5.33024373453
3550,Heusden-Zolder,Reeënlaan,45,50.9881488053,5.26835601179
3550,Heusden-Zolder,Oudstrijderslaan,8,51.0300144701,5.28018290849
3550,Heusden-Zolder,G. Gezellelaan,112,51.0296822685,5.27302226091
3550,Heusden-Zolder,Vunderstraat,53,51.0364896693,5.32292202498
3550,Heusden-Zolder,Graaf de Theuxlaan,6,51.025632394,5.26728803336
3550,Heusden-Zolder,Sint-Rochusstraat,1,51.0189664532,5.30913809913
3550,Heusden-Zolder,Halstraat,33,51.0463463162,5.30067807774
3550,Heusden-Zolder,De Lobbert,32,51.0475436324,5.31252649269
3550,Heusden-Zolder,Dorpsstraat,77,51.0231551575,5.31551327733
3550,Heusden-Zolder,Berkenstraat,9,51.0522626332,5.33455376505
3550,Heusden-Zolder,Acacialaan,14,51.0508188502,5.33272673432
3550,Heusden-Zolder,Het Heike,11,51.0218026693,5.23827232027
3550,Heusden-Zolder,Zandstraat,22,50.9843572674,5.27783193214
3550,Heusden-Zolder,Heikant,60,51.0150033673,5.2993318265
3550,Heusden-Zolder,M. Scheperslaan,43,51.0265700644,5.33279749658
3550,Heusden-Zolder,Zeven Septemberlaan,3,51.0415838122,5.30432062311
3550,Heusden-Zolder,Schreverland,22,51.0366394701,5.27804895967
3550,Heusden-Zolder,G. Gezellelaan,56,51.0317996641,5.27726244994
3550,Heusden-Zolder,Breugellaan,11,51.0277189551,5.31027439968
3550,Heusden-Zolder,Everselkiezel,104,51.0260766409,5.23785525922
3550,Heusden-Zolder,Schansstraat,317,51.0507203275,5.3231392147
3550,Heusden-Zolder,Boekerijstraat,4,51.0429917906,5.31157348222
3550,Heusden-Zolder,Reeënlaan,81,50.9873441977,5.26367156099
3550,Heusden-Zolder,Schansstraat,181,51.046635144,5.31123521054
3550,Heusden-Zolder,O.L. Vrouwstraat,161,51.0115739247,5.27116456074
3550,Heusden-Zolder,Het Bergske,4,51.0209236015,5.31272008921
3550,Heusden-Zolder,Bovenstraat,8,51.0263835969,5.24636124477
3550,Heusden-Zolder,Het Bergske,18,51.0206770668,5.31339642069
3550,Heusden-Zolder,De Lobbert,14,51.0475789391,5.3116993294
3550,Heusden-Zolder,Het Wijerke,2,51.0404841697,5.30970202948
3550,Heusden-Zolder,Stationsstraat,20,51.029289864,5.32793168849
3550,Heusden-Zolder,Beukenstraat,34,51.0537248389,5.3332122581
3550,Heusden-Zolder,De Vin,10,51.0322364054,5.26829722017
3550,Heusden-Zolder,Heidestraat,28,50.980121546,5.27931663319
3550,Heusden-Zolder,Minderbroedersstraat,23,51.0446129072,5.31775829599
3550,Heusden-Zolder,Boekterheide,9,51.016338961,5.30439899228
3550,Heusden-Zolder,Halhei,8,51.0510487496,5.31505180558
3550,Heusden-Zolder,Mommestraat,5,51.029942369,5.31161245314
3550,Heusden-Zolder,Heikant,42,51.0156875975,5.30098679869
3550,Heusden-Zolder,Dijkstraat,36,51.0340218132,5.2553317157
3550,Heusden-Zolder,Het Heike,9,51.021973089,5.2382512563
3550,Heusden-Zolder,Jeugdlaan,118,51.0039172311,5.2550486314
3550,Heusden-Zolder,Verlorenkost,15,51.0196458236,5.32928545069
3550,Heusden-Zolder,Obbeekstraat,98,51.0194253439,5.25385808028
3550,Heusden-Zolder,Sluisbamd,46,51.0265187637,5.30894434747
3550,Heusden-Zolder,Stationsstraat,134,51.0373338376,5.32943705459
3550,Heusden-Zolder,Koolmijnlaan,442,51.0357838696,5.33890995968
3550,Heusden-Zolder,Poelenstraat,37,51.0094344363,5.27893643468
3550,Heusden-Zolder,Koerselsebaan,139,51.0440683604,5.28008002545
3550,Heusden-Zolder,Breugellaan,9,51.0277492956,5.31039233203
3550,Heusden-Zolder,Holstraat,16,51.0223993292,5.31615707898
3550,Heusden-Zolder,Tulpenlaan,7,50.98241925,5.29684465122
3550,Heusden-Zolder,De Slogen,64,50.9871169827,5.28560703984
3550,Heusden-Zolder,Mommestraat,65,51.0323079491,5.32154193439
3550,Heusden-Zolder,Astridlaan,6,51.0141193254,5.28581366771
3550,Heusden-Zolder,Holleweg,9,51.027729709,5.27395758864
3550,Heusden-Zolder,Schaltusstraat,11,51.0022755799,5.26382365102
3550,Heusden-Zolder,Onder De Poort,3,51.0399083726,5.30306853198
3550,Heusden-Zolder,Bergstraat,44,51.0416245381,5.27983448717
3550,Heusden-Zolder,Pastoor Paquaylaan,72,51.0427684635,5.30634384858
3550,Heusden-Zolder,Schootstraat,208,51.0341156563,5.29315793761
3550,Heusden-Zolder,Grootveldstraat,61,51.0117737034,5.29020943545
3550,Heusden-Zolder,Diepeweg,13,51.0137435597,5.27422191362
3550,Heusden-Zolder,Lavendelsteeg,2,51.0532908531,5.31707505265
3550,Heusden-Zolder,Sint-Hubertusstraat,4,51.0206475355,5.31045324639
3550,Heusden-Zolder,Grootveldstraat,25,51.0113661432,5.28752761938
3550,Heusden-Zolder,Middenweg,26,50.9985075175,5.25220065959
3550,Heusden-Zolder,Corbiestraat,12,51.036017862,5.27515579905
3550,Heusden-Zolder,Heuvelstraat,104,51.0421246223,5.29327629807
3550,Heusden-Zolder,Beukenstraat,2,51.051777751,5.3326207032
3550,Heusden-Zolder,Galgeneinde,13,50.9877042298,5.27277750438
3550,Heusden-Zolder,Schobbenberg,36,51.0219469771,5.32246356489
3550,Heusden-Zolder,Ijzersveld,20,51.0228294528,5.25574524312
3550,Heusden-Zolder,Pater Beckersstraat,94,51.029327611,5.23497185275
3550,Heusden-Zolder,Koerselsebaan,35,51.0353849553,5.28135929216
3550,Heusden-Zolder,Westlaan,131,51.0022652034,5.25663145239
3550,Heusden-Zolder,Asseweg,135,51.028820313,5.34965371378
3550,Heusden-Zolder,Sint-Jozefsstraat,46,51.0207994801,5.31950357236
3550,Heusden-Zolder,Christoffelhof,22,51.0290326541,5.2416743661
3550,Heusden-Zolder,Kuilberg,42,50.9763863043,5.2759528005
3550,Heusden-Zolder,Kruisvijverstraat,6,51.0410758942,5.26864247021
3550,Heusden-Zolder,Steenberg,25,51.0143434295,5.27220143911
3550,Heusden-Zolder,Pastoor Paquaylaan,54,51.0424672801,5.30517320893
3550,Heusden-Zolder,Sint-Lutgardisstraat,11,51.0394623185,5.29787778632
3550,Heusden-Zolder,Halveld,28,51.0478895223,5.29411004006
3550,Heusden-Zolder,Sluisbamd,4,51.0243918019,5.31177329294
3550,Heusden-Zolder,Schuttershof,28,51.020657762,5.31520533642
3550,Heusden-Zolder,Vrunstraat,270,50.9936549195,5.3020009692
3550,Heusden-Zolder,Jeugdlaan,98,51.0042073511,5.25651156163
3550,Heusden-Zolder,Heuvelstraat,122,51.0427059659,5.29526763355
3550,Heusden-Zolder,Kruiskapelstraat,21,51.0431462732,5.27686111767
3550,Heusden-Zolder,Roosterstraat,29,51.0134704291,5.2973760354
3550,Heusden-Zolder,De Rieten,13,51.0473676257,5.29802970632
3550,Heusden-Zolder,Nieuwstraat,9,51.0185614933,5.31920098757
3550,Heusden-Zolder,Jan Frans Willemslaan,29,51.0162178528,5.29274483345
3550,Heusden-Zolder,Meylandtlaan,113,51.0159420997,5.28900001708
3550,Heusden-Zolder,M. Scheperslaan,169,51.0237208267,5.34804826586
3550,Heusden-Zolder,Koolmijnlaan,336,51.038975364,5.32322810482
3550,Heusden-Zolder,Nieuwstraat,196,51.023589583,5.33743882924
3550,Heusden-Zolder,Vlamingenlaan,6,51.0100719208,5.2899023331
3550,Heusden-Zolder,Poelenstraat,19,51.0108075956,5.27774232784
3550,Heusden-Zolder,Galgeneinde,127,50.9836061689,5.25965784503
3550,Heusden-Zolder,A. Cuppenslaan,27,51.0254045198,5.30943484089
3550,Heusden-Zolder,De Hoeven,22,51.0372558363,5.2973036957
3550,Heusden-Zolder,Koolmijnlaan,389,51.0374114223,5.33139475424
3550,Heusden-Zolder,Voetpad,26,51.0222725873,5.31050148661
3550,Heusden-Zolder,Sluisbamd,82,51.0293382648,5.30562479189
3550,Heusden-Zolder,Schootstraat,93,51.0293707031,5.28199339956
3550,Heusden-Zolder,Van Eycklaan,11,51.0290817567,5.31032463376
3550,Heusden-Zolder,Vrunstraat,43,50.9885055175,5.27937768068
3550,Heusden-Zolder,Mommestraat,103,51.0314790007,5.32656930537
3550,Heusden-Zolder,Kruiswegstraat,13,51.0350806864,5.28962844107
3550,Heusden-Zolder,Belikstraat,52,51.0090427926,5.29505014144
3550,Heusden-Zolder,Heidestraat,230,50.983559492,5.30804089069
3550,Heusden-Zolder,Vlassertstraat,34,51.0528934482,5.31718309473
3550,Heusden-Zolder,Koolmijnlaan,223,51.0418144224,5.30584289066
3550,Heusden-Zolder,Schansstraat,145,51.0449574759,5.30611506834
3550,Heusden-Zolder,Oude Baan,138,51.0486367217,5.30332876589
3550,Heusden-Zolder,Ernest Claeslaan,28,51.026891393,5.30580002959
3550,Heusden-Zolder,Meeuwenlaan,60,50.9842807398,5.26114216603
3550,Heusden-Zolder,Schomstraat,18,51.0318076381,5.27045297289
3550,Heusden-Zolder,Sacramentspad,1,50.99360925,5.25342332027
3550,Heusden-Zolder,Pastoor Van Mierlolaan,11,51.0303059665,5.28161419631
3550,Heusden-Zolder,Sint-Jozefsstraat,18,51.0229445159,5.3193160994
3550,Heusden-Zolder,Exelgaarden,17,51.0403048177,5.28503832023
3550,Heusden-Zolder,Meylandtlaan,166,51.0132964026,5.29510554141
3550,Heusden-Zolder,Biezenhof,4,51.0161963749,5.30711967103
3550,Heusden-Zolder,Padbroekweg,28,51.0285869556,5.23938047003
3550,Heusden-Zolder,Averbodeshof,10,50.9893148285,5.27590658307
3550,Heusden-Zolder,Heidestraat,56,50.980412806,5.2835895865
3550,Heusden-Zolder,Averbodeshof,3,50.9899560844,5.27627752285
3550,Heusden-Zolder,Eikenstraat,8,51.051933483,5.32992339445
3550,Heusden-Zolder,Kuilberg,24,50.9771810006,5.27702422559
3550,Heusden-Zolder,Vroenweg,47,51.0271371228,5.23278178268
3550,Heusden-Zolder,Onder De Poort,45,51.0390616421,5.30391627342
3550,Heusden-Zolder,Schaapsweg,35,51.0411237328,5.2770889277
3550,Heusden-Zolder,Reeënlaan,10,50.988900969,5.2719917218
3550,Heusden-Zolder,Kerkeveld,11,51.0188182104,5.31473285538
3550,Heusden-Zolder,Kanaalweg,137,51.0170893796,5.24101789183
3550,Heusden-Zolder,Haverveldstraat,51,51.0199416753,5.30590359464
3550,Heusden-Zolder,Veenderweg,23,51.0306369659,5.27367782243
3550,Heusden-Zolder,Noordberm,2,51.0338173813,5.27615764175
3550,Heusden-Zolder,Elf Novemberstraat,28,51.0182770131,5.30510575503
3550,Heusden-Zolder,Nieuwstraat,125,51.0211180647,5.33051979871
3550,Heusden-Zolder,Rijthof,10,51.0181079022,5.31858476264
3550,Heusden-Zolder,Kerkstraat,9,50.9978128462,5.24827242859
3550,Heusden-Zolder,De Panestraat,9,51.0119227754,5.28555943584
3550,Heusden-Zolder,Beringersteenweg,64,51.0301437859,5.25909151621
3550,Heusden-Zolder,Gasthuisstraat,11,51.0442047063,5.31864713602
3550,Heusden-Zolder,Sint-Annastraat,14,51.0174761138,5.28911427066
3550,Heusden-Zolder,Mommestraat,37,51.0312591162,5.31809417342
3550,Heusden-Zolder,Halstraat,86,51.0478117246,5.30529861812
3550,Heusden-Zolder,Geenrijt,9,51.0373512787,5.27910607121
3550,Heusden-Zolder,Westlaan,148,51.0008233724,5.2554000869
3550,Heusden-Zolder,Melkerijstraat,12,51.0232688066,5.26397735867
3550,Heusden-Zolder,Viverselweg,23,51.0083589259,5.26951134727
3550,Heusden-Zolder,Koolmijnlaan,14,51.0375938092,5.29479893966
3550,Heusden-Zolder,Schansstraat,110,51.043035669,5.3025633114
3550,Heusden-Zolder,Lillostraat,14,51.0371128546,5.33879736255
3550,Heusden-Zolder,Dorpsstraat,121,51.0243742768,5.31870041943
3550,Heusden-Zolder,Mispad,8,51.0323204219,5.2854931215
3550,Heusden-Zolder,Onder De Poort,10,51.0396796247,5.30284836681
3550,Heusden-Zolder,Dikkelstraat,28,51.0043598013,5.26483351868
3550,Heusden-Zolder,Roosterstraat,40,51.013269806,5.29640413069
3550,Heusden-Zolder,Toekomststraat,44,51.0099928653,5.28893078464
3550,Heusden-Zolder,Brugstraat,31,51.0353863205,5.28502410321
3550,Heusden-Zolder,Ghoosstraat,14,51.0319109281,5.27559972864
3550,Heusden-Zolder,Weg Naar De Grauwe Steen,49,51.0544945173,5.31571918016
3550,Heusden-Zolder,Bieststraat,123,51.0190833957,5.30021410641
3550,Heusden-Zolder,O.L. Vrouwstraat,11,51.0166819085,5.28630184689
3550,Heusden-Zolder,Brandeborg,36,51.0200998385,5.32281944738
3550,Heusden-Zolder,Koolmijnlaan,151,51.0401895974,5.30171667817
3550,Heusden-Zolder,Van Dijcklaan,18,51.0287482057,5.30905843137
3550,Heusden-Zolder,Zandstraat,154,50.9850894928,5.29522793697
3550,Heusden-Zolder,Kleuterweg,24,51.0413341356,5.3014821236
3550,Heusden-Zolder,Weg Naar De Grauwe Steen,85,51.0571995048,5.3193446204
3550,Heusden-Zolder,Terlaemenlaan,49,51.0074221193,5.27166644976
3550,Heusden-Zolder,Ketelstraat,34,51.0290540009,5.30792611102
3550,Heusden-Zolder,Kanunnik Davidlaan,34,51.0164465683,5.29530257757
3550,Heusden-Zolder,Bieststraat,26,51.0228312903,5.30868181974
3550,Heusden-Zolder,Koolmijnlaan,205,51.0411896806,5.30427837441
3550,Heusden-Zolder,Schaapsweg,17,51.0414586665,5.27883694243
3550,Heusden-Zolder,Hoekstraat,22,51.0256949423,5.3296287258
3550,Heusden-Zolder,Van Dijcklaan,4,51.029308322,5.3086013838
3550,Heusden-Zolder,Pastoor Paquaylaan,90,51.0433615285,5.3093837334
3550,Heusden-Zolder,Kollebloem,8,51.0275944906,5.33462290921
3550,Heusden-Zolder,Grauwzustersstraat,27,51.0478141201,5.31278580586
3550,Heusden-Zolder,Schansstraat,235,51.0483689498,5.31622223155
3550,Heusden-Zolder,Kanaalweg,119,51.0178431755,5.24367900506
3550,Heusden-Zolder,Schaapsweg,114,51.0405592561,5.26582889033
3550,Heusden-Zolder,Bovenstraat,51,51.0241683404,5.2430690378
3550,Heusden-Zolder,Ubbelstraat,42,51.0131204483,5.28809703632
3550,Heusden-Zolder,Schansstraat,13,51.0397195536,5.28876470196
3550,Heusden-Zolder,Heuvelstraat,71,51.0427530621,5.2938518441
3550,Heusden-Zolder,Teggerslaan,21,51.0271128045,5.33558773969
3550,Heusden-Zolder,De Vin,3,51.0325795596,5.26781253089
3550,Heusden-Zolder,Ericastraat,13,51.0542064293,5.31755746837
3550,Heusden-Zolder,Vroenweg,20,51.0255481551,5.23519652125
3550,Heusden-Zolder,Zandstraat,57,50.9835612702,5.28189592152
3550,Heusden-Zolder,Sterrenwacht,150,50.9865774925,5.25449284647
3550,Heusden-Zolder,Hofeinde,89,51.0108084371,5.29390117933
3550,Heusden-Zolder,Nieuwstraat,70,51.019611171,5.32498733358
3550,Heusden-Zolder,Kayenberg,11,51.0149632479,5.27288293531
3550,Heusden-Zolder,Grootveldstraat,43,51.0110832657,5.2888691432
3550,Heusden-Zolder,Halhei,51,51.0531373336,5.3196017916
3550,Heusden-Zolder,Korte Eindstraat,9,51.0394682643,5.30515751569
3550,Heusden-Zolder,Beringerheide,26,51.0406043061,5.25515034247
3550,Heusden-Zolder,Westlaan,166,50.9995925276,5.25331941167
3550,Heusden-Zolder,Pastoor Sakstraat,16,51.0227039008,5.31760730434
3550,Heusden-Zolder,Noordberm,16,51.0355860669,5.27996567615
3550,Heusden-Zolder,Schootstraat,179,51.0349309031,5.29310432819
3550,Heusden-Zolder,Vrunvijver,25,50.9918708362,5.28774334395
3550,Heusden-Zolder,Geenrijt,52,51.0358339649,5.27203035746
3550,Heusden-Zolder,Terlaemenlaan,32,51.0090803113,5.27227055943
3550,Heusden-Zolder,Oude Baan,83,51.045629305,5.29691191675
3550,Heusden-Zolder,Sint-Jansblok,9,51.0279852942,5.26877743111
3550,Heusden-Zolder,Sint-Jobstraat,191,50.9805010716,5.27372148703
3550,Heusden-Zolder,Noordberm,69,51.0359654848,5.27976133848
3550,Heusden-Zolder,Zeven Septemberlaan,10,51.0417804683,5.30475505522
3550,Heusden-Zolder,Hofstraat,11,51.012046371,5.28885344839
3550,Heusden-Zolder,Eikhof,33,51.0166327103,5.27695760213
3550,Heusden-Zolder,Schootstraat,126,51.0309342895,5.28668230677
3550,Heusden-Zolder,Rijkelstraat,60,51.0192565331,5.34632388679
3550,Heusden-Zolder,Kortstraat,34,51.0418401326,5.28702581474
3550,Heusden-Zolder,Edward Staintonstraat,57,51.0389615958,5.3044918965
3550,Heusden-Zolder,Anjelierenlaan,22,50.9819276521,5.28871873346
3550,Heusden-Zolder,Voortstraat,78,51.0426184685,5.26824877592
3550,Heusden-Zolder,Pleinstraat,59,50.9994503499,5.25764100858
3550,Heusden-Zolder,Terlaemenlaan,14,51.0102588043,5.27214981211
3550,Heusden-Zolder,Nieuwland,11,50.9789919906,5.28120375199
3550,Heusden-Zolder,Lodewijk Dosfellaan,3,51.0159450207,5.29491568887
3550,Heusden-Zolder,Halstraat,165,51.0509505917,5.31887843551
3550,Heusden-Zolder,Glorieuxstraat,2,51.0439148364,5.31294353864
3550,Heusden-Zolder,Oude Baan,30,51.0437316955,5.29204076058
3550,Heusden-Zolder,Kuiperstraat,10,51.0259934498,5.32054337609
3550,Heusden-Zolder,Pastoor Paquaylaan,127,51.0448057491,5.3131969664
3550,Heusden-Zolder,Rode Kruisstraat,9,51.0393941157,5.30698388199
3550,Heusden-Zolder,Schansstraat,31,51.0402071239,5.29113417754
3550,Heusden-Zolder,Hoensbroeckstraat,54,51.0438994857,5.27558248306
3550,Heusden-Zolder,Ketelstraat,2,51.0298238701,5.31057037384
3550,Heusden-Zolder,Voortstraat,25,51.0439944132,5.27641084756
3550,Heusden-Zolder,Dunantplein,9,51.0226661316,5.32072442702
3550,Heusden-Zolder,Sint-Lutgardisstraat,99,51.0399514563,5.2993670235
3550,Heusden-Zolder,Koerselsebaan,53,51.0362070431,5.28083980421
3550,Heusden-Zolder,Witte Bosstraat,9,51.0500315244,5.31804924273
3550,Heusden-Zolder,Abdijstraat,65,51.0105053836,5.25917308081
3550,Heusden-Zolder,Sint-Maartenlaan,9,51.0440389002,5.30860747604
3550,Heusden-Zolder,Witte Barier,99,51.0168425665,5.30737790578
3550,Heusden-Zolder,Rubenslaan,10,51.0277506206,5.3114729168
3550,Heusden-Zolder,Kortstraat,16,51.0417778357,5.28476473098
3550,Heusden-Zolder,Inakker,43,51.0207913442,5.31109653961
3550,Heusden-Zolder,Schootstraat,108,51.030301192,5.28455370968
3550,Heusden-Zolder,Edward Staintonstraat,22,51.0374127784,5.30264511846
3550,Heusden-Zolder,Bavostraat,92,51.0329709197,5.24977929166
3550,Heusden-Zolder,Schootstraat,40,51.0255087094,5.27722397167
3550,Heusden-Zolder,Ericastraat,31,51.0536915177,5.31880376036
3550,Heusden-Zolder,Holstraat,34,51.0216429472,5.31608802924
3550,Heusden-Zolder,Alice Nahonlaan,18,51.0234666758,5.33161517993
3550,Heusden-Zolder,Holstraat,87,51.0188208412,5.31743122566
3550,Heusden-Zolder,Nieuwstraat,107,51.0205431162,5.3287321714
3550,Heusden-Zolder,Poststraat,6,51.0427644249,5.30959845842
3550,Heusden-Zolder,Populierenstraat,21,51.0517326982,5.33472809358
3550,Heusden-Zolder,De Wallen,21,51.0150702007,5.2860979478
3550,Heusden-Zolder,Halstraat,130,51.0492397965,5.3106084069
3550,Heusden-Zolder,Acht Meilaan,42,51.0229845448,5.33042930556
3550,Heusden-Zolder,Ubbelstraat,60,51.0127442941,5.28593536016
3550,Heusden-Zolder,Opperstraat,37,51.0252952011,5.26306321548
3550,Heusden-Zolder,Nicolaistraat,4,51.0341457655,5.28898414258
3550,Heusden-Zolder,Schansstraat,84,51.0413808294,5.29938804761
3550,Heusden-Zolder,Koerselsebaan,150,51.0448167372,5.28047607657
3550,Heusden-Zolder,Dahlialaan,10,50.982866782,5.29597680111
3550,Heusden-Zolder,Boterbosstraat,20,50.9972629863,5.23377525521
3550,Heusden-Zolder,Abdijstraat,30,51.0104864466,5.26335039663
3550,Heusden-Zolder,Meilweg,19,51.0414929123,5.27362647961
3550,Heusden-Zolder,Dorpshof,42,51.0175869448,5.31347214974
3550,Heusden-Zolder,Halstraat,183,51.0514469694,5.32166274381
3550,Heusden-Zolder,Kiewitstraat,47,51.0088818104,5.28054130427
3550,Heusden-Zolder,Oude Baan,65,51.0451509286,5.29445101806
3550,Heusden-Zolder,Irislaan,23,50.9819352992,5.28743074953
3550,Heusden-Zolder,De Panestraat,70,51.0088183295,5.28845113789
3550,Heusden-Zolder,Bieststraat,215,51.0171155672,5.29119881763
3550,Heusden-Zolder,Mommestraat,24,51.0315820049,5.3159330147
3550,Heusden-Zolder,Polenstraat,3,51.0420585626,5.3051225322
3550,Heusden-Zolder,Halstraat,110,51.048981177,5.30803050388
3550,Heusden-Zolder,Elf Novemberstraat,15,51.0188122976,5.30373395872
3550,Heusden-Zolder,Beringerheide,54,51.0403328033,5.25134914511
3550,Heusden-Zolder,Sint-Jobstraat,102,50.9864844419,5.27571331372
3550,Heusden-Zolder,Zandstraat,39,50.9834649609,5.2798607358
3550,Heusden-Zolder,Koolmijnlaan,9,51.0381016176,5.29328076731
3550,Heusden-Zolder,Belikstraat,113,51.0069060898,5.28771864267
3550,Heusden-Zolder,O.L. Vrouwstraat,158,51.0112937238,5.27197142424
3550,Heusden-Zolder,Koolmijnlaan,133,51.0400206869,5.30050185626
3550,Heusden-Zolder,Pastoor Paquaylaan,119,51.0441634325,5.30998795887
3550,Heusden-Zolder,Voortstraat,73,51.0418046525,5.26636298372
3550,Heusden-Zolder,Schansstraat,237,51.0483587188,5.31635408738
3550,Heusden-Zolder,Meylandtlaan,171,51.0128466251,5.29497108939
3550,Heusden-Zolder,Jordaenslaan,13,51.0287633088,5.31051951542
3550,Heusden-Zolder,Kleuterweg,19,51.0408662801,5.30102105767
3550,Heusden-Zolder,Heikant,30,51.0162077238,5.30227027716
3550,Heusden-Zolder,Dorpsstraat,37,51.0229163404,5.31278993765
3550,Heusden-Zolder,Uilshoek,13,51.0422137626,5.26892973567
3550,Heusden-Zolder,Koolmijnlaan,57,51.0388762035,5.29748900048
3550,Heusden-Zolder,Dikkelstraat,15,51.0041368049,5.26238313844
3550,Heusden-Zolder,Vroenweg,8,51.0251867106,5.23629041215
3550,Heusden-Zolder,Galgeneinde,41,50.9865111931,5.26854802064
3550,Heusden-Zolder,Inakker,20,51.0217657597,5.31296684547
3550,Heusden-Zolder,Edward Staintonstraat,121,51.0409237186,5.31234643593
3550,Heusden-Zolder,Brugstraat,94,51.0360123953,5.2919665349
3550,Heusden-Zolder,Halstraat,92,51.0478519769,5.30600151753
3550,Heusden-Zolder,Sint-Willibrordusplein,26,51.0331037157,5.28056173822
3550,Heusden-Zolder,Reigerslaan,15,50.9862260217,5.26466626204
3550,Heusden-Zolder,Bieststraat,196,51.0169242586,5.29308914328
3550,Heusden-Zolder,Kollebloem,21,51.0281162538,5.33475470989
3550,Heusden-Zolder,Eikenstraat,1,51.0515870217,5.33089155634
3550,Heusden-Zolder,Kronenberg,5,51.0147443785,5.27313622856
3550,Heusden-Zolder,Cijnshofstraat,27,51.0322303324,5.28321898324
3550,Heusden-Zolder,Kerkenblookstraat,45,51.0374632704,5.28521193207
3550,Heusden-Zolder,Gemeentewinning,5,51.0403857408,5.27655713151
3550,Heusden-Zolder,Oude Baan,95,51.0462970351,5.29827026596
3550,Heusden-Zolder,Sluisbamd,34,51.025913655,5.30949653672
3550,Heusden-Zolder,Jeugdlaan,111,51.0044646345,5.25522498713
3550,Heusden-Zolder,M. Scheperslaan,150,51.0236247877,5.34553209712
3550,Heusden-Zolder,Schootstraat,32,51.0246859014,5.27605667061
3550,Heusden-Zolder,Van Dijcklaan,16,51.0288219693,5.30900745286
3550,Heusden-Zolder,Stenenbrug,27,51.0234818993,5.334222005
3550,Heusden-Zolder,Holstraat,46,51.0208265953,5.31664491252
3550,Heusden-Zolder,Pater Beckersstraat,47,51.0303919785,5.24046159412
3550,Heusden-Zolder,Eikhof,74,51.0188304973,5.27957598471
3550,Heusden-Zolder,Jan Michiel Huybrechtsstraat,10,51.0346378732,5.28716459529
3550,Heusden-Zolder,Sint-Jobstraat,120,50.9853249619,5.27573330014
3550,Heusden-Zolder,Hulststraat,6,51.0534189801,5.33261217045
3550,Heusden-Zolder,Acht Meilaan,30,51.0241182501,5.32948259882
3550,Heusden-Zolder,Sint-Jansblok,11,51.0280409293,5.26887287193
3550,Heusden-Zolder,Kanaalweg,21,51.0243666206,5.26338728378
3550,Heusden-Zolder,Schaapsweg,63,51.0405087173,5.27311307378
3550,Heusden-Zolder,Sint-Quirinusstraat,36,51.0006722694,5.24939339381
3550,Heusden-Zolder,Joachimstraat,25,51.0353792869,5.25220709062
3550,Heusden-Zolder,Het Wijerke,7,51.0401110945,5.31021940369
3550,Heusden-Zolder,Astridlaan,23,51.0136668312,5.28331357787
3550,Heusden-Zolder,Lavendelsteeg,7,51.0532131017,5.31624778187
3550,Heusden-Zolder,Witte Bosstraat,11,51.0499639606,5.31811133789
3550,Heusden-Zolder,Sportalaan,12,51.031103433,5.28247230632
3550,Heusden-Zolder,Roosterstraat,32,51.0130295862,5.29747659262
3550,Heusden-Zolder,Rodenbachlaan,36,51.0249429855,5.30614630944
3550,Heusden-Zolder,Voortstraat,91,51.0428106761,5.26442868982
3550,Heusden-Zolder,Bieststraat,72,51.020796657,5.30477874658
3550,Heusden-Zolder,Koolmijnlaan,412,51.0360953118,5.33399712756
3550,Heusden-Zolder,De Slogen,34,50.9882555219,5.28172894537
3550,Heusden-Zolder,Dennenweg,66,51.0498290728,5.31693439886
3550,Heusden-Zolder,Borgveld,3,51.0013026969,5.25664012414
3550,Heusden-Zolder,Oude Heidestraat,12,50.9832664055,5.28461092329
3550,Heusden-Zolder,Singelstraat,51,51.0520131938,5.30857334364
3550,Heusden-Zolder,Beukenstraat,7,51.0520740944,5.33332882863
3550,Heusden-Zolder,Stukkenstraat,48,51.0332191194,5.31626869545
3550,Heusden-Zolder,Schootstraat,274,51.0359080329,5.30159735285
3550,Heusden-Zolder,Schansstraat,219,51.0477448827,5.31425505209
3550,Heusden-Zolder,Boekterheide,52,51.0143505696,5.30234439343
3550,Heusden-Zolder,Koerselsebaan,116,51.0423814742,5.28162000963
3550,Heusden-Zolder,Obbeekstraat,5,51.0228399215,5.26870012624
3550,Heusden-Zolder,Rode Kruisstraat,11,51.0392782349,5.30706326106
3550,Heusden-Zolder,Naaldert,14,51.0389087982,5.3090067359
3550,Heusden-Zolder,Schansstraat,76,51.0412951661,5.29845434361
3550,Heusden-Zolder,Heuvelstraat,98,51.0418531755,5.29236658653
3550,Heusden-Zolder,Belikstraat,7,51.0111457236,5.29826900648
3550,Heusden-Zolder,Koolmijnlaan,251,51.0423067565,5.30843991146
3550,Heusden-Zolder,Halveld,33,51.0478438994,5.29300601325
3550,Heusden-Zolder,Aanhofstraat,19,51.0274127867,5.33080713916
3550,Heusden-Zolder,M. Scheperslaan,20,51.0272977772,5.33043698777
3550,Heusden-Zolder,Kanadastraat,15,51.0540151308,5.33070545576
3550,Heusden-Zolder,Ketelstraat,18,51.0295411422,5.30918813015
3550,Heusden-Zolder,Sint-Jansstraat,41,51.0344238245,5.27038064564
3550,Heusden-Zolder,Weg Naar De Grauwe Steen,29,51.0530564365,5.31303384076
3550,Heusden-Zolder,Kleine Venstraat,9A,51.0173396985,5.29856092166
3550,Heusden-Zolder,Halstraat,56,51.0468184213,5.30197555388
3550,Heusden-Zolder,Sint-Jobstraat,44,50.9902824822,5.2739951389
3550,Heusden-Zolder,Kleine Venstraat,30,51.0167003836,5.30051029144
3550,Heusden-Zolder,Oude Baan,77,51.0453812371,5.29613049759
3550,Heusden-Zolder,Schansstraat,112,51.0430650271,5.30268140017
3550,Heusden-Zolder,Knaepenstraat,41,51.0392130784,5.27341212563
3550,Heusden-Zolder,Guldensporenlaan,14,51.0080036847,5.29042519161
3550,Heusden-Zolder,Pleinstraat,19,51.0007686962,5.25366034243
3550,Heusden-Zolder,Schobbenberg,62,51.020442694,5.323286673
3550,Heusden-Zolder,Pastoor Paquaylaan,26,51.0419867535,5.30235927554
3550,Heusden-Zolder,Paardenweg,4,51.0394592656,5.27523959743
3550,Heusden-Zolder,Bieststraat,178,51.0170736585,5.29534121711
3550,Heusden-Zolder,Belikstraat,82,51.0074435425,5.29177638144
3550,Heusden-Zolder,'t Wiek,8,51.0313662219,5.32992640459
3550,Heusden-Zolder,'t Kuipke,7,51.0236349108,5.31452234365
3550,Heusden-Zolder,Bovenstraat,1,51.0268918245,5.24705416131
3550,Heusden-Zolder,Voetpad,54,51.0214862558,5.30786986404
3550,Heusden-Zolder,Vrunstraat,139,50.9926776691,5.2910726307
3550,Heusden-Zolder,Abdijstraat,59,51.010515966,5.25991228803
3550,Heusden-Zolder,Galgenbergstraat,23,51.0499707844,5.32937004406
3550,Heusden-Zolder,Klokstraat,25,51.0164931235,5.28239854232
3550,Heusden-Zolder,Heidestraat,86,50.9808099478,5.28695951261
3550,Heusden-Zolder,Pastoor Paquaylaan,79,51.0432210356,5.30687013414
3550,Heusden-Zolder,Alice Nahonlaan,16,51.0237520759,5.33149746863
3550,Heusden-Zolder,Kapelstraat,61,51.0327434592,5.26732767048
3550,Heusden-Zolder,Bavostraat,33,51.0286630674,5.2450632736
3550,Heusden-Zolder,Schaapsweg,45,51.040786699,5.27542345894
3550,Heusden-Zolder,O.L. Vrouwstraat,176,51.0103048671,5.26969599974
3550,Heusden-Zolder,Pastoor Ballingsstraat,41,50.9901735626,5.25469803905
3550,Heusden-Zolder,Terlaemenlaan,9,51.010238266,5.27087874671
3550,Heusden-Zolder,Kleine Venstraat,12,51.0175578977,5.29954752226
3550,Heusden-Zolder,Kluisstraat,58,50.9925905409,5.27832510892
3550,Heusden-Zolder,De Lobbert,29,51.0497662045,5.31572098807
3550,Heusden-Zolder,H. Hartlaan,23,51.0095458153,5.28361751348
3550,Heusden-Zolder,Pleinstraat,37,50.9996432607,5.25542774194
3550,Heusden-Zolder,Voortstraat,55,51.0426362577,5.27039992641
3550,Heusden-Zolder,Kerkenblookstraat,63,51.0369106783,5.28694130852
3550,Heusden-Zolder,Ringlaan,116,51.0274514841,5.32310862984
3550,Heusden-Zolder,Jeugdlaan,53,51.0054966129,5.26176506665
3550,Heusden-Zolder,Ubbelstraat,30,51.0132606155,5.2895887259
3550,Heusden-Zolder,Sint-Rochusstraat,8,51.0186439177,5.31010250549
3550,Heusden-Zolder,Herckenrodestraat,20,50.9921022718,5.25653901491
3550,Heusden-Zolder,Kerkstraat,11,50.9976280667,5.24803745854
3550,Heusden-Zolder,Everselkiezel,98,51.0259202342,5.2385954491
3550,Heusden-Zolder,Geenrijt,11,51.0373252434,5.27893888589
3550,Heusden-Zolder,Boekterheide,70,51.0132277851,5.30126315158
3550,Heusden-Zolder,Oudstrijderslaan,1,51.0302549024,5.28139436918
3550,Heusden-Zolder,Vlassertstraat,7,51.0529150489,5.31552716337
3550,Heusden-Zolder,Nieuwstraat,99,51.0202400428,5.32789798915
3550,Heusden-Zolder,Halstraat,74,51.0475104775,5.30355754518
3550,Heusden-Zolder,Patrijzenlaan,9,50.9852444622,5.26247695034
3550,Heusden-Zolder,Edward Staintonstraat,103,51.0410145438,5.31156884797
3550,Heusden-Zolder,Bavostraat,86,51.0325644394,5.25031524459
3550,Heusden-Zolder,Dorpshof,12,51.0196197052,5.31234174012
3550,Heusden-Zolder,Jordaenslaan,31,51.0284272232,5.3091995257
3550,Heusden-Zolder,Oude Baan,59,51.0450630853,5.29353802606
3550,Heusden-Zolder,Minderbroedersstraat,38,51.0446820261,5.3205206856
3550,Heusden-Zolder,Heemstraat,4,51.0295629513,5.27068313699
3550,Heusden-Zolder,Knaepenstraat,26,51.0405641367,5.27695956644
3550,Heusden-Zolder,Kruiswegstraat,6,51.0353863005,5.28854103758
3550,Heusden-Zolder,Heuvelstraat,27,51.0412641811,5.28635529344
3550,Heusden-Zolder,Halstraat,28,51.0449530158,5.29889283934
3550,Heusden-Zolder,Hoekstraat,49,51.0260515471,5.33315786885
3550,Heusden-Zolder,Garenstraat,16,51.0371416847,5.27274513417
3550,Heusden-Zolder,Veldstraat,1,51.0004038714,5.24864422828
3550,Heusden-Zolder,A. Cuppenslaan,53,51.0267127704,5.30830192138
3550,Heusden-Zolder,Noordberm,18,51.0356439236,5.28015614559
3550,Heusden-Zolder,Rodenbachlaan,82,51.0262901546,5.30587964773
3550,Heusden-Zolder,H. Vanveldekelaan,11,51.0255370636,5.30820418852
3550,Heusden-Zolder,Kleuterweg,65,51.0436884041,5.29680195648
3550,Heusden-Zolder,Koolmijnlaan,186,51.0414337466,5.31061292434
3550,Heusden-Zolder,Bovenstraat,21,51.0255023234,5.2455438941
3550,Heusden-Zolder,Schansstraat,283,51.050563362,5.32139757221
3550,Heusden-Zolder,Laarstraat,41,50.9968332181,5.24370846711
3550,Heusden-Zolder,Pannewinning,40,50.977513126,5.27424631467
3550,Heusden-Zolder,Doornstraat,9,51.0505580707,5.33101129918
3550,Heusden-Zolder,Onder De Poort,17,51.0396279171,5.30334868002
3550,Heusden-Zolder,Azalealaan,14,50.9849345117,5.3040813237
3550,Heusden-Zolder,De Lobbert,40,51.0478801312,5.31235644047
3550,Heusden-Zolder,Garenstraat,62,51.0363707865,5.26862139102
3550,Heusden-Zolder,Zolderseweg,6,51.0351730416,5.29931445173
3550,Heusden-Zolder,Mommestraat,77,51.0323441324,5.32326674742
3550,Heusden-Zolder,Merelstraat,21,51.0355352993,5.26769083306
3550,Heusden-Zolder,Ubbelstraat,164,51.0084742958,5.27348887179
3550,Heusden-Zolder,Garenstraat,69,51.0357153005,5.2689335721
3550,Heusden-Zolder,Heidestraat,188,50.9823550335,5.30012135554
3550,Heusden-Zolder,Verlorenkost,28,51.0196509062,5.3306327453
3550,Heusden-Zolder,Terlaemenlaan,29,51.0090486626,5.2715688682
3550,Heusden-Zolder,Jeugdlaan,71,51.0052060567,5.25933615485
3550,Heusden-Zolder,Korte Eindstraat,11,51.0395073327,5.30511694684
3550,Heusden-Zolder,Bolderdal,37,50.977918445,5.29297028269
3550,Heusden-Zolder,Rodenbachlaan,48,51.025405114,5.30567661125
3550,Heusden-Zolder,Reeënlaan,17,50.9891428937,5.27120629887
3550,Heusden-Zolder,Oude Baan,126,51.0476600712,5.30176673294
3550,Heusden-Zolder,Schootstraat,49,51.0271555715,5.27806820583
3550,Heusden-Zolder,Laambroekstraat,34,51.0195971698,5.33376914368
3550,Heusden-Zolder,Neerjouten,2,51.037062601,5.32482506842
3550,Heusden-Zolder,Het Bergske,16,51.0206394824,5.31306142385
3550,Heusden-Zolder,M. Scheperslaan,122,51.0230875622,5.34287518926
3550,Heusden-Zolder,Savoerenweg,27,51.0423528867,5.27456971531
3550,Heusden-Zolder,Pannewinning,9,50.9796216174,5.27362545827
3550,Heusden-Zolder,Beringersteenweg,34,51.0283147551,5.26353434235
3550,Heusden-Zolder,Zandstraat,211,50.9852747292,5.30314925664
3550,Heusden-Zolder,Oudstrijderslaan,21,51.0294509967,5.28098323055
3550,Heusden-Zolder,O.L. Vrouwstraat,105,51.0133730277,5.27710996258
3550,Heusden-Zolder,Landweg,26,51.0210255863,5.32066910238
3550,Heusden-Zolder,Garenstraat,44,51.0369591857,5.27117692393
3550,Heusden-Zolder,Ericastraat,6,51.0539933881,5.3169421019
3550,Heusden-Zolder,Ubbelstraat,146,51.0089663431,5.2763421719
3550,Heusden-Zolder,Jan Frans Willemslaan,27,51.0159192886,5.29322720327
3550,Heusden-Zolder,Haverveldstraat,21,51.0207310707,5.30668123922
3550,Heusden-Zolder,Vrunstraat,66A,50.9898645902,5.28161545888
3550,Heusden-Zolder,Olmenstraat,34,51.053750177,5.33203904902
3550,Heusden-Zolder,Sint-Quirinusstraat,46,51.0008622731,5.25023839944
3550,Heusden-Zolder,Irislaan,38,50.9808321665,5.28828009433
3550,Heusden-Zolder,Halstraat,198,51.0505327027,5.31997527688
3550,Heusden-Zolder,Eikhof,28,51.0159699859,5.27669006267
3550,Heusden-Zolder,Pironlaan,12,51.0238787109,5.31249647387
3550,Heusden-Zolder,Gildenstraat,30,51.0022049458,5.25476388953
3550,Heusden-Zolder,Rodenbachlaan,46,51.0249521998,5.30516991692
3550,Heusden-Zolder,Laambroekstraat,16,51.0206641271,5.33245832204
3550,Heusden-Zolder,Weg Naar De Grauwe Steen,9,51.0512099146,5.31126708016
3550,Heusden-Zolder,Pastoor Paquaylaan,97,51.0433704905,5.30766471175
3550,Heusden-Zolder,Oude Baan,3,51.0423806867,5.28976304093
3550,Heusden-Zolder,M. Scheperslaan,104,51.0234881635,5.34063422197
3550,Heusden-Zolder,Schaapsweg,10,51.0420718129,5.27972484443
3550,Heusden-Zolder,Nieuwstraat,11,51.0186039701,5.31944015408
3550,Heusden-Zolder,Dorpsstraat,65,51.0230913339,5.31486471293
3550,Heusden-Zolder,Beringersteenweg,16,51.0275272458,5.2645875664
3550,Heusden-Zolder,Mommestraat,59,51.0321908953,5.32076540836
3550,Heusden-Zolder,Bavostraat,15,51.0279145489,5.24245807197
3550,Heusden-Zolder,De Nieuwe Dijk,27,51.0503622637,5.30171125383
3550,Heusden-Zolder,Holleweg,11,51.027450957,5.27425896751
3550,Heusden-Zolder,Langeweg,16,51.022318567,5.32113784191
3550,Heusden-Zolder,Schansstraat,265,51.0499103663,5.32065119531
3550,Heusden-Zolder,Lavendelsteeg,18,51.0536736978,5.31626324781
3550,Heusden-Zolder,Vredestraat,45,50.9820745951,5.28213082819
3550,Heusden-Zolder,Schootstraat,85,51.0290129387,5.28171213645
3550,Heusden-Zolder,Halhei,21,51.0523879284,5.31764423092
3550,Heusden-Zolder,Schootstraat,228,51.0346086513,5.29535234579
3550,Heusden-Zolder,O.L. Vrouwstraat,52,51.0154579897,5.28201221083
3550,Heusden-Zolder,Halvijvers,13,51.0465794432,5.30344110454
3550,Heusden-Zolder,Stationsstraat,8,51.0281702556,5.32774707785
3550,Heusden-Zolder,G. Gezellelaan,145,51.0283298816,5.27210686607
3550,Heusden-Zolder,Viverselweg,38,51.0075924278,5.26768296497
3550,Heusden-Zolder,Kanaalweg,4,51.0254347427,5.2647497747
3550,Heusden-Zolder,Sint-Hubertusstraat,16,51.0210803605,5.30928862078
3550,Heusden-Zolder,Sporkstraat,9,51.0006353818,5.24680103068
3550,Heusden-Zolder,Belikstraat,18,51.0101974336,5.29775185124
3550,Heusden-Zolder,Rubenslaan,17,51.0275199324,5.31105914119
3550,Heusden-Zolder,A. Cuppenslaan,5,51.0251634887,5.31026845036
3550,Heusden-Zolder,Veenderweg,38,51.0295693635,5.26833090461
3550,Heusden-Zolder,Eikenstraat,21,51.0522876057,5.33084549585
3550,Heusden-Zolder,Beekstraat,19,51.0146611559,5.28150057257
3550,Heusden-Zolder,Schomstraat,16,51.0316543658,5.2705700582
3550,Heusden-Zolder,Edward Staintonstraat,50,51.0392432532,5.30590274261
3550,Heusden-Zolder,G. Gezellelaan,163,51.0272929197,5.27101770826
3550,Heusden-Zolder,Schuttershof,15,51.0217090532,5.31447529491
3550,Heusden-Zolder,Pater Beckersstraat,66,51.0308973492,5.24011318086
3550,Heusden-Zolder,Kapelstraat,43,51.0329098512,5.27010225647
3550,Heusden-Zolder,Heidestraat,68,50.9804799757,5.2850646938
3550,Heusden-Zolder,Valstraat,11,50.9976033703,5.25420283664
3550,Heusden-Zolder,Reeënlaan,35,50.9884645983,5.26934458381
3550,Heusden-Zolder,Abdijstraat,3,51.0104510051,5.26707994449
3550,Heusden-Zolder,Schootstraat,184,51.0330653462,5.29079191419
3550,Heusden-Zolder,Witte Barier,70,51.0166158368,5.31121255969
3550,Heusden-Zolder,Halveld,15,51.0465577527,5.29444691904
3550,Heusden-Zolder,Dennenweg,38,51.0486259079,5.31846025821
3550,Heusden-Zolder,Schansstraat,309,51.0505677543,5.3225092701
3550,Heusden-Zolder,Hoensbroeckstraat,26,51.0426698494,5.27635648046
3550,Heusden-Zolder,Kortstraat,7,51.0421115891,5.28250240779
3550,Heusden-Zolder,Kollebloem,1,51.0276171049,5.33538304646
3550,Heusden-Zolder,Lindelaan,30,51.0504260477,5.32861764442
3550,Heusden-Zolder,Reeënlaan,88,50.986658974,5.26326109246
3550,Heusden-Zolder,Neerveldstraat,26,51.0380797058,5.33600105466
3550,Heusden-Zolder,Pater Beckersstraat,13,51.0333766995,5.24777370989
3550,Heusden-Zolder,Waterleidingstraat,10,51.0392451841,5.30205131861
3550,Heusden-Zolder,Meeuwenlaan,19,50.9859794978,5.26325295572
3550,Heusden-Zolder,Sint-Lutgardisstraat,70,51.0399677367,5.29880867682
3550,Heusden-Zolder,Koolmijnlaan,29,51.0384611649,5.29453222213
3550,Heusden-Zolder,Inakker,104,51.0178526817,5.30690147093
3550,Heusden-Zolder,Everselkiezel,55,51.0265419121,5.24469568276
3550,Heusden-Zolder,De Kenen,17,51.0135934796,5.28107901177
3550,Heusden-Zolder,Schaltusstraat,52,50.9996595635,5.26197954437
3550,Heusden-Zolder,Onder De Poort,35,51.0392295663,5.30364514754
3550,Heusden-Zolder,Kruisherenstraat,6,51.0269870368,5.23447592266
3550,Heusden-Zolder,Molenstraat,76,51.0282724257,5.3116024645
3550,Heusden-Zolder,Koolmijnlaan,115,51.0394880181,5.29976731972
3550,Heusden-Zolder,Halvijvers,31,51.0472147792,5.30599145743
3550,Heusden-Zolder,Edward Staintonstraat,39,51.0386440419,5.30385203063
3550,Heusden-Zolder,Lusthofstraat,51,51.0216993364,5.23449981418
3550,Heusden-Zolder,Koerselsebaan,134,51.0437202903,5.28154047271
3550,Heusden-Zolder,Christoffelhof,10,51.0285441753,5.24141749195
3550,Heusden-Zolder,Schaapsweg,47,51.0407189229,5.27503757323
3550,Heusden-Zolder,Bieststraat,90,51.0198930657,5.30305259596
3550,Heusden-Zolder,Roosterstraat,49,51.014194254,5.29626341068
3550,Heusden-Zolder,Koolmijnlaan,168,51.0404743692,5.30521672773
3550,Heusden-Zolder,G. Gezellelaan,33,51.031438013,5.27792533628
3550,Heusden-Zolder,Bieststraat,233,51.0171179208,5.28934936926
3550,Heusden-Zolder,Sint-Lutgardisstraat,52,51.0403291112,5.29844597906
3550,Heusden-Zolder,Kuilberg,37,50.9755436121,5.27483221178
3550,Heusden-Zolder,Visserspad,10,51.0254075469,5.34942337264
3550,Heusden-Zolder,Inakker,122,51.01723714,5.30580910172
3550,Heusden-Zolder,Weg Naar De Grauwe Steen,40,51.0527819891,5.31422011635
3550,Heusden-Zolder,Laamheidestraat,11,51.0071317982,5.27410398623
3550,Heusden-Zolder,Sint-Quirinusstraat,64,51.0016000853,5.25114588235
3550,Heusden-Zolder,Rinkaersweg,52,51.0272315865,5.27732841558
3550,Heusden-Zolder,Schootstraat,67,51.02806967,5.27978450324
3550,Heusden-Zolder,Brugstraat,6,51.0337676306,5.28315308361
3550,Heusden-Zolder,Elf Novemberstraat,33,51.0176576799,5.30442022712
3550,Heusden-Zolder,Padbroekweg,15,51.0288213122,5.237751574
3550,Heusden-Zolder,Poststraat,23,51.0429235808,5.30828831391
3550,Heusden-Zolder,Schaapsweg,81,51.0402256784,5.27103432957
3550,Heusden-Zolder,Ernest Claeslaan,15,51.0273309101,5.30703962991
3550,Heusden-Zolder,Sint-Jozefsstraat,34,51.0219027189,5.31934610703
3550,Heusden-Zolder,Olmenstraat,16,51.0525437593,5.33156662516
3550,Heusden-Zolder,Rodenbachlaan,64,51.0255682641,5.30533961835
3550,Heusden-Zolder,Koolmijnlaan,437,51.0361297921,5.33812495898
