PKANCODE,COMMUNE_NL,STREET_NL,HUISNR,LAT,LON
3560,Lummen,Gestelstraat,43,51.0295144894,5.2096099761
3560,Lummen,Hemelrijkstraat,3,50.9817582276,5.18328507619
3560,Lummen,Hereheidestraat,6,51.0084508995,5.14209599506
3560,Lummen,Dorpsstraat,23,50.9872199842,5.19420146397
3560,Lummen,Bovenstraat,19,50.9817755351,5.17515712532
3560,Lummen,Voortstraat,50,51.0169562962,5.20429725973
3560,Lummen,Kambergenstraat,3,50.9636641132,5.12965519225
3560,Lummen,Sacramentstraat,4,51.0120440068,5.20776944076
3560,Lummen,Schalbroekstraat,11,50.9829955478,5.18167808482
3560,Lummen,Bijgaertstraat,5,51.0066601773,5.15933087567
3560,Lummen,O. L. Vrouwstraat,34,50.9882306996,5.20303733091
3560,Lummen,Jantenstraat,7,51.0063956352,5.22746956679
3560,Lummen,Nieuwstraat,26,51.0115277587,5.22579228299
3560,Lummen,Processieweg,51,51.0046371478,5.14516782149
3560,Lummen,Gestelstraat,61,51.0316499416,5.2107570756
3560,Lummen,Opworpstraat,26,50.9767038958,5.22058170398
3560,Lummen,Groenlarenstraat,23A,51.008903749,5.2005689236
3560,Lummen,Thiewinkelstraat,38B,50.9739244,5.22244556317
3560,Lummen,Goeslaerstraat,39,50.9819581359,5.1478479343
3560,Lummen,Meldertsebaan,156,51.0126403595,5.12518445902
3560,Lummen,St.-Rochusstraat,25,51.0130510991,5.22571244444
3560,Lummen,Oudestraat,37,51.0157372774,5.20891948386
3560,Lummen,6 Septemberstraat,86,51.0099081959,5.2034818882
3560,Lummen,Toekomststraat,7,51.0209054421,5.22040262918
3560,Lummen,Pastorijstraat,7,50.9997116491,5.14206059865
3560,Lummen,Waterstraat,17,50.9988668194,5.20942646962
3560,Lummen,Schalbroekstraat,135,50.9759278492,5.1702932478
3560,Lummen,Veldstraat,7,51.0158769081,5.21502279074
3560,Lummen,Kraaibergstraat,23,50.9954560097,5.21299393556
3560,Lummen,Laambeekstraat,5,50.9903821452,5.22518331489
3560,Lummen,Bosstraat,30,50.9965047237,5.20802530396
3560,Lummen,Zandstraat,17,51.0011085549,5.13562185408
3560,Lummen,Sacramentstraat,28,51.0136246796,5.21013149876
3560,Lummen,Klaverbladstraat,6A,50.9955985609,5.22745728865
3560,Lummen,Schoolstraat,4,51.0002107073,5.14130151986
3560,Lummen,Lindekensveld,10,50.9928396759,5.19637895776
3560,Lummen,Acaciastraat,34,50.9912123941,5.2090961701
3560,Lummen,Larenstraat,86,51.003748962,5.1924526624
3560,Lummen,Meldertsebaan,39,51.0008940957,5.1388488089
3560,Lummen,Dr. Vanderhoeydonckstraat,49,50.9867074767,5.19627327835
3560,Lummen,Linkhoutstraat,214,50.9655249137,5.13562314157
3560,Lummen,Helvetiastraat,20,51.0096203113,5.2283200155
3560,Lummen,St.-Hubertusstraat,1,50.9803698842,5.15239830233
3560,Lummen,Dr. Vanderhoeydonckstraat,32,50.9876279126,5.19582892918
3560,Lummen,Windmolenstraat,18,50.9892635714,5.18641273576
3560,Lummen,Sint-Trudostraat,22,50.9668743912,5.13914855006
3560,Lummen,Groenstraat,16,50.9911171054,5.19250947289
3560,Lummen,Dwarsstraat,9,51.0079649028,5.20189778163
3560,Lummen,Stokrooiestraat,37,50.9707295464,5.23442245305
3560,Lummen,Linkhoutstraat,71,50.9682366292,5.15417297076
3560,Lummen,Dr. Vanderhoeydonckstraat,14,50.9897763619,5.19530440136
3560,Lummen,Krekelstraat,2A,50.9915296552,5.186804994
3560,Lummen,Hulshoekstraat,20,50.9673171479,5.14248392956
3560,Lummen,Linkhoutstraat,249,50.9639541147,5.13256496008
3560,Lummen,Populierenstraat,22,50.9809067681,5.17424015122
3560,Lummen,Linkhoutstraat,232,50.9646851191,5.13331671475
3560,Lummen,Zandstraat,35,51.0021148426,5.13340053401
3560,Lummen,Thiewinkelstraat,52,50.9715876398,5.2268582212
3560,Lummen,Geeneindestraat,113,51.0107180411,5.14727665123
3560,Lummen,Geenrodestraat,16,51.0067689653,5.16475190813
3560,Lummen,Claeshoekstraat,5A,50.9830173771,5.2122456033
3560,Lummen,Priesterse Heidestraat,33,50.9691080432,5.14261103695
3560,Lummen,Vleugtstraat,20,51.0239516199,5.12564101907
3560,Lummen,Broedersveld,68,50.9945158129,5.19319163803
3560,Lummen,Meldertsebaan,50,51.0013066559,5.13916005395
3560,Lummen,Nieuwstraat,90,51.0101914379,5.22295147433
3560,Lummen,Genenbosstraat,32,51.005933713,5.22409444568
3560,Lummen,Claeshoekstraat,8,50.983642984,5.21363319384
3560,Lummen,Korte Goerenstraat,10,50.9731310024,5.15367084284
3560,Lummen,Larenstraat,68,51.0031150505,5.18914275722
3560,Lummen,Meldertsebaan,1B,50.9971083975,5.14377394548
3560,Lummen,Thiewinkelstraat,24,50.9754406122,5.21852650093
3560,Lummen,Linkhoutstraat,1,50.9716126301,5.16035945513
3560,Lummen,Klaproosstraat,12,50.9856700582,5.20149284589
3560,Lummen,Hertenrodestraat,35,51.0036475587,5.12911822298
3560,Lummen,Dellestraat,7,50.992639573,5.23787032042
3560,Lummen,Goerenstraat,37,50.9738125482,5.1503881581
3560,Lummen,Groenstraat,34,50.9906819172,5.19130248529
3560,Lummen,Thiewinkelstraat,70,50.9700158835,5.22843002376
3560,Lummen,Kammestraat,22,50.967205069,5.13347401631
3560,Lummen,Linkhoutstraat,25,50.9701846849,5.1578236782
3560,Lummen,Schalbroekstraat,117,50.976432647,5.1726186478
3560,Lummen,Priesterse Heidestraat,86,50.9712491321,5.1505653551
3560,Lummen,Geneikenstraat,95,51.0187867338,5.22043191006
3560,Lummen,Helderstraat,26,51.0326414887,5.21858457365
3560,Lummen,Linkhoutstraat,304,50.9628356541,5.12456815226
3560,Lummen,Pastorijstraat,60,51.0016970386,5.14770575468
3560,Lummen,Goerenstraat,19,50.9735816926,5.15655316188
3560,Lummen,Paalstraat,3,51.0131083463,5.15801418135
3560,Lummen,Schalbroekstraat,46,50.9812426182,5.17770903833
3560,Lummen,Geeneindestraat,77,51.0100096043,5.14232751666
3560,Lummen,Linkhoutstraat,160,50.9661175284,5.1427896986
3560,Lummen,Kapelstraat,4,50.9684087319,5.13652827373
3560,Lummen,Zelemsebaan,53,50.995555037,5.13543258771
3560,Lummen,Hamelstraat,4,50.9798888817,5.17820215802
3560,Lummen,Geneikenstraat,77,51.0185262011,5.21784749038
3560,Lummen,Violetstraat,30,51.0159254475,5.12668507748
3560,Lummen,Prelaat Knaepenstraat,22,50.9890450869,5.18603004787
3560,Lummen,Zelemsebaan,88,50.994380093,5.13143960502
3560,Lummen,Muggenhoekstraat,12,50.9779991132,5.20409238417
3560,Lummen,Oudestraat,34B,51.0158443394,5.20815210875
3560,Lummen,Linkhoutstraat,142,50.9666929445,5.14453619595
3560,Lummen,Heesstraat,4,50.9976770016,5.13835340816
3560,Lummen,Molemstraat,41,50.9949237638,5.2094768927
3560,Lummen,Larenstraat,33,51.0018957717,5.18129994286
3560,Lummen,Geneikenstraat,113,51.0155091973,5.2246552498
3560,Lummen,Infanteriestraat,16,50.9886269855,5.19217282385
3560,Lummen,Dikke Eikstraat,39,50.9899266635,5.16243600713
3560,Lummen,Schuttersstraat,19,51.0000207472,5.21290002663
3560,Lummen,Bosstraat,40,50.9960703136,5.20692046975
3560,Lummen,Burggrachtstraat,14,50.9845203819,5.18925834425
3560,Lummen,Pannewinningstraat,17,50.968034489,5.22755111481
3560,Lummen,Koekoekstraat,3,51.0134036318,5.20478576248
3560,Lummen,Ruitersstraat,5,50.9943313115,5.15038872166
3560,Lummen,6 Septemberstraat,33,51.0024592066,5.20014323817
3560,Lummen,Violetstraat,12,51.0154682798,5.12370215647
3560,Lummen,Charles Wellensstraat,14,50.9814469336,5.18121742115
3560,Lummen,Kammestraat,50,50.968294813,5.12944197561
3560,Lummen,Reigerstraat,1,50.9837675771,5.22111651159
3560,Lummen,Sluiskensstraat,6,51.0163689236,5.17479826941
3560,Lummen,Hamelstraat,28,50.9796853896,5.17900593286
3560,Lummen,Gyzevennestraat,9,50.9989388565,5.13396238111
3560,Lummen,Industriestraat,5,51.0147944796,5.23724228195
3560,Lummen,Oostereindestraat,69,50.9903555103,5.20461821821
3560,Lummen,Smetanastraat,13,50.9678909436,5.14686909252
3560,Lummen,Huisveldenstraat,21,51.0128281388,5.22761253315
3560,Lummen,Grensstraat,2,50.9662596637,5.23632029757
3560,Lummen,Genenbosstraat,60,51.0070638432,5.22644650137
3560,Lummen,Geeneindestraat,131,51.0112642816,5.15014471701
3560,Lummen,Voortstraat,39,51.0151736947,5.20303796644
3560,Lummen,Dikke Eikstraat,50,50.9909700818,5.16054459057
3560,Lummen,St.-Hubertusstraat,8,50.9850631173,5.14915474759
3560,Lummen,Rekhovenstraat,71,50.9934121275,5.22913553159
3560,Lummen,Kerkstraat,11,50.9858602517,5.19031980581
3560,Lummen,Gestelstraat,15,51.0267965375,5.20787805586
3560,Lummen,Kriekelse Hoekstraat,24,50.9730062202,5.15830064268
3560,Lummen,Genenbosstraat,138,51.014399266,5.23124804313
3560,Lummen,Vandermarckestraat,27,50.9913100874,5.18774026572
3560,Lummen,Pastoor Frederickxstraat,8,50.9865961496,5.19471900971
3560,Lummen,Oostereindestraat,24,50.9878836961,5.19785395868
3560,Lummen,Geeneindestraat,59,51.0096846134,5.13935938673
3560,Lummen,Tuinstraat,30,51.0140390769,5.20481549831
3560,Lummen,Morgenstraat,5,51.0164894593,5.23545378618
3560,Lummen,Boogbosstraat,37,50.9713933483,5.14949408308
3560,Lummen,Mangelbeekstraat,7,50.9779853093,5.17781126504
3560,Lummen,Hoogstraat,4,51.0035216582,5.20052955869
3560,Lummen,Mangelbeekstraat,70,50.9791289878,5.18379414946
3560,Lummen,Geneikenstraat,59,51.0181748852,5.21540341061
3560,Lummen,Oostereindestraat,87,50.9911971598,5.20605337261
3560,Lummen,Schalbroekstraat,82,50.9775974023,5.17480280825
3560,Lummen,Fonteinstraat,3,50.9902583629,5.18467998557
3560,Lummen,Bovenstraat,37,50.9816846525,5.17249276616
3560,Lummen,Molemstraat,137,51.0027857273,5.21633283117
3560,Lummen,St.-Sebastiaanstraat,15,51.0293874359,5.20603465764
3560,Lummen,Gemeenteplein,7,50.986244528,5.19286698047
3560,Lummen,Bremstraat,20,51.0071215291,5.21408564349
3560,Lummen,Genenbosstraat,42,51.0062857475,5.22500866034
3560,Lummen,Oudestraat,19,51.0161918223,5.20659664837
3560,Lummen,van Willigenstraat,13,50.9824361933,5.18155045668
3560,Lummen,Pater Jacobsstraat,9,50.987786807,5.19023325601
3560,Lummen,Schansstraat,6,50.9653627386,5.14464542299
3560,Lummen,Kambergenstraat,27,50.965212118,5.12432348525
3560,Lummen,Processieweg,58,51.0047579149,5.14635924958
3560,Lummen,Geenrodestraat,9,51.0049821572,5.16089703927
3560,Lummen,Geerstraat,16,50.9757168628,5.22182749538
3560,Lummen,Pastorijstraat,24,50.9993763642,5.14368114129
3560,Lummen,Zelemsebaan,35,50.9962952939,5.13802498596
3560,Lummen,Geneikenstraat,14,51.011547804,5.20473636505
3560,Lummen,Fonteinstraat,10,50.9903600159,5.18526546483
3560,Lummen,Groenstraat,9,50.9904991116,5.19305425007
3560,Lummen,Bosstraat,29,50.9962215545,5.20865386989
3560,Lummen,Zelemsebaan,17,50.9976163742,5.14018328626
3560,Lummen,Linkhoutstraat,114,50.9665018724,5.14852093101
3560,Lummen,Molemstraat,130,51.0018405803,5.21644123636
3560,Lummen,Schalbroekstraat,28,50.9826564134,5.17932863721
3560,Lummen,Bovenstraat,20,50.9821255298,5.1755069349
3560,Lummen,Hulshoekstraat,91,50.9701251148,5.15270257968
3560,Lummen,Dikke Eikstraat,75,50.9939867823,5.15450839403
3560,Lummen,Demerstraat,1,50.9630096178,5.13171366312
3560,Lummen,Voortstraat,57,51.0169942018,5.20351664936
3560,Lummen,St.-Sebastiaanstraat,33,51.0274228896,5.19912985471
3560,Lummen,Molemstraat,84,50.9989523038,5.21380378434
3560,Lummen,Zwaluwstraat,12,51.0006331548,5.19871575232
3560,Lummen,Molemstraat,112,51.0004612871,5.21499456543
3560,Lummen,Schoolstraat,11,51.0011292916,5.14304625561
3560,Lummen,Geneikenstraat,32,51.0134012518,5.20777083002
3560,Lummen,Bosheidestraat,5,51.0077012685,5.21914811995
3560,Lummen,Linkhoutstraat,239,50.9644275329,5.13374969025
3560,Lummen,Dorpsstraat,6,50.9867121113,5.19259349062
3560,Lummen,Linkhoutstraat,132,50.9673877277,5.14619972506
3560,Lummen,Geeneindestraat,32,51.0082520491,5.13647173595
3560,Lummen,Rekhovenstraat,43,50.9912276048,5.22485336063
3560,Lummen,Helvetiastraat,3,51.0089268748,5.22788578124
3560,Lummen,Veldstraat,24,51.0121677948,5.21908392553
3560,Lummen,Stokrooiestraat,73,50.9695327923,5.23930601342
3560,Lummen,Larenstraat,61,51.0031217431,5.18517206608
3560,Lummen,Vleugtstraat,3,51.0235266181,5.12416943415
3560,Lummen,Hulshoekstraat,55,50.9684884673,5.14779459999
3560,Lummen,Laambeekstraat,12,50.9899117195,5.22528111069
3560,Lummen,St.-Annastraat,16,50.9935409029,5.15019219686
3560,Lummen,Geenmeerstraat,22,51.0071023493,5.14817202695
3560,Lummen,Hoekstraat,2,50.9695203382,5.15554618797
3560,Lummen,Gestelstraat,33,51.0281870713,5.2089201112
3560,Lummen,Meldertsebaan,57,51.0020106436,5.13741368272
3560,Lummen,Korenheidestraat,12,50.963634579,5.13511117892
3560,Lummen,St.-Rochusstraat,43,51.0145654093,5.2244527234
3560,Lummen,Helvetiastraat,55,51.0069440725,5.22042701758
3560,Lummen,Lindekensveld,27,50.9949872512,5.1970891514
3560,Lummen,Schalbroekstraat,110,50.9766283554,5.17153994549
3560,Lummen,Gildestraat,9A,50.9789849089,5.17511177902
3560,Lummen,Kraaibergstraat,6,50.9965647231,5.21231560652
3560,Lummen,Grote Baan,34,51.0150615185,5.12127347539
3560,Lummen,Demerstraat,17,50.9629801792,5.13532411027
3560,Lummen,Kammestraat,5,50.9645260886,5.13190705576
3560,Lummen,Zonnestraat,5,50.9879800905,5.19608981516
3560,Lummen,Goeslaerstraat,22,50.980115117,5.15264097011
3560,Lummen,Donderbosstraat,30,50.9731176813,5.13533283957
3560,Lummen,Nieuwstraat,79,51.009348459,5.22601770409
3560,Lummen,Nachtegaalstraat,19,50.9992715583,5.13740773923
3560,Lummen,St.-Lutgardisstraat,1,51.0254109281,5.19473785512
3560,Lummen,Paalstraat,10,51.0153799127,5.16513595308
3560,Lummen,St.-Lutgardisstraat,17,51.0242760931,5.19314745089
3560,Lummen,Bosstraat,65,50.9939634829,5.20352310128
3560,Lummen,Sint-Trudostraat,29,50.9673379167,5.13796599082
3560,Lummen,6 Septemberstraat,61,51.0083746632,5.20279636562
3560,Lummen,Goeslaerstraat,57,50.9845760537,5.14393951139
3560,Lummen,Muggenhoekstraat,9A,50.9780264476,5.20333245485
3560,Lummen,Thiewinkelstraat,59,50.9711208986,5.22768145316
3560,Lummen,Toekomststraat,11A,51.0212243601,5.22514947333
3560,Lummen,St.-Lambertusstraat,23,51.002224845,5.18769301816
3560,Lummen,Zelemsebaan,1,50.9983542802,5.14157318357
3560,Lummen,Schalbroekstraat,163,50.9726933311,5.16231099739
3560,Lummen,Vleugtstraat,19,51.0239056189,5.12528777822
3560,Lummen,Krekelstraat,13,50.9915851081,5.18596684301
3560,Lummen,Linkhoutstraat,88,50.9671830733,5.15093370198
3560,Lummen,Uithoekstraat,1,50.973671771,5.24444980782
3560,Lummen,St.-Annastraat,34,50.9930467227,5.14782534955
3560,Lummen,Larenstraat,15,51.0015204961,5.17832276456
3560,Lummen,Oosterhovenstraat,27,50.9869044583,5.20185733562
3560,Lummen,Heidestraat,2,50.9630964226,5.12553495189
3560,Lummen,Nieuwstraat,44,51.0111947084,5.22583933715
3560,Lummen,Vinnehoekstraat,12,50.965175414,5.11619132309
3560,Lummen,Broekstraat,4,51.0114054231,5.19983860669
3560,Lummen,Heidestraat,18,50.9644437082,5.12526915583
3560,Lummen,Kapelstraat,27A,50.9710083483,5.1360076415
3560,Lummen,Kapelstraat,21,50.9699116391,5.13670482202
3560,Lummen,Haspengouwstraat,2,50.991691922,5.15571623498
3560,Lummen,Gestelstraat,8,51.0261024691,5.2084928118
3560,Lummen,Vinkenstraat,5,50.9998402692,5.20278050755
3560,Lummen,Genenbosstraat,113,51.0122843984,5.23049440587
3560,Lummen,Kruisstraat,11,50.989085842,5.15807370642
3560,Lummen,Nachtegaalstraat,37,50.9983578814,5.13622071311
3560,Lummen,Goerenstraat,20,50.9740919853,5.15186752487
3560,Lummen,Mangelbeekstraat,59,50.9794508336,5.18348090801
3560,Lummen,Kammestraat,57,50.9692294385,5.12731929785
3560,Lummen,Dellestraat,24,50.9859339494,5.23953344005
3560,Lummen,Acaciastraat,69,50.9939551067,5.21249080722
3560,Lummen,Opworpstraat,62,50.9769670398,5.22625333569
3560,Lummen,Processieweg,23,51.0033546826,5.14111604769
3560,Lummen,Neerstraat,10,50.9851372303,5.19192303475
3560,Lummen,Hamelstraat,82,50.979676095,5.18115950026
3560,Lummen,Klaverbladstraat,17,50.9968857951,5.22936319694
3560,Lummen,Oudstrijdersstraat,3,50.988197518,5.19118848093
3560,Lummen,Nieuwstraat,62,51.0104372381,5.2261477988
3560,Lummen,Berkenstraat,4,50.9932031983,5.20650917993
3560,Lummen,Hamelstraat,110,50.9799245418,5.18207335383
3560,Lummen,Sparrenweg,15,51.0016439229,5.14154671666
3560,Lummen,Genenbosstraat,67,51.0083253155,5.22754942812
3560,Lummen,Violetstraat,29,51.0161757726,5.12525215804
3560,Lummen,Huzarenstraat,22,50.9878112627,5.19137668272
3560,Lummen,Rekhovenstraat,96,50.9945221266,5.23212218463
3560,Lummen,Huisveldenstraat,4,51.0108492656,5.22903627889
3560,Lummen,Graafstraat,2,51.0150950061,5.13822830223
3560,Lummen,Voortstraat,22,51.013942374,5.20409082066
3560,Lummen,Molemstraat,31,50.994556649,5.20850505564
3560,Lummen,Schuttersstraat,20,51.0009725432,5.21341754532
3560,Lummen,Priesterse Heidestraat,15,50.9688035252,5.1397728261
3560,Lummen,O. L. Vrouwstraat,69,50.9898200487,5.20719814651
3560,Lummen,Meldertsebaan,75,51.0029525593,5.13634221286
3560,Lummen,Vinnehoekstraat,30,50.9692066555,5.11683880588
3560,Lummen,Stokrooiestraat,20,50.9702536744,5.23273047557
3560,Lummen,Heesstraat,64,50.9979825388,5.12907264519
3560,Lummen,Hamelstraat,11,50.9803384948,5.17918783585
3560,Lummen,Waterheikensstraat,9,51.003088235,5.13373187537
3560,Lummen,Helvetiastraat,37,51.0073777142,5.22309419486
3560,Lummen,Molemstraat,66,50.9966502763,5.21151739484
3560,Lummen,Haagdoornstraat,4,51.0123618642,5.20284305583
3560,Lummen,Hoogstraat,46,51.0019704648,5.19461644362
3560,Lummen,Meerlestraat,7,50.9857285789,5.18690090452
3560,Lummen,Kerkstraat,28,50.9851660727,5.18800096722
3560,Lummen,Rekhovenstraat,25,50.9911302018,5.22258521025
3560,Lummen,Bosheidestraat,22,51.0089899336,5.2183650148
3560,Lummen,Infanteriestraat,9,50.9891455444,5.19327084893
3560,Lummen,Geeneindestraat,52,51.0092993159,5.13838565144
3560,Lummen,St.-Janstraat,15,50.9758922952,5.22328168639
3560,Lummen,Hemelrijkstraat,10,50.9803743845,5.18430470695
3560,Lummen,Beukeboomstraat,22,50.9847642128,5.18399620007
3560,Lummen,Drie Lindenstraat,21,50.9676691,5.13626102832
3560,Lummen,Geeneindestraat,7,51.0065787494,5.13368306095
3560,Lummen,Groenlarenstraat,26,51.0092106077,5.20005441354
3560,Lummen,Geneikenstraat,7,51.0118958266,5.20446598314
3560,Lummen,Europaweg,1,51.0220069895,5.22171104616
3560,Lummen,Roosterstraat,6,51.0045292195,5.21084782491
3560,Lummen,Hamelstraat,64,50.9796598743,5.18012422201
3560,Lummen,Dikke Eikstraat,22,50.9898720235,5.16440140029
3560,Lummen,Heesstraat,11,50.9976608821,5.13637781419
3560,Lummen,Schalbroekstraat,99,50.9769803318,5.1747923304
3560,Lummen,Genenbosstraat,49,51.0072600393,5.22610797926
3560,Lummen,Oudestraat,20,51.0157019513,5.20647415089
3560,Lummen,Hulshoekstraat,101,50.9706308963,5.15424714653
3560,Lummen,Hazenbergstraat,4,51.017489833,5.22553918906
3560,Lummen,Hamelstraat,46,50.9800060788,5.17927578617
3560,Lummen,Pastoor Wintersstraat,14,50.9819007254,5.19262064093
3560,Lummen,Prelaat Knaepenstraat,39,50.9878215708,5.18744110623
3560,Lummen,Prelaat Knaepenstraat,5,50.9888159992,5.1881907397
3560,Lummen,St.-Jakobusstraat,8,50.9921426101,5.23118276362
3560,Lummen,Mierenbergstraat,6,50.9822573512,5.13807164622
3560,Lummen,Dikke Eikstraat,57,50.9909898406,5.15859650678
3560,Lummen,Heesstraat,46,50.9977680755,5.13191235147
3560,Lummen,Linkhoutstraat,149,50.9658006811,5.14455544366
3560,Lummen,Rekhovenstraat,78,50.9932619123,5.23014172345
3560,Lummen,St.-Sebastiaanstraat,8,51.0302702997,5.20902338703
3560,Lummen,Morgenstraat,12,51.017498351,5.23577333345
3560,Lummen,Geneikenstraat,70,51.0180859477,5.2186235169
3560,Lummen,Genenbosstraat,131,51.0135117926,5.22999870266
3560,Lummen,Kwezelstraat,7,50.9920066855,5.1713462514
3560,Lummen,Boogbosstraat,3,50.9680960106,5.1513470099
3560,Lummen,Linkhoutstraat,340,50.9619968459,5.12054490954
3560,Lummen,Schippersstraat,6,51.0107705713,5.2316790677
3560,Lummen,Larenstraat,76,51.0032031012,5.1903983776
3560,Lummen,Lijsterstraat,3,51.0119514583,5.20671667672
3560,Lummen,Kambergenstraat,19,50.964208908,5.12708012589
3560,Lummen,Broedersveld,58,50.9945053285,5.19399401682
3560,Lummen,Goeslaerstraat,29,50.9802366158,5.15113635062
3560,Lummen,Bovenstraat,3,50.9818617479,5.17749856885
3560,Lummen,Kanadastraat,9,50.9849604049,5.20260948357
3560,Lummen,6 Septemberstraat,8,50.9986888304,5.20043884526
3560,Lummen,Heuvelstraat,2,50.9956188816,5.1621854965
3560,Lummen,Zandstraat,1,51.0002477008,5.1379630037
3560,Lummen,Oostereindestraat,44,50.9883735468,5.19995381166
3560,Lummen,6 Septemberstraat,76,51.0093102182,5.2034800579
3560,Lummen,Populierenstraat,30,50.9806158298,5.17269572321
3560,Lummen,Waterstraat,1,51.0054539848,5.20383959288
3560,Lummen,Gestelstraat,53,51.0306213481,5.21005413037
3560,Lummen,Hamelstraat,36,50.9796518434,5.17937304108
3560,Lummen,Dorpsstraat,33,50.987364652,5.19458201905
3560,Lummen,Populierenstraat,12,50.9807393647,5.17568385021
3560,Lummen,Vandermarckestraat,19,50.9885045162,5.18892408161
3560,Lummen,Hoogstraat,18,51.0029241614,5.1989713698
3560,Lummen,6 Septemberstraat,58,51.0073597827,5.20403047686
3560,Lummen,Meldertsebaan,29,50.9999399205,5.14004506435
3560,Lummen,Zelemsebaan,114,50.9929676815,5.12807428819
3560,Lummen,Oostereindestraat,62,50.9890958398,5.20122816933
3560,Lummen,Geerstraat,7,50.9759147942,5.22227636692
3560,Lummen,Hamelstraat,18,50.9800407863,5.17890969204
3560,Lummen,Kammestraat,30,50.9673634058,5.1316582988
3560,Lummen,St.-Janstraat,23,50.9765179602,5.22317348893
3560,Lummen,Mangelbeekstraat,32,50.9771920842,5.17925556587
3560,Lummen,Fagnoulestraat,2,50.9878829462,5.19403895941
3560,Lummen,Heesstraat,18,50.9980098551,5.13651588166
3560,Lummen,St.-Sebastiaanstraat,53,51.0262192028,5.19592457038
3560,Lummen,Kraaibergstraat,33,50.9944898795,5.21334546043
3560,Lummen,Grote Baan,7,51.0144002736,5.12931845512
3560,Lummen,Groenstraat,26,50.9908970839,5.19189980871
3560,Lummen,Broedersveld,76,50.9942178244,5.19258625236
3560,Lummen,Gorenbroekstraat,7,50.9701893935,5.12172328702
3560,Lummen,Molemstraat,129,51.0004865098,5.21447515324
3560,Lummen,St.-Rochusstraat,35,51.0138812629,5.22492674187
3560,Lummen,Geeneindestraat,103,51.0105313851,5.14605860999
3560,Lummen,Priesterse Heidestraat,76,50.9705924142,5.14868855022
3560,Lummen,Zandstraat,25,51.001637161,5.13454317966
3560,Lummen,Pastorijstraat,39,51.0010730346,5.14495212963
3560,Lummen,Nieuwstraat,34,51.0112125306,5.22458949773
3560,Lummen,Fazantenstraat,5,51.0144604348,5.20196340197
3560,Lummen,Sparrenweg,23,51.0024507005,5.14136085942
3560,Lummen,Mellaerstraat,8,50.9961538441,5.15732390748
3560,Lummen,Molemstraat,140,51.0035971596,5.21894433139
3560,Lummen,Geneikenstraat,103,51.0192215139,5.22217493254
3560,Lummen,Opworpstraat,34,50.9767700057,5.22195233565
3560,Lummen,Vandermarckestraat,45,50.9930021336,5.18751930308
3560,Lummen,Krekelstraat,1C,50.9910831671,5.18721411324
3560,Lummen,Linkhoutstraat,43,50.9694008641,5.15645864268
3560,Lummen,Neerstraat,19,50.9845519247,5.19284474053
3560,Lummen,Goeslaerstraat,40,50.9851406223,5.14454958776
3560,Lummen,Thiewinkelstraat,42,50.9733622208,5.22203150919
3560,Lummen,St.-Annastraat,7,50.9940832797,5.15248269507
3560,Lummen,Stokrooiestraat,27,50.9716904158,5.23423389961
3560,Lummen,St.-Annastraat,79,50.9899286763,5.143745543
3560,Lummen,Linkhoutstraat,139,50.9659124022,5.14617680579
3560,Lummen,Goeslaerstraat,5,50.9786434276,5.15724864115
3560,Lummen,Dellestraat,32,50.9805917111,5.24213560473
3560,Lummen,O. L. Vrouwstraat,26,50.987969196,5.20209861339
3560,Lummen,Processieweg,61,51.0041265336,5.14361531442
3560,Lummen,Nieuwstraat,16,51.0118214237,5.22658513445
3560,Lummen,Processieweg,15,51.0025553368,5.14038935073
3560,Lummen,Goerenstraat,27,50.97358671,5.15421926051
3560,Lummen,Linkhoutstraat,61,50.9685344683,5.15509867354
3560,Lummen,Voortstraat,40,51.0160524945,5.20402943936
3560,Lummen,Larenstraat,8,51.0000493376,5.17343935633
3560,Lummen,Hoogstraat,109,50.9997756971,5.18508336381
3560,Lummen,Opworpstraat,16,50.9765509244,5.21929863913
3560,Lummen,Mellaerstraat,23,50.9987736351,5.16702855372
3560,Lummen,Ringlaan,15,50.9839454627,5.19415385471
3560,Lummen,Heidestraat,11,50.9640491857,5.12470531806
3560,Lummen,Havenstraat,6,51.0124884698,5.24198625597
3560,Lummen,Kruisstraat,18,50.9887906416,5.15028169686
3560,Lummen,Watermolenstraat,7,50.989801906,5.22349708019
3560,Lummen,Genenbosstraat,95,51.0109524291,5.23020810693
3560,Lummen,Thiewinkelstraat,60,50.9705817656,5.22747451615
3560,Lummen,Sint-Trudostraat,30,50.9675397376,5.13833618465
3560,Lummen,Schalbroekstraat,127,50.9761633866,5.17118780969
3560,Lummen,Bosstraat,22,50.9968876777,5.20880656871
3560,Lummen,Acaciastraat,26,50.990807853,5.20840491689
3560,Lummen,Broedersveld,8,50.9926205284,5.1944713154
3560,Lummen,Violetstraat,3,51.0156156033,5.1216291198
3560,Lummen,Meldertsebaan,40,51.000812178,5.13971637398
3560,Lummen,Nieuwstraat,80,51.0102942871,5.22360613791
3560,Lummen,Roosterstraat,4A,51.0041716993,5.21107392
3560,Lummen,Demerstraat,43,50.9632599397,5.13995234435
3560,Lummen,Eggelstraat,1,50.9757697104,5.1676017425
3560,Lummen,Larenstraat,23,51.0016859406,5.17936139404
3560,Lummen,St.-Lutgardisstraat,43,51.020549013,5.18834910296
3560,Lummen,van Willigenstraat,21,50.9826426719,5.18246192797
3560,Lummen,Vleugtstraat,10,51.0225942112,5.12601729931
3560,Lummen,St.-Annastraat,44,50.9923535489,5.14651986681
3560,Lummen,Schuttersstraat,3,51.0009271318,5.21443239444
3560,Lummen,Zelemsebaan,43,50.9960804761,5.13678253647
3560,Lummen,Kapelstraat,38,50.9733467356,5.13929117762
3560,Lummen,Geeneindestraat,67,51.0098277906,5.14063807662
3560,Lummen,Pastorijstraat,50,51.0014048123,5.1469553459
3560,Lummen,St.-Janstraat,8,50.9726188081,5.22596585275
3560,Lummen,Huzarenstraat,5,50.9880461814,5.19365727443
3560,Lummen,Zelemsebaan,78,50.9950231759,5.13288412961
3560,Lummen,Kerkhofstraat,5,50.9664132613,5.13616186714
3560,Lummen,Priesterse Heidestraat,8,50.9678445064,5.13906029204
3560,Lummen,Bosheidestraat,29,51.0107686023,5.21826891125
3560,Lummen,Kammestraat,40,50.9677297131,5.13041470628
3560,Lummen,Mangelbeekstraat,42,50.9782293969,5.17979100037
3560,Lummen,Voortstraat,5,51.0113682091,5.20288548227
3560,Lummen,Heidestraat,9,50.9638688441,5.12480447675
3560,Lummen,Oosterhovenstraat,30,50.9865914602,5.20185404568
3560,Lummen,Rietstraat,8,51.0292623495,5.21185583529
3560,Lummen,Stokrooiestraat,3,50.9707417587,5.2302534044
3560,Lummen,Tuinstraat,22,51.014468485,5.20564075546
3560,Lummen,Sparrenweg,8,51.0015419259,5.14226593265
3560,Lummen,Windmolenstraat,4,50.9891401706,5.18817732692
3560,Lummen,Dikke Eikstraat,29,50.9895670128,5.16376252649
3560,Lummen,Priesterse Heidestraat,94,50.9712859728,5.15160746939
3560,Lummen,St.-Annastraat,62,50.9911454599,5.14448913125
3560,Lummen,Helvetiastraat,10,51.0099243991,5.22930783677
3560,Lummen,Lindekensveld,20,50.9951603134,5.19888454583
3560,Lummen,St.-Lambertusstraat,15,51.001807436,5.1861844872
3560,Lummen,Meldertsebaan,5,50.9976560895,5.14297570048
3560,Lummen,Dikke Eikstraat,5,50.9871070891,5.17289320107
3560,Lummen,Jantenstraat,14,51.0072394844,5.22925434055
3560,Lummen,Violetstraat,22,51.0158493791,5.12531956308
3560,Lummen,Genenbosstraat,128,51.0135856599,5.23089815282
3560,Lummen,Veldstraat,14,51.0132919612,5.21776349651
3560,Lummen,Sacramentstraat,18,51.0130481172,5.2093349232
3560,Lummen,Schalbroekstraat,72,50.9784399294,5.17655516884
3560,Lummen,Dikke Eikstraat,40,50.9905723018,5.16168975466
3560,Lummen,Beukeboomstraat,5,50.9866221691,5.17445782203
3560,Lummen,Kanadastraat,11,50.9851812976,5.20305065221
3560,Lummen,Schoolstraat,18,51.0003672306,5.14344409676
3560,Lummen,Vandermarckestraat,37,50.9921356792,5.1878978623
3560,Lummen,St.-Ferdinandstraat,32,51.0017592631,5.18380023364
3560,Lummen,Kriekelse Hoekstraat,14,50.9724816855,5.15756251815
3560,Lummen,Edbroekenstraat,7,51.0096544422,5.23136879308
3560,Lummen,Vijverstraat,4,50.9826664302,5.22177236939
3560,Lummen,Infanteriestraat,26,50.9884092835,5.19151409559
3560,Lummen,Genenbosstraat,70,51.0078154564,5.22733531314
3560,Lummen,Bergstraat,6,51.002609391,5.19096910996
3560,Lummen,Oudestraat,3,51.0155671256,5.20461420548
3560,Lummen,Oostereindestraat,79,50.9907318098,5.20547871413
3560,Lummen,Prelaat Knaepenstraat,30,50.9884334714,5.18664436139
3560,Lummen,Voortstraat,29,51.0139603249,5.20317038781
3560,Lummen,Infanteriestraat,2,50.9887960158,5.19375907777
3560,Lummen,Linkhoutstraat,150,50.9661615747,5.14392178415
3560,Lummen,Fonteinstraat,19,50.9906946963,5.18496847763
3560,Lummen,Spreeuwenstraat,2,51.0045918107,5.20293712481
3560,Lummen,Klaverbladstraat,2C,50.9951020889,5.22924821363
3560,Lummen,Helderstraat,16,51.0298880114,5.21405010289
3560,Lummen,Prelaat Knaepenstraat,12,50.9886444327,5.18743583818
3560,Lummen,Meldertsebaan,148,51.011994511,5.12572165375
3560,Lummen,Boogbosstraat,27,50.9702020566,5.15005896147
3560,Lummen,Geneikenstraat,49,51.0169092394,5.21137203391
3560,Lummen,Waterheikensstraat,2,51.0039064705,5.13461478811
3560,Lummen,Genenbosstraat,52,51.0067397113,5.22589910771
3560,Lummen,Huisveldenstraat,13,51.0118794861,5.22799042909
3560,Lummen,Bovenstraat,27,50.9817153248,5.17401352705
3560,Lummen,Burgemeester Briersstraat,1,50.9832169291,5.19179642393
3560,Lummen,Geeneindestraat,24,51.0074054445,5.13572303751
3560,Lummen,Gyzevennestraat,48,51.0022604029,5.13139077501
3560,Lummen,Nieuwstraat,9,51.0106740104,5.22523700209
3560,Lummen,Krekelstraat,21,50.9910894231,5.18574624126
3560,Lummen,Linkhoutstraat,229,50.9649905926,5.13552285749
3560,Lummen,Linkhoutstraat,96,50.9669519541,5.1502304015
3560,Lummen,Prelaat Knaepenstraat,40,50.9878558066,5.18753357197
3560,Lummen,Thiewinkelstraat,67,50.9703391273,5.2288761868
3560,Lummen,Molemstraat,92,50.9996044018,5.21411829599
3560,Lummen,Dikke Eikstraat,65,50.9916249953,5.15715817463
3560,Lummen,St.-Sebastiaanstraat,23,51.0275345425,5.20066910253
3560,Lummen,Opworpstraat,9,50.9769604664,5.21914146521
3560,Lummen,Meldertsebaan,30,50.9999976764,5.14081917696
3560,Lummen,Kambergenstraat,20,50.9645030776,5.12732646867
3560,Lummen,Pastorijstraat,14,50.9992748895,5.14309179953
3560,Lummen,Oostereindestraat,14,50.9878227519,5.19683293984
3560,Lummen,Thiewinkelstraat,85,50.969211084,5.23038599441
3560,Lummen,Oudestraat,10,51.015223806,5.20508292748
3560,Lummen,Dr. Vanderhoeydonckstraat,52,50.985998033,5.19880700157
3560,Lummen,Molemstraat,6,50.991877935,5.20739211238
3560,Lummen,Molemstraat,74,50.9976875115,5.21248171738
3560,Lummen,St.-Annastraat,26,50.9930594226,5.14891953609
3560,Lummen,Populierenstraat,29,50.978850052,5.16732006905
3560,Lummen,Dwarsstraat,16,51.0087000874,5.20181995793
3560,Lummen,Klaproosstraat,3,50.9855931209,5.20227708356
3560,Lummen,Meldertsebaan,12,50.9983571481,5.1427359949
3560,Lummen,Korenheidestraat,9A,50.9640890204,5.13534339406
3560,Lummen,Hulshoekstraat,63,50.9687721067,5.1486595223
3560,Lummen,Kanaalstraat,7,51.02147358,5.22789479731
3560,Lummen,Oostereindestraat,32,50.9883183873,5.19895638282
3560,Lummen,Kabouterstraat,5,50.9946867455,5.22154023437
3560,Lummen,Goeslaerstraat,30,50.9818740981,5.14871296279
3560,Lummen,Rekhovenstraat,53,50.9914461795,5.22619303027
3560,Lummen,Loyestraat,6,50.9762813207,5.21354112214
3560,Lummen,Kerkstraat,18,50.9854522703,5.18862465728
3560,Lummen,Groenlarenstraat,80,51.0052042382,5.19498482558
3560,Lummen,St.-Edmondstraat,7,50.9891779478,5.19162303313
3560,Lummen,Schalbroekstraat,155,50.9734837852,5.16364231023
3560,Lummen,Vandermarckestraat,20,50.990140896,5.18870661555
3560,Lummen,Notenstraat,2,51.0029864778,5.14339669153
3560,Lummen,Havenstraat,13,51.0130091366,5.24832173321
3560,Lummen,Hamelstraat,102,50.9795198031,5.1819986828
3560,Lummen,Neerstraat,20,50.984459651,5.19297855757
3560,Lummen,Processieweg,8,51.0011423526,5.14114265658
3560,Lummen,Schuttersstraat,10,51.0012387817,5.21439799029
3560,Lummen,Nieuwstraat,69,51.0096987594,5.22562669641
3560,Lummen,Sint-Trudostraat,5,50.9656266671,5.13612022398
3560,Lummen,O. L. Vrouwstraat,62,50.9891159258,5.20675125701
3560,Lummen,Gestelstraat,23,51.0273117057,5.20837296422
3560,Lummen,Molemstraat,122,51.0011295114,5.21561584981
3560,Lummen,Ringlaan,4A,50.9838286954,5.19018774671
3560,Lummen,Kruisstraat,4,50.9885752336,5.16174595045
3560,Lummen,Dr. Vanderhoeydonckstraat,5,50.9905671727,5.19378330673
3560,Lummen,Nieuwstraat,87,51.008868217,5.2256865856
3560,Lummen,Geenmeerstraat,12,51.004317819,5.14851234552
3560,Lummen,Thiewinkelstraat,7,50.9807842645,5.20837530105
3560,Lummen,Hamelstraat,120,50.9794770507,5.18244765257
3560,Lummen,Langeheidestraat,4,51.0153350549,5.14510405019
3560,Lummen,Zwaluwstraat,22,51.0017462238,5.19793009253
3560,Lummen,St.-Lambertusstraat,33,51.0026746946,5.18874950264
3560,Lummen,Schalbroekstraat,173,50.9720501067,5.16139384375
3560,Lummen,Goerenstraat,10,50.9739399265,5.15328899156
3560,Lummen,Hulshoekstraat,45,50.9686107678,5.14647230472
3560,Lummen,Zelemsebaan,25,50.9972674007,5.13911366423
3560,Lummen,Gestelstraat,76,51.0324017929,5.21176657251
3560,Lummen,Lindekensveld,1,50.9918778923,5.19462473298
3560,Lummen,Acaciastraat,62,50.9931971099,5.212751784
3560,Lummen,Sint-Trudostraat,19,50.966586408,5.13782438365
3560,Lummen,Larenstraat,119,51.0042726861,5.19287777699
3560,Lummen,Ringlaan,8,50.9841490043,5.19103534353
3560,Lummen,O. L. Vrouwstraat,44,50.9885651961,5.20440551223
3560,Lummen,Zelemsebaan,71,50.9948512344,5.13395753158
3560,Lummen,Molemstraat,104,51.0002126708,5.21476440206
3560,Lummen,Spoorwegstraat,2,50.9717220328,5.15637352342
3560,Lummen,Populierenstraat,40,50.9804739507,5.17127847477
3560,Lummen,Blanklaarstraat,17,51.0141469407,5.12225376038
3560,Lummen,Larenstraat,51,51.0026895658,5.18374035096
3560,Lummen,Thiewinkelstraat,49,50.971816163,5.22642686167
3560,Lummen,Muggenhoekstraat,3,50.9775842689,5.20149133338
3560,Lummen,Hoogstraat,72,51.0010526032,5.19019194638
3560,Lummen,Europaweg,25,51.0287052111,5.22085937697
3560,Lummen,Mangelbeekstraat,49,50.9791126593,5.18269992526
3560,Lummen,Thiewinkelstraat,32,50.9743975421,5.22020144215
3560,Lummen,Processieweg,33,51.0027381476,5.140436104
3560,Lummen,Dikke Eikstraat,30,50.9902212484,5.16312882601
3560,Lummen,Rekhovenstraat,62A,50.9915991994,5.2274471847
3560,Lummen,Schalbroekstraat,102,50.9768669891,5.17246676179
3560,Lummen,Nieuwstraat,100,51.0097411636,5.2242845807
3560,Lummen,Genenbosstraat,103,51.0115885231,5.23090938624
3560,Lummen,Meldertsebaan,138,51.0112363854,5.12674635966
3560,Lummen,Thiewinkelstraat,14,50.9788333011,5.21093988667
3560,Lummen,Bergstraat,13,51.0020002635,5.19177705902
3560,Lummen,Dikke Eikstraat,12,50.9893308013,5.16643740862
3560,Lummen,Schalbroekstraat,120,50.9763859178,5.17012864763
3560,Lummen,Kerkstraat,4,50.9856841611,5.1912427516
3560,Lummen,Hamelstraat,72,50.9799475947,5.18040333747
3560,Lummen,Nachtegaalstraat,27,50.9990042889,5.13665257291
3560,Lummen,Windmolenstraat,11,50.9890883958,5.18726043143
3560,Lummen,Lindekensveld,19,50.9929513543,5.19564705348
3560,Lummen,Kanaalstraat,14,51.027231437,5.22415680561
3560,Lummen,Hegstraat,4,51.0345068936,5.20796732529
3560,Lummen,Bosheidestraat,12,51.0083183433,5.21910746441
3560,Lummen,Drie Lindenstraat,13,50.9672978249,5.13639887719
3560,Lummen,Geeneindestraat,42,51.0086277469,5.1372661636
3560,Lummen,Groenlarenstraat,16,51.0099168266,5.2013387436
3560,Lummen,Meldertsebaan,65,51.00230973,5.13660151405
3560,Lummen,Boogbosstraat,45,50.9720133033,5.14915173995
3560,Lummen,Hoogstraat,54,51.0017207745,5.1935987777
3560,Lummen,Opworpstraat,48,50.9769703965,5.22454733359
3560,Lummen,Helvetiastraat,27,51.0078701088,5.22405459717
3560,Lummen,Gildestraat,3,50.9780703591,5.1755743531
3560,Lummen,Dr. Vanderhoeydonckstraat,24,50.988687304,5.19492752894
3560,Lummen,Hamelstraat,54,50.9800127301,5.18001854692
3560,Lummen,Driehoekstraat,1,50.9651301758,5.13358250365
3560,Lummen,St.-Edmondstraat,14,50.9891575804,5.19039660581
3560,Lummen,Oosterhovenstraat,19,50.9871519257,5.20164439364
3560,Lummen,Heesstraat,54,50.9977436067,5.13075091506
3560,Lummen,Hulshoekstraat,27,50.968050795,5.14353434215
3560,Lummen,Linkhoutstraat,275,50.9628181119,5.12890278424
3560,Lummen,Genenbosstraat,77,51.0088807874,5.2283491823
3560,Lummen,Nieuwstraat,48,51.0112422805,5.22630561866
3560,Lummen,Stokrooiestraat,45,50.9707466904,5.23562102932
3560,Lummen,Schalbroekstraat,89,50.9777409812,5.17664663696
3560,Lummen,Steenstraat,3,50.9921872811,5.20849873995
3560,Lummen,Huzarenstraat,12,50.9880901134,5.19210982879
3560,Lummen,Linkhoutstraat,157,50.9657869684,5.1436365562
3560,Lummen,Genenbosstraat,24,51.0056396564,5.22350160843
3560,Lummen,Voortstraat,12,51.0124723684,5.20413184433
3560,Lummen,Wandelstraat,2,51.016040101,5.22803675143
3560,Lummen,Kraaibergstraat,15,50.996261768,5.21276686088
3560,Lummen,Pater Jacobsstraat,2,50.9872849963,5.19136530071
3560,Lummen,Klaverbladstraat,25,50.997258247,5.23087127859
3560,Lummen,Nessesheidestraat,1,50.9769323791,5.21222415869
3560,Lummen,Kapelstraat,36A,50.9732769879,5.1389602679
3560,Lummen,Genenbosstraat,59,51.007915191,5.22688658444
3560,Lummen,Schalbroekstraat,4,50.9840439689,5.18324280244
3560,Lummen,Schalbroekstraat,36,50.9821127599,5.17835737603
3560,Lummen,Oostereindestraat,7,50.987926382,5.19612105538
3560,Lummen,Geneikenstraat,42,51.0143275134,5.20839225169
3560,Lummen,Lijsterstraat,10,51.0104001183,5.20641359322
3560,Lummen,Schuilenbroekstraat,4,51.0128704412,5.16699697579
3560,Lummen,Kapelstraat,13,50.9690871115,5.13630519197
3560,Lummen,Gemeenteplein,14,50.9870917387,5.19142656763
3560,Lummen,Groenlarenstraat,2,51.0107925146,5.2027585144
3560,Lummen,Charles Wellensstraat,5,50.9809870733,5.18245722792
3560,Lummen,Rekhovenstraat,35,50.9911032378,5.22382124297
3560,Lummen,Gyzevennestraat,2,50.9988224497,5.13487209208
3560,Lummen,Genenbosstraat,121,51.012925821,5.2301985443
3560,Lummen,Schalbroekstraat,18,50.9832259932,5.18080110314
3560,Lummen,Bovenstraat,10,50.9821847296,5.17667772865
3560,Lummen,Kriekelse Hoekstraat,7,50.9721644635,5.15901715465
3560,Lummen,Mangelbeekstraat,67,50.9801737589,5.18452137322
3560,Lummen,Smetanastraat,6,50.9672649783,5.14795619627
3560,Lummen,Geneikenstraat,60,51.0180242513,5.21704581714
3560,Lummen,Dr. Vanderhoeydonckstraat,37B,50.9872339488,5.19543784228
3560,Lummen,Helderstraat,9,51.0305337122,5.21208645801
3560,Lummen,Pater Jacobsstraat,16,50.9897234809,5.18986912758
3560,Lummen,Voortstraat,30,51.0146035988,5.20376900451
3560,Lummen,Hulshoekstraat,98,50.9701063451,5.15412658555
3560,Lummen,Kapelstraat,48,50.9741084637,5.14158546043
3560,Lummen,Mangelbeekstraat,14,50.9774687924,5.17694453716
3560,Lummen,Prelaat Knaepenstraat,29,50.9884890623,5.18660060892
3560,Lummen,Mezenstraat,1,50.9927807412,5.19683316968
3560,Lummen,Bosheidestraat,24,51.0091048243,5.21819040664
3560,Lummen,Hamelstraat,26,50.9797564512,5.17898665602
3560,Lummen,Groenstraat,18,50.9919203769,5.19186153479
3560,Lummen,Dwarsstraat,7,51.007785974,5.20192808186
3560,Lummen,Lindekensveld,8,50.992664026,5.1962500743
3560,Lummen,Dr. Vanderhoeydonckstraat,30,50.9883565362,5.19517579027
3560,Lummen,St.-Lambertusstraat,38,51.0028172935,5.19049732202
3560,Lummen,Oostereindestraat,54,50.9885481358,5.2008800131
3560,Lummen,Zwaluwstraat,3,51.0018144859,5.19736468925
3560,Lummen,Heesstraat,26,50.9979552923,5.13468239011
3560,Lummen,Stokrooiestraat,35,50.9707274328,5.23422123294
3560,Lummen,St.-Sebastiaanstraat,63,51.0259352853,5.19413658952
3560,Lummen,St.-Janstraat,13,50.9758037804,5.22328932707
3560,Lummen,Dikke Eikstraat,24,50.9900155099,5.16386828019
3560,Lummen,Geeneindestraat,111,51.0106123009,5.14698134622
3560,Lummen,Molemstraat,15,50.9928927045,5.20765486794
3560,Lummen,Geenrodestraat,18,51.0075607746,5.16564025811
3560,Lummen,Schalbroekstraat,97,50.9768596794,5.17512146703
3560,Lummen,Ringlaan,1,50.9850895661,5.18793710577
3560,Lummen,Thiewinkelstraat,50,50.9714353549,5.22609440696
3560,Lummen,Genenbosstraat,136,51.014350995,5.23135788471
3560,Lummen,Dr. Vanderhoeydonckstraat,12,50.9897363483,5.19466629589
3560,Lummen,Pastorijstraat,14A,50.9991557784,5.1432144844
3560,Lummen,Zandstraat,37,51.0022164515,5.13316141586
3560,Lummen,Hoogstraat,26,51.0025875734,5.19748266585
3560,Lummen,6 Septemberstraat,66,51.0080272861,5.20366022752
3560,Lummen,Krekelstraat,4,50.9919296051,5.18716666282
3560,Lummen,Notenstraat,7,51.0012436749,5.14355932818
3560,Lummen,Larenstraat,66,51.0030753891,5.18882305837
3560,Lummen,Kapelstraat,94,50.9710446819,5.15486688031
3560,Lummen,Demerstraat,55,50.9638715888,5.14391464019
3560,Lummen,Genenbosstraat,118,51.0129623787,5.23086515223
3560,Lummen,Goerenstraat,35,50.9736369843,5.15239842006
3560,Lummen,Dellestraat,9,50.9921023324,5.23821261118
3560,Lummen,Gyzevennestraat,11,50.9990943981,5.13384853172
3560,Lummen,Oudestraat,17,51.0161273064,5.20639055517
3560,Lummen,Thiewinkelstraat,2,50.9810612134,5.20670353735
3560,Lummen,Linkhoutstraat,269,50.9629133696,5.13004614121
3560,Lummen,Linkhoutstraat,27,50.9700038546,5.15772367468
3560,Lummen,Bosstraat,14,50.9940468838,5.20479138598
3560,Lummen,Oostereindestraat,72,50.9891109489,5.20188705183
3560,Lummen,Hemelrijkstraat,5,50.9812634656,5.18366966344
3560,Lummen,Gestelstraat,45,51.0297462434,5.20976054827
3560,Lummen,Helderstraat,28,51.0328555562,5.21912850732
3560,Lummen,Geneikenstraat,29,51.013647335,5.20708493055
3560,Lummen,Linkhoutstraat,370,50.9611943202,5.11671755021
3560,Lummen,Korenheidestraat,3,50.9643840035,5.13526964005
3560,Lummen,Acaciastraat,18,50.9903644783,5.20698198944
3560,Lummen,Geneikenstraat,93,51.0188780414,5.22000100937
3560,Lummen,Zelemsebaan,73,50.9948792408,5.13364616647
3560,Lummen,Hereheidestraat,4,51.0082384865,5.14171160745
3560,Lummen,St.-Ferdinandstraat,9,51.0007461391,5.18331914251
3560,Lummen,Goerenstraat,17,50.9734590143,5.15729904843
3560,Lummen,Kambergenstraat,5,50.9637687742,5.12942983549
3560,Lummen,Voortstraat,52,51.0171374623,5.20436961631
3560,Lummen,Acaciastraat,48,50.9920776198,5.2112358094
3560,Lummen,Geeneindestraat,75,51.0100606514,5.14190585904
3560,Lummen,Dorpsstraat,21,50.987166129,5.19416405308
3560,Lummen,Sacramentstraat,6,51.0127988847,5.20747701393
3560,Lummen,Hoefstraat,2,51.0041789419,5.19432329008
3560,Lummen,Jantenstraat,9,51.0059803614,5.2276228145
3560,Lummen,O. L. Vrouwstraat,36,50.9882883457,5.2033001468
3560,Lummen,Bijgaertstraat,3,51.006037485,5.16155807502
3560,Lummen,Linkhoutstraat,144,50.9662535574,5.14440933413
3560,Lummen,Priesterse Heidestraat,66,50.9702413765,5.14772508839
3560,Lummen,Pater Jacobsstraat,11,50.9879283632,5.19019913499
3560,Lummen,Geeneindestraat,29,51.0079588043,5.13559089862
3560,Lummen,Blanklaarstraat,10,51.0137252988,5.12356259584
3560,Lummen,Linkhoutstraat,287,50.9629108552,5.12754482084
3560,Lummen,Kraaibergstraat,21,50.9956722484,5.21297632441
3560,Lummen,Meldertsebaan,154,51.0124080093,5.12527774778
3560,Lummen,Stokrooiestraat,17,50.9706527562,5.2323357597
3560,Lummen,Huzarenstraat,24,50.9877016959,5.19105301004
3560,Lummen,Zelemsebaan,91,50.9940971396,5.13189068484
3560,Lummen,Oudestraat,35,51.015875302,5.20873854468
3560,Lummen,Toekomststraat,9,51.0208635399,5.22462747784
3560,Lummen,St.-Rochusstraat,27,51.0132424702,5.22557928381
3560,Lummen,Gemeenteplein,2,50.9858071595,5.19183070007
3560,Lummen,Schalbroekstraat,137,50.9759095332,5.1699998895
3560,Lummen,Schuttersstraat,17,51.0001865042,5.21293934493
3560,Lummen,Laambeekstraat,3,50.990632779,5.22529430113
3560,Lummen,Linkhoutstraat,352,50.9617018595,5.1188912064
3560,Lummen,Bosstraat,32,50.9963891672,5.20775370551
3560,Lummen,O. L. Vrouwstraat,48,50.9887119353,5.20489468099
3560,Lummen,Veldstraat,9,51.0156086101,5.21600328532
3560,Lummen,Neerstraat,5,50.985593875,5.19188904748
3560,Lummen,Hamelstraat,90,50.9799154868,5.18157605921
3560,Lummen,Acaciastraat,36,50.9913049694,5.20940051798
3560,Lummen,St.-Sebastiaanstraat,45,51.0270245971,5.19693137895
3560,Lummen,Voortstraat,24,51.0141281574,5.20384217934
3560,Lummen,Priesterse Heidestraat,13,50.9684212307,5.13950699353
3560,Lummen,Hoogstraat,90,51.0005541174,5.18693164481
3560,Lummen,Genenbosstraat,12,51.0049814254,5.2218685651
3560,Lummen,Schalbroekstraat,119,50.9761498071,5.17249076494
3560,Lummen,Industriestraat,3,51.0157033698,5.2373958219
3560,Lummen,Huisveldenstraat,23,51.0129660517,5.22747554984
3560,Lummen,6 Septemberstraat,47,51.0062747526,5.20207643872
3560,Lummen,Groenlarenstraat,7,51.0100553293,5.20219291498
3560,Lummen,Borgersstraat,12,51.0108014289,5.12372077555
3560,Lummen,St.-Annastraat,54,50.9916349314,5.14532154338
3560,Lummen,Golfweg,1,50.9934762787,5.22574360794
3560,Lummen,Dikke Eikstraat,52,50.9909974972,5.16035817468
3560,Lummen,Groenlarenstraat,64,51.0062822084,5.1966303308
3560,Lummen,Vinnehoekstraat,3,50.9623139163,5.11513099195
3560,Lummen,Meldertsebaan,101,51.0043320836,5.13463514542
3560,Lummen,Pastoor Frederickxstraat,10,50.9864825114,5.19475859351
3560,Lummen,Kortestraat,1,50.9962587151,5.20966782387
3560,Lummen,Ashoekstraat,2,51.0054828888,5.18399017505
3560,Lummen,Kriekelse Hoekstraat,22,50.9728284539,5.15833338428
3560,Lummen,Linkhoutstraat,234,50.9646511219,5.13313963585
3560,Lummen,Larenstraat,47,51.0023372548,5.18318355633
3560,Lummen,Baandonkstraat,9,50.9954994655,5.22144648856
3560,Lummen,Rekhovenstraat,10,50.9906183328,5.2206267433
3560,Lummen,Linkhoutstraat,91,50.9670147889,5.15160812525
3560,Lummen,Boogbosstraat,35,50.9708701778,5.14961150886
3560,Lummen,Geeneindestraat,57,51.009711545,5.13909065687
3560,Lummen,Molemstraat,61,50.9962256026,5.21061413152
3560,Lummen,Korte Goerenstraat,12,50.9732433702,5.15361748074
3560,Lummen,Notenstraat,11,51.0015515496,5.14333020307
3560,Lummen,Hoogstraat,6,51.0034299014,5.20027146905
3560,Lummen,Bovenstraat,35,50.9816858619,5.17276279745
3560,Lummen,Oostereindestraat,2,50.9876126079,5.19547429522
3560,Lummen,Genenbosstraat,40,51.0061994355,5.22478793753
3560,Lummen,St.-Lutgardisstraat,20,51.0244859896,5.19173671302
3560,Lummen,Linkhoutstraat,324,50.9626905803,5.12248049807
3560,Lummen,St.-Annastraat,48,50.9921220698,5.1461660418
3560,Lummen,Pater Jacobsstraat,7,50.9876763749,5.1903031029
3560,Lummen,Kambergenstraat,25,50.9643307772,5.12597000601
3560,Lummen,Priesterse Heidestraat,84,50.9711264632,5.15042420418
3560,Lummen,Larenstraat,13,51.0014739739,5.17808132663
3560,Lummen,Krekelstraat,15,50.9913734685,5.18613820815
3560,Lummen,Zelemsebaan,20,50.9980677582,5.14003003031
3560,Lummen,Schalbroekstraat,44,50.9814003643,5.17776459736
3560,Lummen,Paalstraat,5,51.0134073641,5.15897430494
3560,Lummen,St.-Lambertusstraat,1,51.0008513475,5.1840541193
3560,Lummen,Molemstraat,117,50.9999337123,5.21385312822
3560,Lummen,Linkhoutstraat,162,50.9661064079,5.14247176133
3560,Lummen,Zelemsebaan,55,50.9955632223,5.13530779133
3560,Lummen,Schalbroekstraat,62,50.979664809,5.17706004526
3560,Lummen,Hamelstraat,6,50.9798196592,5.17821548687
3560,Lummen,Nieuwstraat,28,51.0114776353,5.22561423471
3560,Lummen,Kapelstraat,6,50.9686729179,5.13713639678
3560,Lummen,Kapelstraat,41,50.9741554858,5.14066826669
3560,Lummen,Muggenhoekstraat,14,50.9777882034,5.20794223727
3560,Lummen,Heesstraat,6,50.9978104539,5.13819519343
3560,Lummen,St.-Ferdinandstraat,22,51.0006452368,5.18425839099
3560,Lummen,Vinnehoekstraat,2B,50.9611183236,5.1161862365
3560,Lummen,Opworpstraat,28,50.9767581037,5.22082974811
3560,Lummen,Spoorwegstraat,7,50.9720866609,5.15458693439
3560,Lummen,Driehoekstraat,8,50.9656214785,5.13375936547
3560,Lummen,Infanteriestraat,18,50.9885662773,5.1919971347
3560,Lummen,6 Septemberstraat,84,51.0096681269,5.20341234318
3560,Lummen,Thiewinkelstraat,39,50.9739293979,5.22118751293
3560,Lummen,Pastorijstraat,9,50.9992979631,5.14260481343
3560,Lummen,Burggrachtstraat,12,50.9849474556,5.18935227699
3560,Lummen,Bosstraat,42,50.9959538999,5.20654173531
3560,Lummen,Geneikenstraat,111,51.0188316203,5.22186695217
3560,Lummen,St.-Edmondstraat,15A,50.9896055933,5.19028553437
3560,Lummen,Thiewinkelstraat,33A,50.9746009894,5.22094428762
3560,Lummen,Larenstraat,31,51.0020256851,5.18082961631
3560,Lummen,Kammestraat,52,50.9684511173,5.12933488944
3560,Lummen,Veldstraat,22,51.012300038,5.21889665457
3560,Lummen,Violetstraat,14,51.0152628034,5.12411839587
3560,Lummen,Zandstraat,19,51.001313392,5.13537916515
3560,Lummen,Boogbosstraat,17,50.9694649225,5.15061003611
3560,Lummen,6 Septemberstraat,31,51.0022175374,5.2001343867
3560,Lummen,Linkhoutstraat,55,50.9690495002,5.15566071912
3560,Lummen,Koekoekstraat,5,51.0133518232,5.20461268779
3560,Lummen,Larenstraat,84,51.0030310858,5.19267839198
3560,Lummen,Gestelstraat,31,51.0279803087,5.2087567396
3560,Lummen,Neerstraat,6A,50.9851885235,5.19176157574
3560,Lummen,Laambeekstraat,14,50.9898048945,5.22501337021
3560,Lummen,Hulshoekstraat,53,50.9683514567,5.14760595949
3560,Lummen,6 Septemberstraat,1,50.9983378012,5.19888461895
3560,Lummen,Linkhoutstraat,252,50.9637219854,5.13133592371
3560,Lummen,Larenstraat,1,50.999937994,5.17125058781
3560,Lummen,Geenmeerstraat,24,51.0083661155,5.14831932081
3560,Lummen,Dr. Vanderhoeydonckstraat,29,50.9880146101,5.19458151819
3560,Lummen,St.-Annastraat,18,50.9934247728,5.1499463912
3560,Lummen,Kerkstraat,26,50.9852459205,5.18826897774
3560,Lummen,Watermolenstraat,2,50.9902982262,5.22299037293
3560,Lummen,Rekhovenstraat,63,50.9920920945,5.22737488917
3560,Lummen,Lindekensveld,25,50.9941063818,5.1964852525
3560,Lummen,Boskestraat,14,51.0075415569,5.23024621294
3560,Lummen,Hertenrodestraat,8,51.0055166778,5.13212703704
3560,Lummen,Helvetiastraat,53,51.0068454921,5.22076947515
3560,Lummen,Reustraat,13,50.9996349794,5.1799575698
3560,Lummen,Rekhovenstraat,81,50.9939717498,5.23028768828
3560,Lummen,Populierenstraat,70,50.9787873639,5.16517856044
3560,Lummen,St.-Sebastiaanstraat,47,51.0268101509,5.19663122478
3560,Lummen,Linkhoutstraat,270,50.9632586662,5.12883790194
3560,Lummen,Grote Baan,36,51.0119310632,5.12136321396
3560,Lummen,Kraaibergstraat,38,50.9933479797,5.2136621755
3560,Lummen,Kammestraat,3,50.964428371,5.13197621545
3560,Lummen,Zonnestraat,3,50.9883608888,5.1954772519
3560,Lummen,Donderbosstraat,32,50.9727923194,5.13554350911
3560,Lummen,Priesterse Heidestraat,41,50.9694208804,5.1434300081
3560,Lummen,Mellaerstraat,1,50.9947090201,5.15418376483
3560,Lummen,Geeneindestraat,136,51.0109501428,5.15011068703
3560,Lummen,Oostereindestraat,22,50.9879707206,5.19754742298
3560,Lummen,Populierenstraat,52,50.9798034521,5.16768379425
3560,Lummen,Oostereindestraat,89,50.9913412184,5.20619867437
3560,Lummen,Goeslaerstraat,59,50.9854729886,5.14341543733
3560,Lummen,Schalbroekstraat,90,50.9771278323,5.17356242463
3560,Lummen,Grote Baan,18,51.013682925,5.12549801154
3560,Lummen,Schalbroekstraat,165,50.9725741146,5.16212658528
3560,Lummen,van Willigenstraat,15,50.9824669328,5.1818241387
3560,Lummen,Goerenstraat,5,50.97315506,5.15883994096
3560,Lummen,St.-Lambertusstraat,21,51.00216256,5.18751041764
3560,Lummen,Helderstraat,11,51.0304802335,5.21227324529
3560,Lummen,Pastorijstraat,22,50.999682736,5.1435983125
3560,Lummen,Acaciastraat,54,50.992415205,5.21187219887
3560,Lummen,Geneikenstraat,12,51.0114153075,5.20453250093
3560,Lummen,Pastoor Frederickxstraat,32B,50.9860717325,5.19527575408
3560,Lummen,Mangelbeekstraat,39,50.979012972,5.18178966347
3560,Lummen,Hamelstraat,130,50.9800066615,5.18250854782
3560,Lummen,Zelemsebaan,37,50.9964054426,5.13748504101
3560,Lummen,Geeneindestraat,12,51.0064792685,5.13449274582
3560,Lummen,St.-Lutgardisstraat,37,51.0210006492,5.18882636699
3560,Lummen,Dr. Vanderhoeydonckstraat,40,50.9870191178,5.19719658762
3560,Lummen,Driessenbosstraat,1,51.0255424804,5.19695759965
3560,Lummen,St.-Sebastiaanstraat,31,51.0274089306,5.19929895663
3560,Lummen,O. L. Vrouwstraat,72,50.9895094034,5.2078729965
3560,Lummen,Hoogstraat,97,51.0000415944,5.18644399867
3560,Lummen,Prelaat Knaepenstraat,24,50.9889398718,5.18580245515
3560,Lummen,Grote Baan,2,51.0151489761,5.12910146588
3560,Lummen,O. L. Vrouwstraat,54,50.9889076265,5.2056167513
3560,Lummen,Acaciastraat,72,50.993944153,5.21308989162
3560,Lummen,Krekelstraat,16A,50.9921854669,5.18635052225
3560,Lummen,St.-Rochusstraat,10,51.0140386305,5.22834615913
3560,Lummen,6 Septemberstraat,41,51.0032543907,5.20070817702
3560,Lummen,Hamelstraat,112,50.9798609123,5.18213576153
3560,Lummen,Genenbosstraat,65,51.0087711938,5.22998457012
3560,Lummen,Genenbosstraat,29,51.0063510027,5.2241453872
3560,Lummen,Klaverbladstraat,3,50.9948092202,5.22838584137
3560,Lummen,Hoogstraat,79,51.0003224396,5.18859845528
3560,Lummen,Dorpsstraat,4,50.9867980095,5.19244573887
3560,Lummen,Geneikenstraat,30,51.0132404896,5.20725791422
3560,Lummen,Gestelstraat,66,51.0313403408,5.21127185608
3560,Lummen,Hamelstraat,79,50.979964768,5.18397445527
3560,Lummen,Helvetiastraat,5,51.0088819981,5.22777751664
3560,Lummen,Dorpsstraat,38,50.9876940101,5.19453427446
3560,Lummen,Zandstraat,8,51.0006974178,5.13766551311
3560,Lummen,Charles Wellensstraat,16,50.9813716102,5.18098185016
3560,Lummen,Meldertsebaan,77,51.0030091827,5.13627503855
3560,Lummen,Demerstraat,37,50.9634148315,5.13752490396
3560,Lummen,Rekhovenstraat,45,50.9912128922,5.22510834534
3560,Lummen,Waterheikensstraat,7,51.0031824279,5.13407991447
3560,Lummen,Hulshoekstraat,17,50.9676292932,5.14197513957
3560,Lummen,Linkhoutstraat,187,50.9655719976,5.13991111296
3560,Lummen,Kerkhofstraat,12,50.9669887466,5.13640093032
3560,Lummen,Groenstraat,48,50.9900041775,5.18894935406
3560,Lummen,Infanteriestraat,7,50.9891900845,5.19338031029
3560,Lummen,Geeneindestraat,50,51.009077933,5.13818878997
3560,Lummen,Meerlestraat,9,50.9882246369,5.188167999
3560,Lummen,Rekhovenstraat,27,50.9911779379,5.22298106837
3560,Lummen,Heesstraat,62,50.9979181438,5.12936905382
3560,Lummen,Schalbroekstraat,112,50.9766251219,5.1711841868
3560,Lummen,Helvetiastraat,17,51.008186075,5.22532955001
3560,Lummen,Hamelstraat,62,50.979731661,5.18010410502
3560,Lummen,Bremstraat,5,51.0066224353,5.21377127933
3560,Lummen,O. L. Vrouwstraat,2,50.9877058796,5.19903838696
3560,Lummen,Geneikenstraat,9,51.0120961726,5.20459710162
3560,Lummen,Populierenstraat,24,50.980869948,5.17411661965
3560,Lummen,Stokrooiestraat,53,50.9713280643,5.23610776634
3560,Lummen,Roosterstraat,4,51.0040070993,5.21124948455
3560,Lummen,Hoogstraat,62,51.0014660837,5.1926006958
3560,Lummen,Hulshoekstraat,103,50.9707501231,5.15455283615
3560,Lummen,Thiewinkelstraat,22,50.9764823062,5.21500643917
3560,Lummen,Nachtegaalstraat,17,50.9993149461,5.13766004222
3560,Lummen,St.-Lutgardisstraat,19,51.0241799603,5.19283159824
3560,Lummen,St.-Annastraat,89,50.9887495187,5.14323933677
3560,Lummen,Bergstraat,23,50.9980923077,5.19332585456
3560,Lummen,Morgenstraat,14,51.0177615446,5.23517876374
3560,Lummen,Hamelstraat,44,50.9799372207,5.17931446795
3560,Lummen,Vreebosstraat,3,50.9938032582,5.19581993203
3560,Lummen,Kriekelse Hoekstraat,29,50.9732720478,5.15666641775
3560,Lummen,Prelaat Knaepenstraat,3,50.9888810317,5.18846905208
3560,Lummen,Mierenbergstraat,4,50.9807520276,5.13884169008
3560,Lummen,Edbroekenstraat,2,51.0098972421,5.23049975752
3560,Lummen,Ijzerstraat,3,51.0234029861,5.20166453446
3560,Lummen,Dikke Eikstraat,59,50.9911246334,5.15796179351
3560,Lummen,Pastoor Wintersstraat,12,50.9818186957,5.19243449016
3560,Lummen,Heesstraat,44,50.9979539739,5.13203789713
3560,Lummen,Vleugtstraat,17,51.0237832694,5.1248407971
3560,Lummen,Nieuwstraat,82,51.0116003334,5.22293415327
3560,Lummen,Genenbosstraat,111,51.0121009384,5.23057767047
3560,Lummen,Spoorwegstraat,11,50.9724189638,5.15314078196
3560,Lummen,Rietstraat,1,51.0299961245,5.21282747951
3560,Lummen,Nieuwstraat,46,51.0112325727,5.22597255705
3560,Lummen,Heidestraat,16,50.9642730921,5.12528191735
3560,Lummen,Opworpstraat,11,50.9769924717,5.2194020639
3560,Lummen,Vinnehoekstraat,14,50.9657776808,5.11669193678
3560,Lummen,Processieweg,21,51.0029594803,5.13996887443
3560,Lummen,Nachtegaalstraat,35,50.9985641347,5.13594031202
3560,Lummen,Linkhoutstraat,116,50.96644453,5.14823467936
3560,Lummen,Schalbroekstraat,26,50.9826885594,5.17949040607
3560,Lummen,Zelemsebaan,19,50.9974837373,5.13991541636
3560,Lummen,Thiewinkelstraat,75,50.9698509329,5.22961939459
3560,Lummen,Industriestraat,14,51.0067592991,5.23916653649
3560,Lummen,Mangelbeekstraat,57,50.979369988,5.18338124293
3560,Lummen,Oudstrijdersstraat,5,50.9880141657,5.19129877733
3560,Lummen,Berkenstraat,6,50.9930618143,5.20544557058
3560,Lummen,Klaverbladstraat,15,50.9967585859,5.22873732139
3560,Lummen,Rekhovenstraat,98,50.9945868172,5.23233505993
3560,Lummen,Molemstraat,86,50.9989928474,5.21401636034
3560,Lummen,Nieuwstraat,64,51.0105192123,5.22595208133
3560,Lummen,Zelemsebaan,116,50.9929217427,5.12775446884
3560,Lummen,Eggelstraat,8,50.976911041,5.1671387726
3560,Lummen,Zandstraat,20,51.001416364,5.13621330296
3560,Lummen,Molemstraat,110,51.0004014799,5.21483577174
3560,Lummen,Genenbosstraat,146,51.0161912191,5.23814069233
3560,Lummen,Nieuwstraat,11,51.0110087624,5.22747141506
3560,Lummen,Huisveldenstraat,6,51.0111296401,5.22876768749
3560,Lummen,Hulshoekstraat,35,50.9684976834,5.14473123513
3560,Lummen,Waterstraat,20,50.9986521556,5.21041771863
3560,Lummen,Linkhoutstraat,134,50.9662163031,5.14626441996
3560,Lummen,Molemstraat,33,50.9944809884,5.20907919766
3560,Lummen,Geeneindestraat,118,51.0103814665,5.14757613895
3560,Lummen,Vinnehoekstraat,32,50.9692752523,5.11685200307
3560,Lummen,Industriestraat,10A,51.0141333411,5.23578538213
3560,Lummen,Nieuwstraat,36,51.0109127407,5.22494553966
3560,Lummen,Zandstraat,27,51.001751608,5.13434844232
3560,Lummen,Schalbroekstraat,87,50.9778449192,5.17703632491
3560,Lummen,Oostereindestraat,82,50.9894027953,5.20313598458
3560,Lummen,Genenbosstraat,126,51.0133505647,5.23065497823
3560,Lummen,Geneikenstraat,101,51.0191648652,5.22191664058
3560,Lummen,Sparrenweg,21,51.0023261343,5.1416983158
3560,Lummen,Opworpstraat,36,50.976850141,5.22223203916
3560,Lummen,Meldertsebaan,146,51.0118391395,5.12576858846
3560,Lummen,Heuvelweg,5,51.0133886933,5.12952517836
3560,Lummen,Linkhoutstraat,37,50.9696913071,5.15699685945
3560,Lummen,Thiewinkelstraat,40,50.9737485458,5.22168001504
3560,Lummen,Klaverbladstraat,23,50.9970312627,5.2305761984
3560,Lummen,Molemstraat,109,50.9996698975,5.213373241
3560,Lummen,Populierenstraat,49,50.9782608066,5.16174047089
3560,Lummen,Goeslaerstraat,42,50.9854040102,5.14433291373
3560,Lummen,Stokrooiestraat,25,50.9714559006,5.23415680996
3560,Lummen,Infanteriestraat,28,50.9883832537,5.19144413169
3560,Lummen,Kwade Plasstraat,2,50.9976654697,5.13703789945
3560,Lummen,Demerstraat,8,50.9628749981,5.13347621679
3560,Lummen,Watermolenstraat,11,50.9890709676,5.22422396764
3560,Lummen,Schuttersstraat,25,50.999419514,5.2127126704
3560,Lummen,Rekhovenstraat,47,50.9913093897,5.22539926547
3560,Lummen,Oostereindestraat,100,50.990654163,5.20618225506
3560,Lummen,Dellestraat,30,50.982940545,5.24199227529
3560,Lummen,Nieuwstraat,18,51.0120365743,5.22642106577
3560,Lummen,Charles Wellensstraat,7,50.9811493516,5.18233828774
3560,Lummen,Voortstraat,42,51.0162290382,5.20410712661
3560,Lummen,Mellaerstraat,21,50.9982239827,5.16729726407
3560,Lummen,Opworpstraat,18,50.9765851348,5.21954019463
3560,Lummen,Watermolenstraat,9,50.9893546745,5.22395339677
3560,Lummen,St.-Lambertusstraat,41,51.0030927699,5.18979761404
3560,Lummen,Kruisstraat,16,50.9890874957,5.1527090045
3560,Lummen,Dellestraat,12,50.9902418459,5.23325996524
3560,Lummen,Linkhoutstraat,259,50.9632249105,5.13210266339
3560,Lummen,Violetstraat,5,51.0156917997,5.12198548816
3560,Lummen,Genenbosstraat,108,51.0121428965,5.23148819169
3560,Lummen,Kammestraat,14,50.9655041007,5.1332718563
3560,Lummen,Schalbroekstraat,69,50.9792834217,5.17748466015
3560,Lummen,Goerenstraat,25,50.9735720773,5.15459263493
3560,Lummen,Zelemsebaan,10,50.9984497496,5.1410260002
3560,Lummen,Meldertsebaan,42,51.0009463831,5.13956699795
3560,Lummen,St.-Sebastiaanstraat,38,51.0262185857,5.19521938175
3560,Lummen,Schippersstraat,4,51.0105739198,5.23151398973
3560,Lummen,Demerstraat,45,50.96358612,5.14015245569
3560,Lummen,Boogbosstraat,5,50.9682681134,5.15123299995
3560,Lummen,Oostereindestraat,29,50.9888607883,5.19898708002
3560,Lummen,Linkhoutstraat,342,50.9619677225,5.12026344389
3560,Lummen,Blanklaarstraat,20,51.0143026804,5.1228924274
3560,Lummen,Pastorijstraat,47,51.0015752574,5.1462076448
3560,Lummen,Krekelstraat,3A,50.9916837551,5.18667336434
3560,Lummen,Hoogstraat,34,51.0023339364,5.19623737023
3560,Lummen,Demerstraat,10,50.9628623998,5.13375431059
3560,Lummen,Bovenstraat,5,50.981869541,5.17722826442
3560,Lummen,Bergstraat,15,51.0018352381,5.19188913261
3560,Lummen,Dorpsstraat,31,50.9874178058,5.1945529041
3560,Lummen,Hamelstraat,34,50.979580685,5.17939331244
3560,Lummen,Geeneindestraat,39,51.0087454474,5.13656019535
3560,Lummen,Linkhoutstraat,295,50.962797213,5.12679491859
3560,Lummen,Linkhoutstraat,81,50.9674144643,5.15266063168
3560,Lummen,Gestelstraat,55,51.0308791023,5.21018920913
3560,Lummen,Heesstraat,34,50.9980200181,5.13352240437
3560,Lummen,Geneikenstraat,39,51.0145814248,5.20784443322
3560,Lummen,Geeneindestraat,65,51.0098791391,5.14025176279
3560,Lummen,Rekhovenstraat,106,50.9948969429,5.23352398721
3560,Lummen,Oostereindestraat,46,50.9882228957,5.20001508889
3560,Lummen,St.-Janstraat,21,50.9764517854,5.22319962172
3560,Lummen,Rekhovenstraat,20,50.9906769928,5.22161206391
3560,Lummen,Hoogstraat,16,51.0030958679,5.19891984685
3560,Lummen,Drie Lindenstraat,15,50.9673574381,5.13649338883
3560,Lummen,Hamelstraat,80,50.9797433352,5.18109487564
3560,Lummen,Dr. Vanderhoeydonckstraat,22,50.9888649627,5.1948987587
3560,Lummen,Geeneindestraat,83,51.0102769023,5.14318207174
3560,Lummen,Oostereindestraat,64,50.9890866664,5.20133027364
3560,Lummen,Hamelstraat,16,50.9794664562,5.17831960264
3560,Lummen,Hoogstraat,80,51.0009032552,5.18907606978
3560,Lummen,Populierenstraat,14,50.9807322851,5.1754711134
3560,Lummen,Geneikenstraat,83,51.0184845078,5.21857930457
3560,Lummen,Edbroekenstraat,11,51.0093418535,5.23170202981
3560,Lummen,Mangelbeekstraat,30,50.9779049994,5.17876850941
3560,Lummen,Heesstraat,16,50.9979773098,5.13679157666
3560,Lummen,Kraaibergstraat,31,50.9947091284,5.21324670846
3560,Lummen,Broedersveld,78,50.9941271161,5.19265075246
3560,Lummen,St.-Rochusstraat,37,51.0140588891,5.22479218418
3560,Lummen,Linkhoutstraat,277,50.9628321167,5.12862784415
3560,Lummen,Grote Baan,9,51.0143859649,5.12898717377
3560,Lummen,Ringlaan,41,50.9873251975,5.19781131111
3560,Lummen,Zelemsebaan,81,50.9946022469,5.13295888226
3560,Lummen,Pastorijstraat,19,50.9998515041,5.14310205043
3560,Lummen,Oosterhovenstraat,10,50.9873645501,5.20089301988
3560,Lummen,Dikke Eikstraat,3,50.9868785351,5.17304309647
3560,Lummen,O. L. Vrouwstraat,28,50.9880197049,5.20235403561
3560,Lummen,Priesterse Heidestraat,74,50.9704772431,5.14841967733
3560,Lummen,Havenstraat,15,51.0131797529,5.24900769575
3560,Lummen,Kanadastraat,13,50.9852888807,5.2032059577
3560,Lummen,Molemstraat,51,50.9953428829,5.20982602119
3560,Lummen,Sacramentstraat,16,51.012954446,5.20905806075
3560,Lummen,Ashoekstraat,11,51.0035172071,5.1819665301
3560,Lummen,Geeneindestraat,2,51.005859541,5.13357926222
3560,Lummen,Beukeboomstraat,3,50.9848075073,5.17887908076
3560,Lummen,Dikke Eikstraat,42,50.9906535867,5.16150040729
3560,Lummen,Veldstraat,12,51.0136746303,5.21742998518
3560,Lummen,St.-Ferdinandstraat,30,51.0016142264,5.18380511678
3560,Lummen,Schoolstraat,16,51.0004771097,5.14320813762
3560,Lummen,Jantenstraat,12,51.0060148034,5.2284823507
3560,Lummen,St.-Rochusstraat,19,51.0127335831,5.22647716119
3560,Lummen,Edbroekenstraat,9,51.0094891496,5.23153659984
3560,Lummen,St.-Ferdinandstraat,12,50.9995905747,5.18533301145
3560,Lummen,Sint-Trudostraat,3,50.9656934824,5.13618566582
3560,Lummen,Prelaat Knaepenstraat,32,50.9882366273,5.1866400684
3560,Lummen,Oudestraat,5,51.0156239669,5.20482542964
3560,Lummen,Nieuwstraat,89,51.0086889089,5.22586669224
3560,Lummen,Vijverstraat,6,50.9837974266,5.22538190791
3560,Lummen,St.-Jakobusstraat,1,50.9931087569,5.23040755996
3560,Lummen,Zwaluwstraat,24,51.0019543571,5.19788861549
3560,Lummen,Priesterse Heidestraat,56,50.9698939088,5.14634340482
3560,Lummen,Linkhoutstraat,152,50.9661638707,5.14351921991
3560,Lummen,Prelaat Knaepenstraat,14,50.9886789808,5.18703165
3560,Lummen,Kapelstraat,51,50.9741030816,5.14290828891
3560,Lummen,Meerlestraat,2,50.9867325586,5.18830567846
3560,Lummen,Baanhuisstraat,3,51.0147193176,5.11824234248
3560,Lummen,Schulensebaan,6,50.9834935572,5.1912035638
3560,Lummen,Veldstraat,30,51.0117463683,5.21955507866
3560,Lummen,Hoogveldstraat,14,51.0012536082,5.18744721893
3560,Lummen,Kerkevennestraat,35,50.9652310511,5.13174215677
3560,Lummen,Helderstraat,18,51.0302198869,5.21307643334
3560,Lummen,Zelemsebaan,63,50.9952700269,5.13465270091
3560,Lummen,Sacramentstraat,34,51.0140256568,5.20969863782
3560,Lummen,Linkhoutstraat,314,50.9627210583,5.12355802385
3560,Lummen,O. L. Vrouwstraat,9,50.9881108625,5.19980201765
3560,Lummen,6 Septemberstraat,92,51.0102993888,5.20389213542
3560,Lummen,Schalbroekstraat,129,50.9759729406,5.17103631537
3560,Lummen,Boogbosstraat,25,50.970032175,5.15012304393
3560,Lummen,Europaweg,8,51.024540119,5.22442960386
3560,Lummen,Bovenstraat,25,50.9818145711,5.17427584587
3560,Lummen,Geneikenstraat,2,51.0107432959,5.20360109248
3560,Lummen,Huisveldenstraat,15,51.0124548884,5.22810473717
3560,Lummen,van Willigenstraat,23,50.9826638265,5.18278229937
3560,Lummen,Groenlarenstraat,72,51.005770482,5.1960095944
3560,Lummen,Europaweg,10,51.0244445254,5.22285091626
3560,Lummen,Kambergenstraat,17,50.9641559187,5.12735088422
3560,Lummen,Larenstraat,74,51.0032033751,5.1900761008
3560,Lummen,Zelemsebaan,45,50.995892863,5.13635594547
3560,Lummen,Larenstraat,21,51.0016530973,5.17910508904
3560,Lummen,Thiewinkelstraat,125,50.9665558855,5.23374668068
3560,Lummen,Kammestraat,60,50.9703465737,5.12723715805
3560,Lummen,St.-Lutgardisstraat,45,51.0204099439,5.18819430381
3560,Lummen,Drie Lindenstraat,4,50.9672576358,5.13460910452
3560,Lummen,Thiewinkelstraat,29,50.9746983557,5.21959107199
3560,Lummen,Schalbroekstraat,140,50.9726765993,5.16140700882
3560,Lummen,Gyzevennestraat,54,51.0026571372,5.13065210271
3560,Lummen,Huzarenstraat,3,50.9881013109,5.19388456782
3560,Lummen,Kraaibergstraat,41,50.9920170174,5.21632719477
3560,Lummen,Geerstraat,11,50.9756724367,5.22272091686
3560,Lummen,Groenlarenstraat,54,51.0071801796,5.19756241607
3560,Lummen,Larenstraat,56,51.0029794487,5.18741998682
3560,Lummen,Ketelstraat,6,50.9860666568,5.19033239997
3560,Lummen,Vandermarckestraat,17,50.9884574904,5.18893835563
3560,Lummen,6 Septemberstraat,56,51.0074246264,5.20317812184
3560,Lummen,Priesterse Heidestraat,92,50.971262798,5.15137528982
3560,Lummen,Haspengouwstraat,7,50.9896124675,5.15407248734
3560,Lummen,Voortstraat,3,51.0111887773,5.20292332451
3560,Lummen,Kammestraat,42,50.9678063967,5.13016481673
3560,Lummen,Reustraat,1,51.0000655525,5.18396492588
3560,Lummen,Stokrooiestraat,5,50.9706964937,5.23045588839
3560,Lummen,Gestelstraat,1,51.025207941,5.2060550814
3560,Lummen,Heidestraat,7,50.9634967519,5.12426108355
3560,Lummen,Tuinstraat,20,51.0146185823,5.20596067019
3560,Lummen,Toekomststraat,12,51.0210945323,5.22589239487
3560,Lummen,6 Septemberstraat,21,51.0009991786,5.19966254323
3560,Lummen,Windmolenstraat,6,50.9891073583,5.18791937535
3560,Lummen,Groenstraat,28,50.9907777541,5.19175099899
3560,Lummen,Molemstraat,127,51.000471925,5.21437815356
3560,Lummen,Meldertsebaan,3,50.9975371561,5.14318058273
3560,Lummen,Claeshoekstraat,1,50.9815385578,5.20962495161
3560,Lummen,Rekhovenstraat,91,50.9944632441,5.23109331684
3560,Lummen,Kerkstraat,12A,50.9853220292,5.18976801961
3560,Lummen,Langeheidestraat,3B,51.0149367364,5.13837391111
3560,Lummen,Genenbosstraat,39,51.0067613901,5.22514460337
3560,Lummen,Zandstraat,10,51.000737394,5.1374222649
3560,Lummen,Pastorijstraat,9A,50.999319375,5.1426705582
3560,Lummen,Priesterse Heidestraat,38,50.969051384,5.14337862298
3560,Lummen,Hamelstraat,104,50.9794597029,5.18205773365
3560,Lummen,Linkhoutstraat,124,50.9663845394,5.14733081093
3560,Lummen,Pastorijstraat,50B,51.0015114594,5.14703220083
3560,Lummen,Violetstraat,24,51.0159475155,5.12546380617
3560,Lummen,Hamelstraat,122,50.9794018347,5.18252153496
3560,Lummen,Molemstraat,120,51.0009458923,5.21536064088
3560,Lummen,Populierenstraat,60,50.9790956838,5.16632231263
3560,Lummen,Blanklaarstraat,1,51.0135997842,5.12091422301
3560,Lummen,Linkhoutstraat,106,50.9665432762,5.14928483439
3560,Lummen,Kruisstraat,6,50.9886215902,5.16012315942
3560,Lummen,Meeuwenstraat,3,50.976473275,5.17589798581
3560,Lummen,Rekhovenstraat,73,50.9934865933,5.22937692439
3560,Lummen,Kapelstraat,15,50.9693842955,5.1361973028
3560,Lummen,Dr. Vanderhoeydonckstraat,3,50.9908461262,5.19389804256
3560,Lummen,Geenmeerstraat,14,51.0047631236,5.14869444505
3560,Lummen,O. L. Vrouwstraat,64,50.9876907484,5.20699636751
3560,Lummen,Langeheidestraat,6,51.0174371951,5.15642955884
3560,Lummen,Thiewinkelstraat,9,50.9793747213,5.21035451484
3560,Lummen,Dr. Vanderhoeydonckstraat,39,50.9870848597,5.19555855236
3560,Lummen,Hertenrodestraat,10,51.0054197573,5.13189363811
3560,Lummen,Kriekelse Hoekstraat,9,50.972157534,5.15872415922
3560,Lummen,Schalbroekstraat,175,50.9719596392,5.161065264
3560,Lummen,St.-Janstraat,38,50.9758045432,5.22390120734
3560,Lummen,Schalbroekstraat,80,50.9776557721,5.17527059489
3560,Lummen,Linkhoutstraat,349,50.9613117483,5.11977121639
3560,Lummen,Zelemsebaan,27,50.9971997288,5.13894601825
3560,Lummen,Klaverbladstraat,3A,50.9949071372,5.22829718221
3560,Lummen,Hereheidestraat,13,51.0092831412,5.14278089373
3560,Lummen,Oostereindestraat,48,50.9888472915,5.20010807288
3560,Lummen,Geeneindestraat,22,51.0072847539,5.1355516418
3560,Lummen,O. L. Vrouwstraat,46,50.9886307321,5.20465821746
3560,Lummen,Infanteriestraat,11,50.989213637,5.1931368782
3560,Lummen,Goeslaerstraat,49,50.9823520891,5.14658175158
3560,Lummen,Acaciastraat,64,50.9933985231,5.21268305172
3560,Lummen,Waterheikensstraat,11,51.0030840021,5.1333875869
3560,Lummen,Hoogstraat,87,51.000280398,5.18770416303
3560,Lummen,St.-Sebastiaanstraat,21,51.0276394512,5.20084701848
3560,Lummen,Veldstraat,2,51.0164532228,5.21437435584
3560,Lummen,Prelaat Knaepenstraat,42,50.9880138989,5.18782262109
3560,Lummen,Jantenstraat,2,51.0071873459,5.22740942744
3560,Lummen,Nieuwstraat,7,51.0112712438,5.22719051509
3560,Lummen,Oostereindestraat,12,50.9877974459,5.19671171192
3560,Lummen,Blanklaarstraat,37,51.0152997137,5.12084207506
3560,Lummen,Linkhoutstraat,98,50.9668675548,5.15007965244
3560,Lummen,Opworpstraat,7,50.9769873149,5.21887239453
3560,Lummen,Oude Vinnestraat,9,50.9638164994,5.12801403126
3560,Lummen,Toekomststraat,9A,51.021825947,5.22414863655
3560,Lummen,Goeslaerstraat,14,50.9799417864,5.15359873233
3560,Lummen,Meldertsebaan,32,51.000115249,5.14050598143
3560,Lummen,Mangelbeekstraat,29,50.9788375769,5.18063330355
3560,Lummen,Linkhoutstraat,260,50.9633170274,5.12980699812
3560,Lummen,Meldertsebaan,136,51.0110781703,5.12695540808
3560,Lummen,Goerenstraat,43,50.9739400573,5.14951745606
3560,Lummen,Pastorijstraat,12,50.9988984797,5.14343531798
3560,Lummen,St.-Lutgardisstraat,27,51.0223069301,5.19274900709
3560,Lummen,Molemstraat,4,50.9917673519,5.20719185238
3560,Lummen,Broedersveld,71,50.9941289134,5.19315092204
3560,Lummen,Dwarsstraat,18,51.009013869,5.20133151531
3560,Lummen,Hamelstraat,69,50.9804350934,5.18326362937
3560,Lummen,Klaproosstraat,5,50.9858804969,5.20188754208
3560,Lummen,Meldertsebaan,67,51.0023465139,5.13666779739
3560,Lummen,St.-Lutgardisstraat,47,51.0202765211,5.1880806526
3560,Lummen,St.-Ferdinandstraat,2,50.9988598703,5.18612589407
3560,Lummen,Pastorijstraat,30,51.000162807,5.14416686373
3560,Lummen,Oostereindestraat,30,50.9880737111,5.19815087263
3560,Lummen,Kerkstraat,16,50.9855064805,5.18884337054
3560,Lummen,Kanaalstraat,9,51.0232551093,5.22666804195
3560,Lummen,Kabouterstraat,3,50.9927491621,5.21636138813
3560,Lummen,Demerstraat,48A,50.9634849529,5.14265865264
3560,Lummen,Rekhovenstraat,55,50.9917876841,5.22620740348
3560,Lummen,Meldertsebaan,14,50.9986811453,5.14233804302
3560,Lummen,Loyestraat,4,50.9756056637,5.19998822774
3560,Lummen,Goeslaerstraat,32,50.9820379989,5.1483848715
3560,Lummen,Hoogstraat,69,51.0005977254,5.18974174203
3560,Lummen,Rekhovenstraat,19,50.9911583057,5.22164874937
3560,Lummen,Pastoor Wintersstraat,3,50.9817680463,5.19134885263
3560,Lummen,Genenbosstraat,75,51.0087795178,5.2281586601
3560,Lummen,St.-Lambertusstraat,13,51.0017633615,5.18590361772
3560,Lummen,Thiewinkelstraat,35A,50.9744917624,5.22115517308
3560,Lummen,St.-Edmondstraat,9,50.9893275245,5.19131643711
3560,Lummen,Stokrooiestraat,43,50.9708233202,5.23515288155
3560,Lummen,Voortstraat,14,51.0131498078,5.20384338979
3560,Lummen,Hamelstraat,140,50.9795586449,5.18291957428
3560,Lummen,Steenstraat,5,50.9915395823,5.20888752584
3560,Lummen,St.-Rochusstraat,20,51.013433501,5.22725568624
3560,Lummen,Linkhoutstraat,159,50.9657705012,5.14336636605
3560,Lummen,Huzarenstraat,14,50.9880781177,5.1919999464
3560,Lummen,Mangelbeekstraat,2,50.9770500473,5.17548002419
3560,Lummen,Schurfertstraat,5,50.9884151729,5.141344039
3560,Lummen,Korte Goerenstraat,3,50.9725803294,5.15311372639
3560,Lummen,Genenbosstraat,57,51.0076416232,5.226580201
3560,Lummen,Nieuwstraat,54,51.0107718972,5.22690319571
3560,Lummen,Linkhoutstraat,177,50.9657440014,5.14137030318
3560,Lummen,Schalbroekstraat,34,50.982175433,5.17839434744
3560,Lummen,Schalbroekstraat,6,50.9838713954,5.18274561216
3560,Lummen,Opworpstraat,54,50.9769781887,5.22519296356
3560,Lummen,Schuilenbroekstraat,6,51.0132458894,5.16488202924
3560,Lummen,Geneikenstraat,40,51.0141194335,5.20816135744
3560,Lummen,Thiewinkelstraat,100,50.967970036,5.23110989949
3560,Lummen,Gestelstraat,74,51.0322253062,5.21169424794
3560,Lummen,Rekhovenstraat,37,50.9911045946,5.22410429671
3560,Lummen,Processieweg,13,51.0024050682,5.14031520957
3560,Lummen,Dikke Eikstraat,49,50.9903336098,5.16103904974
3560,Lummen,Eggelstraat,10,50.9770732184,5.16693976145
3560,Lummen,Schalbroekstraat,16,50.9834462879,5.1811454403
3560,Lummen,Linkhoutstraat,195,50.9655762796,5.13871008358
3560,Lummen,Gemeenteplein,12,50.9865577721,5.19195000134
3560,Lummen,Helderstraat,7,51.0305657174,5.21189800024
3560,Lummen,Pater Jacobsstraat,18,50.9897998811,5.18980651381
3560,Lummen,Larenstraat,117,51.0041245929,5.19249774202
3560,Lummen,Mangelbeekstraat,12,50.9773600476,5.17660019446
3560,Lummen,Baandonkstraat,2,50.9933923097,5.21658242886
3560,Lummen,Bosstraat,24,50.9967860034,5.20865573395
3560,Lummen,Ashoekstraat,9,51.0032853087,5.18222152345
3560,Lummen,Voortstraat,32,51.0147667936,5.20366303739
3560,Lummen,Kapelstraat,4A,50.9686307177,5.13649603504
3560,Lummen,Thiewinkelstraat,48,50.9715194124,5.22599542456
3560,Lummen,Kriekelse Hoekstraat,19,50.9718754306,5.15694491296
3560,Lummen,Hulshoekstraat,96,50.9699856857,5.15379297178
3560,Lummen,Heidestraat,26,50.9663370591,5.11875801241
3560,Lummen,Broedersveld,6,50.9925431204,5.19434431453
3560,Lummen,St.-Rochusstraat,1,51.0138275577,5.22974657137
3560,Lummen,Gyzevennestraat,36,51.0013646473,5.13236563178
3560,Lummen,Muggenhoekstraat,5,50.9776292763,5.20221851048
3560,Lummen,Europaweg,27,51.028874384,5.22139447419
3560,Lummen,Grote Baan,28,51.0125944219,5.12239848344
3560,Lummen,Kammestraat,49,50.9674584204,5.12959382283
3560,Lummen,Kwezelstraat,5,50.993872623,5.17353518202
3560,Lummen,Processieweg,31,51.0036948238,5.14244598328
3560,Lummen,Beukeboomstraat,32,50.9849365418,5.18251788241
3560,Lummen,Thiewinkelstraat,65,50.9704614007,5.22866571964
3560,Lummen,Schalbroekstraat,104,50.9768634958,5.17220198775
3560,Lummen,Dikke Eikstraat,32,50.9903940243,5.16278364169
3560,Lummen,Groenstraat,46,50.9900946965,5.18943978187
3560,Lummen,Oosterhovenstraat,35,50.9865042362,5.20289676046
3560,Lummen,Thiewinkelstraat,83,50.9693372253,5.23018785151
3560,Lummen,6 Septemberstraat,38,51.0019636548,5.20068295712
3560,Lummen,Kerkstraat,6,50.9856790641,5.19114894765
3560,Lummen,Dikke Eikstraat,14,50.9895278952,5.16591461412
3560,Lummen,Bosstraat,59,50.9947789451,5.20502710979
3560,Lummen,Genenbosstraat,101,51.0113979335,5.23071435232
3560,Lummen,Thiewinkelstraat,12,50.9790093064,5.21077871828
3560,Lummen,Geeneindestraat,131A,51.0113177182,5.15032829456
3560,Lummen,Nachtegaalstraat,25,50.9990293691,5.13674900413
3560,Lummen,Bosheidestraat,32,51.0098693109,5.21791572461
3560,Lummen,Helvetiastraat,78,51.0073217472,5.22034996344
3560,Lummen,Hegstraat,6,51.0367356436,5.20527036989
3560,Lummen,Geeneindestraat,40,51.0085768937,5.13720690696
3560,Lummen,Boogbosstraat,43,50.9718623232,5.14925301962
3560,Lummen,St.-Annastraat,28,50.9930272293,5.14867727113
3560,Lummen,Sportweg,9,50.992687911,5.18934193921
3560,Lummen,Acaciastraat,46,50.9919570526,5.21102467655
3560,Lummen,Geeneindestraat,108,51.0102293691,5.14614878157
3560,Lummen,Bosheidestraat,14,51.0084500913,5.21898873903
3560,Lummen,Molemstraat,58,50.9959543841,5.21097806988
3560,Lummen,Groenstraat,11,50.9906203865,5.19260485608
3560,Lummen,Gildestraat,5,50.9783223765,5.17533333879
3560,Lummen,Helvetiastraat,25,51.0079649268,5.22424313636
3560,Lummen,Kievitstraat,7,50.9792555243,5.21403608152
3560,Lummen,Kapelstraat,33,50.9728959293,5.13742081906
3560,Lummen,Dikke Eikstraat,67,50.9918928481,5.15688236069
3560,Lummen,Thiewinkelstraat,30,50.9746284021,5.21981634404
3560,Lummen,Hoefstraat,12,51.003701216,5.19563050619
3560,Lummen,Gorenbroekstraat,5,50.9701915655,5.12000784961
3560,Lummen,St.-Edmondstraat,12,50.9893563654,5.1910360633
3560,Lummen,Oosterhovenstraat,17,50.9873134367,5.20157306134
3560,Lummen,Zandstraat,45,51.0025438093,5.13192254352
3560,Lummen,Zelemsebaan,106,50.9935876563,5.12944256564
3560,Lummen,Geenrodestraat,11,51.0060967585,5.16279228335
3560,Lummen,Hulshoekstraat,25,50.9679635402,5.14322908488
3560,Lummen,Gemeenteplein,6C,50.9857300137,5.19220491433
3560,Lummen,Geneikenstraat,82,51.0184875796,5.22042903068
3560,Lummen,St.-Lambertusstraat,3,51.0011130821,5.18450104708
3560,Lummen,Mellaerstraat,20,50.9978084672,5.16520570883
3560,Lummen,Heidestraat,14,50.964114143,5.12532561617
3560,Lummen,Linkhoutstraat,164,50.9661695459,5.14224872502
3560,Lummen,Linkhoutstraat,308,50.9627634836,5.12423018261
3560,Lummen,Geeneindestraat,73,51.0099353354,5.14160525988
3560,Lummen,Vinnehoekstraat,16,50.9670123414,5.11684376586
3560,Lummen,Linkhoutstraat,219A,50.9647681728,5.13676371481
3560,Lummen,Gestelstraat,4,51.0257660914,5.20832726598
3560,Lummen,Goerenstraat,15,50.9733435251,5.15795093583
3560,Lummen,Ringlaan,18,50.9846686315,5.19473713676
3560,Lummen,Zelemsebaan,84,50.9945533871,5.13210823445
3560,Lummen,Dellestraat,20,50.9871749259,5.23867944097
3560,Lummen,Huisveldenstraat,1,51.0103945664,5.23027678334
3560,Lummen,Opworpstraat,50,50.9768968823,5.22488987954
3560,Lummen,Nachtegaalstraat,33,50.9987710722,5.13589939797
3560,Lummen,Schalbroekstraat,68,50.9791661384,5.17682658392
3560,Lummen,Processieweg,27,51.0035231034,5.14194333762
3560,Lummen,Kievitstraat,1B,50.9782348038,5.21184960415
3560,Lummen,Wetsdreef,3,50.9907124764,5.18641994923
3560,Lummen,Voortstraat,17,51.0127642323,5.20321162175
3560,Lummen,Klaverbladstraat,13,50.9966249643,5.22822572474
3560,Lummen,Berkenstraat,8,50.992310191,5.2048890013
3560,Lummen,Eggelstraat,6,50.9767863412,5.16743169055
3560,Lummen,Muggenhoekstraat,8,50.9776683091,5.20315348527
3560,Lummen,Gyzevennestraat,31,51.0004825541,5.13214979338
3560,Lummen,Linkhoutstraat,289,50.9628991229,5.12730135013
3560,Lummen,Linkhoutstraat,40,50.9696568712,5.15612623397
3560,Lummen,Huzarenstraat,17,50.9876554173,5.19193653994
3560,Lummen,Charles Wellensstraat,10,50.981522804,5.18171176194
3560,Lummen,Vandermarckestraat,30A,50.9910904074,5.18831672167
3560,Lummen,Helvetiastraat,33,51.0076154972,5.22352629173
3560,Lummen,Infanteriestraat,29,50.9886822841,5.19127234241
3560,Lummen,Schuttersstraat,24,51.0007729071,5.21278821707
3560,Lummen,Ruitersstraat,9,50.9940177257,5.14978435126
3560,Lummen,St.-Janstraat,20,50.9737292731,5.22487412841
3560,Lummen,Rekhovenstraat,21,50.991149245,5.22198061296
3560,Lummen,Waterheikensstraat,5,51.0033248571,5.13444740838
3560,Lummen,Bosheidestraat,26,51.0092705395,5.21807343306
3560,Lummen,Hamelstraat,15,50.9804992014,5.17989567482
3560,Lummen,Zelemsebaan,120,50.9926303647,5.12746599849
3560,Lummen,Spreeuwenstraat,5,51.00477121,5.20506799765
3560,Lummen,Kerkhofstraat,10,50.9668400433,5.13648562065
3560,Lummen,Industriestraat,1,51.0157881409,5.23813819211
3560,Lummen,Infanteriestraat,5,50.9890869339,5.19357804303
3560,Lummen,Borgersstraat,10,51.0110609581,5.12356650366
3560,Lummen,Ashoekstraat,4,51.0047992336,5.18292547475
3560,Lummen,Genenbosstraat,134,51.0140588238,5.23101560498
3560,Lummen,Geneikenstraat,3,51.0114812194,5.2039099473
3560,Lummen,Geneikenstraat,46,51.0151939955,5.20926458811
3560,Lummen,Oosterhovenstraat,7,50.9875660522,5.20164848404
3560,Lummen,Helvetiastraat,86,51.0072670983,5.21821105842
3560,Lummen,Dikke Eikstraat,26,50.99008265,5.16353782949
3560,Lummen,Voortstraat,35,51.0145953184,5.20295967743
3560,Lummen,Helderstraat,6,51.030277963,5.21125771262
3560,Lummen,Hoogstraat,24,51.0027403185,5.19808034635
3560,Lummen,6 Septemberstraat,75A,51.0099200328,5.20261172703
3560,Lummen,Schalbroekstraat,86,50.977226747,5.17431925624
3560,Lummen,Oostereindestraat,28,50.9880659738,5.19803707601
3560,Lummen,Hoogstraat,52,51.0017510438,5.19393554513
3560,Lummen,Genenbosstraat,116,51.0127975529,5.23096942332
3560,Lummen,Nieuwstraat,41,51.0099542802,5.22657143191
3560,Lummen,Oostereindestraat,83,50.9908668673,5.20580247057
3560,Lummen,Dikke Eikstraat,2,50.9875430971,5.17295751798
3560,Lummen,Bergstraat,16,51.0016372809,5.19141464027
3560,Lummen,Oudestraat,15,51.0160311343,5.20622408548
3560,Lummen,Schalbroekstraat,7,50.9831317732,5.18210228349
3560,Lummen,Prelaat Knaepenstraat,9,50.9886101759,5.18770771158
3560,Lummen,Linkhoutstraat,326,50.9624485394,5.12229040843
3560,Lummen,Morgenstraat,16,51.0180082081,5.23487533987
3560,Lummen,Schalbroekstraat,33,50.9820876785,5.17932249556
3560,Lummen,St.-Sebastiaanstraat,19,51.028276561,5.20262187259
3560,Lummen,Hamelstraat,61,50.9807614211,5.18295201999
3560,Lummen,Europaweg,22,51.0263594899,5.22136432222
3560,Lummen,St.-Sebastiaanstraat,4,51.030382295,5.20952877627
3560,Lummen,Baandonkstraat,11,50.9974728583,5.2213013657
3560,Lummen,Groenlarenstraat,57,51.0060426447,5.19705012937
3560,Lummen,Klaproosstraat,8,50.986400454,5.201457268
3560,Lummen,Kapelstraat,52,50.9740101297,5.14329005748
3560,Lummen,Pastorijstraat,20,50.9994589416,5.14334572334
3560,Lummen,Linkhoutstraat,372,50.9611310568,5.1165020231
3560,Lummen,Dorpsstraat,10,50.9867975563,5.19277972121
3560,Lummen,Korenheidestraat,1,50.9646166781,5.1351974281
3560,Lummen,Prelaat Knaepenstraat,44,50.9882178015,5.18779442585
3560,Lummen,Gemeenteplein,19,50.9861531179,5.19114502493
3560,Lummen,Zelemsebaan,31,50.9968606892,5.13849953862
3560,Lummen,Thiewinkelstraat,99,50.9684833512,5.23140409251
3560,Lummen,Geneikenstraat,18,51.0118130404,5.20522347526
3560,Lummen,Hereheidestraat,10,51.0084979618,5.14264906984
3560,Lummen,Boskestraat,1,51.0092976953,5.23040507365
3560,Lummen,Demerstraat,38,50.9633344288,5.13801086285
3560,Lummen,Kanaalstraat,4,51.0202772074,5.22905525305
3560,Lummen,St.-Lutgardisstraat,31,51.0215016476,5.19092409777
3560,Lummen,Stokrooiestraat,61,50.9699691807,5.23768761472
3560,Lummen,Klaverbladstraat,7F,50.9983888482,5.22786719067
3560,Lummen,Berkenstraat,5A,50.9930722272,5.20582651462
3560,Lummen,Thiewinkelstraat,108,50.9675451554,5.23159054596
3560,Lummen,Spoorwegstraat,5,50.9722661639,5.15491258283
3560,Lummen,Bovenstraat,24,50.9821925815,5.17499768468
3560,Lummen,Geeneindestraat,27,51.0078579937,5.13544504752
3560,Lummen,Zelemsebaan,13,50.9978320254,5.14049968014
3560,Lummen,Hamelstraat,158,50.9798448441,5.18349502527
3560,Lummen,St.-Rochusstraat,29,51.0134270775,5.22537502916
3560,Lummen,Larenstraat,73,51.0032297231,5.18603692888
3560,Lummen,Goeslaerstraat,35,50.9816324081,5.14812405954
3560,Lummen,Heuvelweg,8,51.0137432654,5.13200458356
3560,Lummen,Zwaluwstraat,16,51.0010319708,5.19849430156
3560,Lummen,Nieuwstraat,6,51.0120015323,5.22712097302
3560,Lummen,Priesterse Heidestraat,64,50.9701380997,5.14737028077
3560,Lummen,Gemeenteplein,4,50.985751865,5.19220401678
3560,Lummen,Veldstraat,11,51.0142022684,5.2144298765
3560,Lummen,Linkhoutstraat,354,50.9615368065,5.11868045021
3560,Lummen,Thiewinkelstraat,47A,50.9719240066,5.22624672958
3560,Lummen,6 Septemberstraat,82,51.0094724489,5.20344661489
3560,Lummen,Schalbroekstraat,141,50.9758793288,5.16943264895
3560,Lummen,Schoolstraat,15,51.0008520561,5.14334598188
3560,Lummen,Blanklaarstraat,19,51.014261957,5.12219134104
3560,Lummen,Kriekelse Hoekstraat,11,50.9722739494,5.15797520141
3560,Lummen,Bosheidestraat,9,51.0079363926,5.21880628029
3560,Lummen,Kraaibergstraat,10,50.9962746451,5.21227533558
3560,Lummen,Meldertsebaan,35,51.0007053673,5.13904658344
3560,Lummen,Dr. Vanderhoeydonckstraat,45,50.9868472736,5.19610626103
3560,Lummen,Genenbosstraat,10,51.0048799511,5.22160568829
3560,Lummen,Boogbosstraat,15,50.9692983431,5.15062362845
3560,Lummen,Linkhoutstraat,75,50.9676218249,5.15350022617
3560,Lummen,Molemstraat,90,50.9994702058,5.21414051917
3560,Lummen,Gestelstraat,37,51.0285649807,5.20913588209
3560,Lummen,Linkhoutstraat,218,50.965422658,5.13510626504
3560,Lummen,St.-Lambertusstraat,36,51.0025514316,5.19027124948
3560,Lummen,6 Septemberstraat,11,51.0000870728,5.19955018802
3560,Lummen,Populierenstraat,47,50.9782446031,5.16256924902
3560,Lummen,Ringlaan,3,50.9848373767,5.18832805334
3560,Lummen,Grote Baan,30,51.0124268104,5.12220939003
3560,Lummen,Linkhoutstraat,12,50.9713572699,5.15907202005
3560,Lummen,Lindekensveld,23,50.9933091433,5.19613256245
3560,Lummen,Geenmeerstraat,9,51.0045141294,5.14800041008
3560,Lummen,Geenrodestraat,1A,51.0028169599,5.14893969857
3560,Lummen,6 Septemberstraat,64,51.0078452628,5.20336658428
3560,Lummen,Dr. Vanderhoeydonckstraat,10,50.99005229,5.19455763487
3560,Lummen,St.-Lambertusstraat,18,51.0015729794,5.1868963115
3560,Lummen,Geneikenstraat,100,51.0195486215,5.22056621234
3560,Lummen,Larenstraat,20,51.0010007906,5.17716219589
3560,Lummen,Krekelstraat,2,50.9915558904,5.18745270392
3560,Lummen,Linkhoutstraat,30,50.9701758812,5.15704601813
3560,Lummen,Nachtegaalstraat,7,50.9996796208,5.13881871367
3560,Lummen,Broedersveld,20,50.9933807584,5.19499966786
3560,Lummen,Thiewinkelstraat,28,50.9751108004,5.21967873078
3560,Lummen,Kruisstraat,7,50.988607852,5.15978693156
3560,Lummen,Larenstraat,55,51.0028930526,5.18421263771
3560,Lummen,6 Septemberstraat,46,51.0041477148,5.20179692555
3560,Lummen,Goeslaerstraat,17,50.9796796354,5.15315630375
3560,Lummen,Geerstraat,12,50.9760773049,5.22161107036
3560,Lummen,Rekhovenstraat,109,50.9954005502,5.23345023886
3560,Lummen,Genenbosstraat,81,51.0092875746,5.22886493566
3560,Lummen,Hulshoekstraat,61,50.9690042738,5.1484212138
3560,Lummen,Haspengouwstraat,6,50.9901684469,5.15527343273
3560,Lummen,Geneikenstraat,99,51.0189493614,5.22103931836
3560,Lummen,Opworpstraat,57,50.9788348136,5.23710448241
3560,Lummen,Vinkenstraat,1,51.0009601336,5.20216889129
3560,Lummen,Ketelstraat,7,50.9864139681,5.18949035082
3560,Lummen,Processieweg,10,51.0012434069,5.14109987365
3560,Lummen,Mangelbeekstraat,64,50.9787578501,5.18302227998
3560,Lummen,Hoogveldstraat,17,51.0011586265,5.18807399346
3560,Lummen,Paalstraat,7,51.014262986,5.16279204513
3560,Lummen,Oostereindestraat,108,50.9911759944,5.20690407417
3560,Lummen,Priesterse Heidestraat,28,50.9684627636,5.14203773077
3560,Lummen,Kapelstraat,34,50.9729020854,5.13752414793
3560,Lummen,O. L. Vrouwstraat,74,50.9891724503,5.21178290031
3560,Lummen,Prelaat Knaepenstraat,26,50.9887222077,5.18615502251
3560,Lummen,Acaciastraat,65,50.9936333216,5.21220880198
3560,Lummen,Heesstraat,8,50.9978805352,5.13778876978
3560,Lummen,Zwarte-Brugstraat,2,50.9649126695,5.1480068975
3560,Lummen,Mellaerstraat,19,50.9971566641,5.16310134943
3560,Lummen,Mangelbeekstraat,82,50.9798175399,5.18474828549
3560,Lummen,Genenbosstraat,63,51.0081491567,5.2273471342
3560,Lummen,Rekhovenstraat,92,50.9941031105,5.23162086978
3560,Lummen,Linkhoutstraat,301,50.9626630468,5.12607643276
3560,Lummen,Larenstraat,37,51.0021444502,5.18138732138
3560,Lummen,Kammestraat,44,50.9679152942,5.12996556336
3560,Lummen,Mangelbeekstraat,46,50.9783584021,5.18028537114
3560,Lummen,Infanteriestraat,12,50.9888092949,5.19284005109
3560,Lummen,Nieuwstraat,66,51.01058371,5.22584767041
3560,Lummen,Neerstraat,14,50.9844436177,5.19241885187
3560,Lummen,Meldertsebaan,88,51.0036209773,5.13622537321
3560,Lummen,Spreeuwenstraat,12,51.0061985767,5.20765653702
3560,Lummen,Hamelstraat,86,50.9794525508,5.18131126996
3560,Lummen,Violetstraat,25,51.016042867,5.12475520028
3560,Lummen,Groenlarenstraat,39,51.007405652,5.19877144114
3560,Lummen,Drie Lindenstraat,9,50.9674912852,5.13580666981
3560,Lummen,Klaverbladstraat,5,50.9951384145,5.22814116901
3560,Lummen,Schalbroekstraat,61,50.9797053283,5.17766454055
3560,Lummen,Linkhoutstraat,57,50.9688810492,5.15545700324
3560,Lummen,Geneikenstraat,107,51.0188660451,5.22207837386
3560,Lummen,Linkhoutstraat,290,50.9634240804,5.12675039837
3560,Lummen,Schuttersstraat,8,51.001277578,5.21450340738
3560,Lummen,Huisveldenstraat,8,51.0112644273,5.22822224509
3560,Lummen,Gyzevennestraat,41,51.0013575079,5.13185917837
3560,Lummen,Gestelstraat,20,51.027244592,5.20913554237
3560,Lummen,Grote Baan,40,51.0117904618,5.12070359509
3560,Lummen,Rekhovenstraat,38,50.9907282878,5.22451149309
3560,Lummen,Tuinstraat,16,51.0147424387,5.20653165075
3560,Lummen,Hoogstraat,59,51.0007358973,5.19114363734
3560,Lummen,Dikke Eikstraat,44,50.9907283905,5.16119229882
3560,Lummen,Hamelstraat,68,50.9797339013,5.1804175769
3560,Lummen,Schulensebaan,7,50.9833000955,5.19170488804
3560,Lummen,St.-Lutgardisstraat,41,51.020665113,5.1885749079
3560,Lummen,Jantenstraat,8A,51.00636459,5.22821206604
3560,Lummen,Vandermarckestraat,14,50.9890188255,5.18919317366
3560,Lummen,Molemstraat,62,50.9962980641,5.21126603038
3560,Lummen,Groenlarenstraat,5,51.0101393514,5.20253968329
3560,Lummen,Kerkstraat,24,50.9853268224,5.18833419868
3560,Lummen,Reustraat,11,50.9994561489,5.18005262906
3560,Lummen,St.-Sebastiaanstraat,6D,51.0295242563,5.20840611615
3560,Lummen,Vinnehoekstraat,9,50.9642682679,5.11626197803
3560,Lummen,Ruitersstraat,2,50.9947922421,5.15037020669
3560,Lummen,Charles Wellensstraat,27,50.9810966958,5.18104828652
3560,Lummen,Groenlarenstraat,50,51.0076093427,5.19821293042
3560,Lummen,St.-Janstraat,19,50.9762486037,5.22325087962
3560,Lummen,O. L. Vrouwstraat,4,50.9877277531,5.19911070174
3560,Lummen,Rekhovenstraat,56,50.9913435572,5.2265941169
3560,Lummen,Zelemsebaan,41,50.9962817836,5.13697045992
3560,Lummen,Genenbosstraat,45,51.0071179201,5.22583564419
3560,Lummen,Baandonkstraat,3,50.9937865845,5.21710765328
3560,Lummen,Zelemsebaan,109,50.9930269021,5.12905099145
3560,Lummen,Hemelrijkstraat,14,50.9796603371,5.18567601889
3560,Lummen,Kraaibergstraat,45,50.9916381612,5.21641862139
3560,Lummen,Morgenstraat,9,51.0167952691,5.23535868926
3560,Lummen,St.-Sebastiaanstraat,20,51.029688847,5.20550531964
3560,Lummen,Boogbosstraat,33,50.9706474154,5.1497599958
3560,Lummen,Vandermarckestraat,32,50.9912281686,5.18840132096
3560,Lummen,Oostereindestraat,11,50.9881543547,5.19656875549
3560,Lummen,Dikke Eikstraat,62,50.9947709692,5.15333409277
3560,Lummen,Kerkstraat,11A,50.9857589718,5.19021206586
3560,Lummen,Hoogstraat,8,51.0033352028,5.20004795009
3560,Lummen,Fonteinstraat,7,50.9905501325,5.18445189943
3560,Lummen,Geeneindestraat,134,51.0105227398,5.14995421336
3560,Lummen,van Willigenstraat,17,50.9825242634,5.18206139787
3560,Lummen,Kambergenstraat,19A,50.9642319074,5.12680375681
3560,Lummen,Mangelbeekstraat,28,50.9777908456,5.17854453515
3560,Lummen,Edbroekenstraat,4,51.0097067218,5.23074903941
3560,Lummen,Rekhovenstraat,74,50.9930743269,5.22976947839
3560,Lummen,Bergstraat,9,51.0023865732,5.19164508172
3560,Lummen,Schalbroekstraat,15,50.9828563515,5.18133230739
3560,Lummen,Dorpsstraat,27,50.9872238046,5.194451065
3560,Lummen,Sacramentstraat,8,51.0127898235,5.20778950955
3560,Lummen,Pastorijstraat,37,51.0009888178,5.14462291257
3560,Lummen,Acaciastraat,12,50.9902071161,5.20616813466
3560,Lummen,Geeneindestraat,10,51.0064768959,5.13429109044
3560,Lummen,Processieweg,63,51.0053910917,5.14661127649
3560,Lummen,Gemeenteplein,20,50.9860638741,5.19119302121
3560,Lummen,Pastoor Wintersstraat,2,50.9812733541,5.19092332982
3560,Lummen,Hertenrodestraat,22,51.0045796143,5.13012943802
3560,Lummen,Kapelstraat,4B,50.9687921122,5.13642265442
3560,Lummen,Oostereindestraat,40,50.9886868745,5.19960528669
3560,Lummen,Kabouterstraat,2,50.9925349565,5.21629640155
3560,Lummen,Blanklaarstraat,12,51.0138363354,5.1234620666
3560,Lummen,Fonteinstraat,23,50.9908471659,5.18547251992
3560,Lummen,Opworpstraat,22,50.9766696309,5.22007500398
3560,Lummen,Lijsterstraat,8,51.0115520445,5.20621247773
3560,Lummen,Voortstraat,53,51.0166068603,5.20347567803
3560,Lummen,Schippersstraat,9,51.0124534087,5.23340876154
3560,Lummen,St.-Rochusstraat,12,51.0139299917,5.22808151802
3560,Lummen,Kwezelstraat,4,50.9989012398,5.18014074163
3560,Lummen,Loyestraat,1,50.9714872808,5.19767293974
3560,Lummen,Oudestraat,33,51.0159947741,5.20858748482
3560,Lummen,Dikke Eikstraat,79,50.9944934677,5.15229511892
3560,Lummen,Kraaibergstraat,27,50.9950709298,5.21310123819
3560,Lummen,Meerlestraat,10,50.9883101863,5.18859807125
3560,Lummen,Veldstraat,3,51.0163296892,5.2145266118
3560,Lummen,Laambeekstraat,9,50.9900860733,5.22592882884
3560,Lummen,Zandstraat,22,51.0015590042,5.13599666488
3560,Lummen,Bovenstraat,8,50.9822482569,5.1769304674
3560,Lummen,Genenbosstraat,27,51.0063291176,5.22403968962
3560,Lummen,Waterstraat,13,50.9995374878,5.208767073
3560,Lummen,Hamelstraat,33,50.9805516018,5.18078221364
3560,Lummen,Populierenstraat,35,50.9786074141,5.1662885074
3560,Lummen,Stokrooiestraat,68,50.9693489572,5.23820033309
3560,Lummen,Blanklaarstraat,30,51.0148150098,5.12224470922
3560,Lummen,O. L. Vrouwstraat,21,50.9882198416,5.2013103028
3560,Lummen,Genenbosstraat,144,51.0160636313,5.2377060693
3560,Lummen,Geeneindestraat,116,51.0103403655,5.14729388045
3560,Lummen,Thiewinkelstraat,82,50.9691573258,5.22952734586
3560,Lummen,Molemstraat,79,50.9970380067,5.21126581325
3560,Lummen,Nieuwstraat,13,51.0109128244,5.22757239776
3560,Lummen,Demerstraat,31,50.9632613483,5.13688350073
3560,Lummen,Watermolenstraat,1A,50.9904488341,5.22287489683
3560,Lummen,Hulshoekstraat,15,50.9674126354,5.14166191577
3560,Lummen,Watermolenstraat,4,50.990354445,5.22375244509
3560,Lummen,Lindekensveld,6,50.9925033163,5.19606761201
3560,Lummen,Populierenstraat,17,50.9803666981,5.17468157906
3560,Lummen,Helvetiastraat,68,51.0075202099,5.22129685942
3560,Lummen,Meldertsebaan,53,51.0016736664,5.13777843019
3560,Lummen,Windmolenstraat,14,50.9891612667,5.18680064761
3560,Lummen,Stokrooiestraat,33,50.9707527579,5.23398065365
3560,Lummen,Dr. Vanderhoeydonckstraat,27,50.9881011704,5.19455740734
3560,Lummen,Priesterse Heidestraat,99,50.9717328725,5.15194127372
3560,Lummen,Helvetiastraat,15,51.0082445457,5.22557114742
3560,Lummen,Groenstraat,21,50.9900845425,5.19121407797
3560,Lummen,Goeslaerstraat,47,50.9822827926,5.14686485469
3560,Lummen,Linkhoutstraat,189,50.9655183864,5.13947773815
3560,Lummen,Thiewinkelstraat,46,50.9719808242,5.22620946886
3560,Lummen,Hulshoekstraat,68,50.9681274369,5.14989380523
3560,Lummen,Linkhoutstraat,272,50.9632985266,5.12880452611
3560,Lummen,Violetstraat,8,51.0154095771,5.12318403271
3560,Lummen,Linkhoutstraat,201,50.9655467602,5.13813887351
3560,Lummen,St.-Edmondstraat,11,50.9889898541,5.19085642799
3560,Lummen,6 Septemberstraat,28,51.0012970136,5.20056411381
3560,Lummen,Rekhovenstraat,102,50.9947234102,5.23292918065
3560,Lummen,Grote Baan,29,51.0132085572,5.12609698628
3560,Lummen,Molemstraat,143,51.0041548226,5.21906402739
3560,Lummen,Linkhoutstraat,5,50.9714129241,5.15999244362
3560,Lummen,Demerstraat,13,50.963282572,5.13430709943
3560,Lummen,Nieuwstraat,31,51.0104404371,5.22738503548
3560,Lummen,Thiewinkelstraat,64,50.9702965369,5.22789029678
3560,Lummen,Claeshoekstraat,4,50.9831710722,5.21130970803
3560,Lummen,Notenstraat,5,51.0011406084,5.1436617671
3560,Lummen,St.-Annastraat,4,50.9941944646,5.15158129227
3560,Lummen,Goerenstraat,33,50.9736124187,5.15263109441
3560,Lummen,Schalbroekstraat,123,50.9761753678,5.17189471567
3560,Lummen,Goeslaerstraat,53,50.9828607047,5.14610898434
3560,Lummen,Kammestraat,26,50.9672938253,5.13266824949
3560,Lummen,Bosstraat,16,50.997260506,5.20956999957
3560,Lummen,Meeuwenstraat,2,50.9764293046,5.17524491785
3560,Lummen,Kapelstraat,87,50.9714057946,5.15311868923
3560,Lummen,Larenstraat,19,51.0016346714,5.1788176902
3560,Lummen,Thiewinkelstraat,11,50.9790998299,5.21070387509
3560,Lummen,Nieuwstraat,84,51.0104908138,5.22345597079
3560,Lummen,Vleugtstraat,15,51.0218212959,5.12665900985
3560,Lummen,Bovenstraat,42,50.9821249895,5.17205557132
3560,Lummen,Europaweg,12,51.0249608122,5.22278721628
3560,Lummen,Paalstraat,15,51.018386343,5.16383971835
3560,Lummen,Opworpstraat,40,50.97688677,5.22272141351
3560,Lummen,Broedersveld,10,50.9927342396,5.19463884154
3560,Lummen,Thiewinkelstraat,36,50.9741164408,5.22090713637
3560,Lummen,Gyzevennestraat,21,50.999825758,5.13301039742
3560,Lummen,Geeneindestraat,45,51.009145571,5.13722094696
3560,Lummen,Geneikenstraat,54,51.0169756512,5.2123908137
3560,Lummen,Dikke Eikstraat,34,50.990349087,5.16256908204
3560,Lummen,Grote Baan,57,51.0117863275,5.12224824063
3560,Lummen,Populierenstraat,78,50.9786847182,5.16326379541
3560,Lummen,Processieweg,37,51.0039097628,5.14318358065
3560,Lummen,Larenstraat,10,51.0001799524,5.17404395151
3560,Lummen,Thiewinkelstraat,18,50.9778463762,5.21145841725
3560,Lummen,Pannewinningstraat,5,50.9690481676,5.2283269828
3560,Lummen,Dikke Eikstraat,16,50.9895883533,5.16565570052
3560,Lummen,Kerkevennestraat,28,50.9649806516,5.1320246471
3560,Lummen,Kerkstraat,8,50.9856694846,5.1909891231
3560,Lummen,Zandstraat,40,51.0027116297,5.13328077481
3560,Lummen,Nachtegaalstraat,23,50.9990615878,5.13699114949
3560,Lummen,Bosheidestraat,34,51.0100493519,5.21822992145
3560,Lummen,Dr. Vanderhoeydonckstraat,20,50.9890298661,5.1948301667
3560,Lummen,Reustraat,3,50.9998858865,5.1832072962
3560,Lummen,Zelemsebaan,74,50.9953185719,5.13357556637
3560,Lummen,Voortstraat,1,51.010975937,5.20289316832
3560,Lummen,Bosheidestraat,16,51.0085997936,5.21883614067
3560,Lummen,Geeneindestraat,81,51.0102208227,5.14292037465
3560,Lummen,Schalbroekstraat,105,50.97680136,5.17418734309
3560,Lummen,Infanteriestraat,39,50.988500634,5.19075383351
3560,Lummen,Rekhovenstraat,117,50.9956733259,5.23447254414
3560,Lummen,Helvetiastraat,23,51.0078226417,5.22459847357
3560,Lummen,Kievitstraat,5,50.9789153649,5.21333416071
3560,Lummen,Edbroekenstraat,13,51.0090730096,5.231990898
3560,Lummen,Toekomststraat,10,51.0213392332,5.22484270825
3560,Lummen,Rekhovenstraat,13,50.9910375032,5.22081555344
3560,Lummen,Meldertsebaan,1,50.9973950585,5.14335373992
3560,Lummen,Linkhoutstraat,172,50.966127438,5.14133890129
3560,Lummen,Molemstraat,16,50.9927560785,5.20830723962
3560,Lummen,Europaweg,30,51.0291833816,5.22397951683
3560,Lummen,Eekhoornstraat,34,51.0067682933,5.12566120482
3560,Lummen,Hertenrodestraat,40,51.0037148068,5.12835236341
3560,Lummen,Geneikenstraat,72,51.018106261,5.21891007071
3560,Lummen,Hulshoekstraat,23,50.9678783695,5.14294849288
3560,Lummen,Huzarenstraat,25,50.9874451886,5.1912887823
3560,Lummen,Hamelstraat,51,50.9804608997,5.18210759009
3560,Lummen,Kraaibergstraat,20,50.9954164239,5.21239719752
3560,Lummen,Hoefstraat,18,51.0046576729,5.19582806849
3560,Lummen,Beukeboomstraat,1,50.984022571,5.17944656593
3560,Lummen,Genenbosstraat,124,51.0133947599,5.23128496624
3560,Lummen,Geeneindestraat,4,51.0060146543,5.1337936704
3560,Lummen,Schurfertstraat,7,50.9861204382,5.13383393277
3560,Lummen,Koekoekstraat,15,51.0128561764,5.20574445387
3560,Lummen,Jantenstraat,10,51.0058178169,5.22805498164
3560,Lummen,Heesstraat,60,50.9978856738,5.1296495978
3560,Lummen,Industriestraat,6A,51.0146689549,5.23722185339
3560,Lummen,Stokrooiestraat,51,50.9703721182,5.23635958682
3560,Lummen,Bergstraat,2,51.002964159,5.19088672178
3560,Lummen,Schalbroekstraat,76,50.9780194552,5.17604880584
3560,Lummen,Morgenstraat,2,51.0166762043,5.23610826877
3560,Lummen,Voortstraat,25,51.0133869556,5.20312126003
3560,Lummen,Watermolenstraat,13,50.9890789547,5.22511475463
3560,Lummen,Kriekelse Hoekstraat,18,50.9724055345,5.15694756877
3560,Lummen,Oostereindestraat,75,50.9908839713,5.20478860878
3560,Lummen,Klaverbladstraat,21,50.9988185804,5.22940029542
3560,Lummen,Oostereindestraat,3,50.987983045,5.19570829674
3560,Lummen,Hoogstraat,60,51.0015175837,5.19284594051
3560,Lummen,Dikke Eikstraat,48,50.9908449019,5.16079131312
3560,Lummen,Linkhoutstraat,154,50.9661073527,5.14332424476
3560,Lummen,Fonteinstraat,15,50.9910385343,5.18467307018
3560,Lummen,Geneikenstraat,28,51.0128037189,5.20682413825
3560,Lummen,Dorpsstraat,20,50.9872177776,5.19320941494
3560,Lummen,Geeneindestraat,19,51.0072785592,5.13483326
3560,Lummen,Rekhovenstraat,31,50.9911512126,5.22330619969
3560,Lummen,Meerlestraat,4,50.9872019295,5.18872821594
3560,Lummen,Linkhoutstraat,316,50.9626828817,5.12339954046
3560,Lummen,Tuinstraat,7,51.0141583264,5.20608511311
3560,Lummen,Kriekelse Hoekstraat,3,50.9720503753,5.15952623542
3560,Lummen,Kapelstraat,44,50.9746341101,5.14059755673
3560,Lummen,Schulensebaan,15,50.9705433837,5.18259814521
