PKANCODE,COMMUNE_NL,STREET_NL,HUISNR,LAT,LON
3640,Kinrooi,Venlosesteenweg,400,51.1559137073,5.81343122904
3640,Kinrooi,Stegerstraat,9,51.1261173571,5.7898100749
3640,Kinrooi,Breeërsteenweg,152,51.1441547418,5.77163208444
3640,Kinrooi,Weertersteenweg,118,51.1424468497,5.74711457526
3640,Kinrooi,Binnenweg,62,51.1467052904,5.72177671027
3640,Kinrooi,Smeetsstraat,9,51.1703260814,5.7376946235
3640,Kinrooi,Weertersteenweg,379,51.1707713661,5.73615066963
3640,Kinrooi,Schansstraat,10,51.1411230737,5.73391522635
3640,Kinrooi,Leuerbroek,1036,51.1382793998,5.74759472704
3640,Kinrooi,Broekstraat,34A,51.1483515119,5.72039294778
3640,Kinrooi,Steyvershofstraat,5,51.1331486993,5.75803469025
3640,Kinrooi,Honsdries,22,51.1232938054,5.79322593906
3640,Kinrooi,Fabrieksstraat,4,51.1514999146,5.81393743396
3640,Kinrooi,Sevensstraat,49,51.1524125231,5.74677922541
3640,Kinrooi,Hurkenstraat,7,51.1702325931,5.7302709545
3640,Kinrooi,Hunselerstraat,12A,51.1788260413,5.76039913928
3640,Kinrooi,Uffelseweg,5,51.1755844565,5.75837067175
3640,Kinrooi,Merrenhofstraat,19,51.1270295328,5.79860014773
3640,Kinrooi,Breeërsteenweg,314,51.1458267622,5.73571375285
3640,Kinrooi,Geistingen,43,51.1337984657,5.80889338101
3640,Kinrooi,Scheurestraat,34,51.1739391717,5.73508169191
3640,Kinrooi,Hoogveldstraat,41,51.1524482423,5.80570543893
3640,Kinrooi,Broekstraat,48,51.1514877798,5.71891897501
3640,Kinrooi,Schuttersstraat,24,51.1713388776,5.73529954983
3640,Kinrooi,Zandbosstraat,19,51.1711000489,5.73210098461
3640,Kinrooi,Klimstraat,5,51.1368018398,5.80761474099
3640,Kinrooi,Venderstraat,3,51.1669697476,5.73793245731
3640,Kinrooi,Grootbroekstraat,13,51.1661198991,5.72706437801
3640,Kinrooi,Zielderveld,31,51.1398555251,5.74200309236
3640,Kinrooi,Baekhoven,17,51.1289648365,5.80058297299
3640,Kinrooi,Vierstraat,3,51.1495081139,5.80298866859
3640,Kinrooi,Weertersteenweg,136,51.1438284956,5.74535642507
3640,Kinrooi,Daalstraat,8C,51.1346319201,5.80692227077
3640,Kinrooi,Neeroetersesteenweg,46,51.1408497495,5.74023365108
3640,Kinrooi,Venlosesteenweg,187,51.1341347992,5.80445375823
3640,Kinrooi,Weertersteenweg,397,51.1719417516,5.73561795406
3640,Kinrooi,Bouwensstraat,4,51.1691813443,5.7399277028
3640,Kinrooi,Steyvershofstraat,29,51.1312284508,5.75741030741
3640,Kinrooi,Zandbosstraat,37,51.1707851382,5.72696097146
3640,Kinrooi,Eikelenbosstraat,6,51.1695984655,5.70742006144
3640,Kinrooi,Nieuwkamp,5,51.1331551372,5.80633436795
3640,Kinrooi,Bomerstraat,39,51.1544766283,5.73524106326
3640,Kinrooi,Venlosesteenweg,45,51.1231339704,5.80100292037
3640,Kinrooi,Luitestraat,21,51.1438135982,5.72487058082
3640,Kinrooi,Grootbeersel,24,51.1774769095,5.76698680252
3640,Kinrooi,Natterveld,71,51.1402166523,5.74495066038
3640,Kinrooi,Leustraat,49,51.1247706426,5.79339799551
3640,Kinrooi,Greuwkensstraat,6,51.1700154841,5.74032674002
3640,Kinrooi,Enkestraat,13,51.1734310773,5.72394296531
3640,Kinrooi,Donkstraat,70,51.1282579054,5.78799298221
3640,Kinrooi,Langvenstraat,12,51.1443064547,5.78172977768
3640,Kinrooi,Kasteelstraat,11,51.1563830751,5.80879148875
3640,Kinrooi,Enkestraat,41,51.1771644143,5.72427597944
3640,Kinrooi,Vlasbrei,21,51.1720332614,5.77110430793
3640,Kinrooi,Toekomststraat,38,51.1548334482,5.81370886254
3640,Kinrooi,Nagelstraat,7,51.1292649885,5.79733897482
3640,Kinrooi,Heikempstraat,1302A,51.1795445571,5.72320792317
3640,Kinrooi,Binnenweg,44,51.147910508,5.72434541968
3640,Kinrooi,Bongertestraat,3,51.1265982436,5.79758570575
3640,Kinrooi,Heitjesstraat,1A,51.1539305448,5.74027956367
3640,Kinrooi,Breeërsteenweg,295,51.1453556606,5.73827318771
3640,Kinrooi,Fosheistraat,53,51.1744466234,5.72322750863
3640,Kinrooi,Zandveldstraat,20,51.1701611016,5.73324672736
3640,Kinrooi,Haexkamp,5,51.1342371367,5.80813228316
3640,Kinrooi,Beekstraat,3,51.1314064525,5.80791656521
3640,Kinrooi,Oudekerkstraat,21,51.168401584,5.73443418237
3640,Kinrooi,Veldstraat,20,51.152881687,5.81987411328
3640,Kinrooi,Hoverstraat,9,51.1527989085,5.75593321375
3640,Kinrooi,Donkstraat,52,51.1277510517,5.79095377663
3640,Kinrooi,Truyenstraat,50,51.1749647749,5.74287194012
3640,Kinrooi,Venlosesteenweg,116,51.1280833558,5.80315541228
3640,Kinrooi,Ruttenstraatje,3,51.1764933658,5.72732097856
3640,Kinrooi,Neeroetersesteenweg,100,51.1338078399,5.73501820239
3640,Kinrooi,Scheurestraat,16,51.1723203574,5.7381437023
3640,Kinrooi,Looverstraat,2,51.1750022874,5.75472798985
3640,Kinrooi,Kampstraat,4,51.147773002,5.73477808471
3640,Kinrooi,Venlosesteenweg,377,51.1542770844,5.81085368144
3640,Kinrooi,Weertersteenweg,420,51.1746542689,5.73154070305
3640,Kinrooi,Schansstraat,45,51.1386117754,5.73591619437
3640,Kinrooi,Venlosesteenweg,359,51.1518206875,5.81047630173
3640,Kinrooi,Helmuskesstraat,4,51.1837796255,5.72050496879
3640,Kinrooi,Belestraat,63,51.1536648664,5.73098409048
3640,Kinrooi,Hoekstraat,10,51.1825538752,5.72154566657
3640,Kinrooi,Brenjersstraat,1,51.1376477578,5.73810165697
3640,Kinrooi,Lemmensstraat,34,51.1472218145,5.72679640606
3640,Kinrooi,Belestraat,47,51.1513439496,5.72786793072
3640,Kinrooi,Goortweg,8,51.147416433,5.74106994467
3640,Kinrooi,Zielderveld,84,51.1374193679,5.74242701323
3640,Kinrooi,Meierstraat,58,51.149457261,5.8144112136
3640,Kinrooi,Dorpsstraat,14,51.1515544123,5.82285604337
3640,Kinrooi,Weertersteenweg,164,51.1459836346,5.74203088475
3640,Kinrooi,Rondstraat,26,51.1692667679,5.74397536745
3640,Kinrooi,Breeërsteenweg,367,51.1454395926,5.7274536052
3640,Kinrooi,Molenweg,34,51.1432523078,5.73206495672
3640,Kinrooi,Vlasvenstraat,11,51.173255585,5.73042754648
3640,Kinrooi,Kerkstraat,8A,51.1511371801,5.82418230881
3640,Kinrooi,Molenweg,16,51.1438091565,5.73440468215
3640,Kinrooi,Venlosesteenweg,98,51.1266236327,5.80295212884
3640,Kinrooi,Weertersteenweg,402,51.172565188,5.73573661382
3640,Kinrooi,Leuerbroek,1082,51.1373006963,5.75263296038
3640,Kinrooi,Lakerweg,48,51.1466295099,5.77566922218
3640,Kinrooi,Breeërsteenweg,385,51.1455519374,5.72434609634
3640,Kinrooi,Teunestraat,14,51.1752807763,5.74470114584
3640,Kinrooi,Draaiweg,2,51.1323878883,5.80670397325
3640,Kinrooi,Luitestraat,4,51.1452535898,5.72543009174
3640,Kinrooi,Letterveld,45,51.1301344695,5.79793067244
3640,Kinrooi,Truyenstraat,22,51.1738858512,5.73861969953
3640,Kinrooi,Hoogstraat,23,51.1485023832,5.72999367114
3640,Kinrooi,Kelderbergstraat,2,51.1817794441,5.73828254529
3640,Kinrooi,Heyerstraat,14,51.1764059565,5.73905283547
3640,Kinrooi,Zielderveld,102,51.1383783649,5.74325178129
3640,Kinrooi,Hagendorenstraat,12,51.1416093354,5.73940562868
3640,Kinrooi,Geistingen,96,51.1354197847,5.81550540768
3640,Kinrooi,Breeërsteenweg,81,51.1431414019,5.78809563474
3640,Kinrooi,Venlosesteenweg,134,51.1299730492,5.80399730891
3640,Kinrooi,Leuerbroek,1064,51.1362911852,5.75062375094
3640,Kinrooi,Heitjesstraat,1C,51.1540083513,5.73939397465
3640,Kinrooi,Weertersteenweg,182,51.1477739766,5.7424368926
3640,Kinrooi,Keyersstraat,4,51.163358653,5.77550751301
3640,Kinrooi,Breeërsteenweg,224,51.1456298108,5.74897700262
3640,Kinrooi,Meierstraat,76,51.1482478301,5.81283703531
3640,Kinrooi,De Belder,25,51.1245528884,5.7964166407
3640,Kinrooi,De Belder,1,51.1255864479,5.8014625972
3640,Kinrooi,Geistingen,15,51.1318641695,5.8070897846
3640,Kinrooi,Smeetsstraat,97,51.1751347424,5.74913966411
3640,Kinrooi,Breeërsteenweg,63,51.1451908261,5.79780681721
3640,Kinrooi,Sweversveld,51,51.149989897,5.81337965721
3640,Kinrooi,Geistingen,78,51.1349613557,5.81310011355
3640,Kinrooi,Weertersteenweg,65,51.1370604148,5.75384077985
3640,Kinrooi,Winkelstraat,12,51.168590079,5.71734477924
3640,Kinrooi,Breeërsteenweg,47,51.1459552537,5.80171433486
3640,Kinrooi,Simpelstraat,8,51.1430195899,5.7239864323
3640,Kinrooi,Meierstraat,94,51.1480075565,5.81049630772
3640,Kinrooi,Sweversveld,51A,51.1500610644,5.81350007368
3640,Kinrooi,Rondstraat,33A,51.1704665294,5.74323165688
3640,Kinrooi,Zielderveld,120,51.1393850455,5.74391878923
3640,Kinrooi,Breeërsteenweg,259,51.1453043579,5.74402014768
3640,Kinrooi,Esserstraat,8B,51.1492295283,5.73895417887
3640,Kinrooi,Heesstraat,46,51.1492103191,5.80386402871
3640,Kinrooi,Venlosesteenweg,252,51.1411690237,5.80798816344
3640,Kinrooi,Zielderveld,66,51.1378026531,5.74226980922
3640,Kinrooi,Colbersstraat,7,51.1812828807,5.73604461902
3640,Kinrooi,Neeroetersesteenweg,18,51.1429439028,5.74127902975
3640,Kinrooi,Sevensstraat,14,51.1494840525,5.74365931971
3640,Kinrooi,Maasveldweg,1,51.1339144434,5.79919309597
3640,Kinrooi,Weertersteenweg,30,51.1324517148,5.75997693058
3640,Kinrooi,Smeetsstraat,79,51.1745059253,5.74647355856
3640,Kinrooi,Groezenstraat,16,51.1668733434,5.76642892889
3640,Kinrooi,Venlosesteenweg,17,51.1213944226,5.8000771582
3640,Kinrooi,Zielderveld,13,51.137871546,5.74113976004
3640,Kinrooi,Breeërsteenweg,206,51.1453867321,5.75219923063
3640,Kinrooi,Huikensstraat,5,51.134484654,5.80111563693
3640,Kinrooi,Makkestraat,43,51.1615121131,5.72360036188
3640,Kinrooi,Dorpsplein,7,51.1452174984,5.74145865333
3640,Kinrooi,Leustraat,32,51.1266303616,5.79423352013
3640,Kinrooi,Grootbroekstraat,41,51.1594151656,5.71063462254
3640,Kinrooi,Dikke Linde,7,51.123821317,5.79778432104
3640,Kinrooi,Hogerstraat,39,51.1808185687,5.73375061497
3640,Kinrooi,Zandveldstraat,19,51.1701113192,5.73256801758
3640,Kinrooi,Heikempstraat,1118A,51.1803046363,5.72371172827
3640,Kinrooi,Hezerstraat,44,51.1623456771,5.74547538501
3640,Kinrooi,Venderstraat,10,51.1672322913,5.7368519891
3640,Kinrooi,Zandveldstraat,3,51.1689271355,5.73333118292
3640,Kinrooi,Oud Kevelaer,20,51.1690552523,5.73245148893
3640,Kinrooi,Landweg,7,51.1236025162,5.79207346708
3640,Kinrooi,Kruisstraat,13,51.1449087383,5.7274836024
3640,Kinrooi,Veldstraat,3,51.1521303477,5.82211063803
3640,Kinrooi,Schoolstraat,26,51.1481504322,5.79036541251
3640,Kinrooi,Venlosesteenweg,295,51.1465559437,5.80882075966
3640,Kinrooi,Hurkenstraat,11A,51.1698711567,5.72948663099
3640,Kinrooi,Processieweg,21,51.142750064,5.73600781575
3640,Kinrooi,Schansstraat,27,51.1400969284,5.73511152282
3640,Kinrooi,Itterstraat,15,51.1338369986,5.79098898445
3640,Kinrooi,Weertersteenweg,344,51.1679517466,5.73869083645
3640,Kinrooi,Kerkstraat,3,51.1520450863,5.82443247953
3640,Kinrooi,Honsdries,39,51.1232120069,5.78961823436
3640,Kinrooi,Nagelstraat,14,51.1304600749,5.79561623204
3640,Kinrooi,Schoorstraat,14A,51.1527224441,5.82360676382
3640,Kinrooi,Goorterhuisjesstraat,8,51.1503548318,5.74305045698
3640,Kinrooi,Geistingen,33,51.1329191597,5.80817552791
3640,Kinrooi,Drietak,4,51.1326428356,5.80356826418
3640,Kinrooi,Leuerbroek,1001,51.1381757724,5.74985140725
3640,Kinrooi,Donkstraat,24,51.12840689,5.79465465941
3640,Kinrooi,Simpelstraat,4A,51.1433779112,5.72581862508
3640,Kinrooi,Weertersteenweg,380,51.1709989267,5.7369711759
3640,Kinrooi,Fabrieksstraat,11,51.1530535227,5.81249884446
3640,Kinrooi,Vijverbroekstraat,6,51.1538836538,5.82204415748
3640,Kinrooi,Sweversveld,58,51.150483417,5.81328086383
3640,Kinrooi,Industrieweg,8,51.1782528059,5.72455275654
3640,Kinrooi,Teunestraat,60,51.1789657369,5.74844350005
3640,Kinrooi,Meierstraat,6,51.1501913431,5.82233414334
3640,Kinrooi,Oudekerkstraat,4,51.1697590475,5.73602175534
3640,Kinrooi,Truyenstraat,5,51.1732998202,5.7358872808
3640,Kinrooi,Zandbosstraat,20,51.1713928038,5.7315994413
3640,Kinrooi,Schuttersstraat,7,51.1706144647,5.73510472391
3640,Kinrooi,Sweversveld,6,51.151603657,5.81205030943
3640,Kinrooi,Thornerweg,5,51.1527631697,5.82649136407
3640,Kinrooi,Putstraatje,4,51.1264354702,5.80375713742
3640,Kinrooi,Stalsstraat,2,51.1776242635,5.74365582928
3640,Kinrooi,Grote Kerkstraat,8,51.1449739395,5.74080304194
3640,Kinrooi,Hubensstraat,9,51.1528205354,5.76637358416
3640,Kinrooi,Toekomststraat,21,51.1536514843,5.81560228517
3640,Kinrooi,Hogekamp,16,51.1295363513,5.79900510668
3640,Kinrooi,Donkstraat,59,51.1274838557,5.78980551351
3640,Kinrooi,Heibroekstraat,2,51.176101098,5.71526362296
3640,Kinrooi,Bongertestraat,10,51.1252323938,5.7979222233
3640,Kinrooi,Daalstraat,5,51.1344980855,5.80859973538
3640,Kinrooi,Itterstraat,1,51.1302133449,5.79093747504
3640,Kinrooi,Binnenweg,9,51.1478259003,5.72999924053
3640,Kinrooi,Hurkenstraat,14,51.1699396952,5.72828999967
3640,Kinrooi,Kerkhofstraat,9,51.1467975354,5.7387970262
3640,Kinrooi,Natterveld,25,51.1405981475,5.7427029093
3640,Kinrooi,Dwarsstraat,16,51.1360481991,5.8006390239
3640,Kinrooi,Sweversveld,76,51.1498520589,5.81427649784
3640,Kinrooi,Sweversveld,3A,51.1517670972,5.81232253354
3640,Kinrooi,Scheurestraat,9,51.1715557292,5.73916033707
3640,Kinrooi,Truyenstraat,20A,51.1738593352,5.74067844996
3640,Kinrooi,Natterveld,78,51.1393689317,5.74497668747
3640,Kinrooi,Fosheistraat,17,51.1744320475,5.72856938054
3640,Kinrooi,Kampstraat,11,51.1470550202,5.73330446728
3640,Kinrooi,Veldstraat,37,51.152468477,5.81597373237
3640,Kinrooi,Heerweg,13,51.1277020261,5.80887623406
3640,Kinrooi,Meierstraat,51,51.1498109147,5.8156674789
3640,Kinrooi,Scheyerveld,26,51.1479790438,5.73924421449
3640,Kinrooi,Bouwensstraat,11,51.1696957071,5.74089134122
3640,Kinrooi,Wieljestraat,3,51.1300759517,5.80432538392
3640,Kinrooi,Weertersteenweg,362,51.169248943,5.73823243713
3640,Kinrooi,Weertersteenweg,437,51.1763495943,5.72873597994
3640,Kinrooi,Venlosesteenweg,342,51.1504077817,5.81116667182
3640,Kinrooi,Smeetsstraat,54,51.1725107323,5.74387708095
3640,Kinrooi,'t Meulke,5,51.1352428387,5.80776803573
3640,Kinrooi,Heyerstraat,22,51.177260668,5.73802014484
3640,Kinrooi,Binnenweg,16,51.1483669068,5.72822333552
3640,Kinrooi,Kerkhofstraat,16,51.147566454,5.73600811775
3640,Kinrooi,Pekstraatje,1,51.1255185163,5.79226930481
3640,Kinrooi,Leeuwerkstraat,6,51.1705211589,5.73356514312
3640,Kinrooi,Brenjersstraat,8,51.135384732,5.73570008968
3640,Kinrooi,Breeërsteenweg,116,51.1438659709,5.78013429102
3640,Kinrooi,Vroenhof,17,51.1327268124,5.81077704647
3640,Kinrooi,Oud Kevelaer,55,51.1693089644,5.73023098573
3640,Kinrooi,Goortweg,1,51.1482875901,5.74086043151
3640,Kinrooi,Haexkamp,1B,51.1336774935,5.80861043773
3640,Kinrooi,Doorslagstraat,7,51.1615386733,5.74372914972
3640,Kinrooi,Broekstraat,2,51.1462930718,5.72576259852
3640,Kinrooi,Winkeldervenstraat,12,51.1740743315,5.72249205163
3640,Kinrooi,Binnenweg,34,51.1482575461,5.72560288429
3640,Kinrooi,Linderweg,1,51.1229369483,5.80190174871
3640,Kinrooi,Smeetsstraat,72,51.1736179725,5.74586498653
3640,Kinrooi,Hogerstraat,20A,51.1759203674,5.73771535664
3640,Kinrooi,Rondstraat,24A,51.1690819847,5.74349230559
3640,Kinrooi,Maasstraat,25,51.1263980432,5.80514025479
3640,Kinrooi,Hagendorenstraat,29,51.1394928722,5.73777150195
3640,Kinrooi,Leustraat,60,51.1251588428,5.79091811696
3640,Kinrooi,Weertersteenweg,199,51.1495787749,5.74150044858
3640,Kinrooi,Truyenstraat,39,51.1750944817,5.74072493165
3640,Kinrooi,Reystraat,36,51.1229905185,5.78715860639
3640,Kinrooi,Schoolstraat,54,51.1464141636,5.78849688185
3640,Kinrooi,Borgstraat,1,51.1510656478,5.82423811424
3640,Kinrooi,Breeërsteenweg,270,51.1457862638,5.74217300727
3640,Kinrooi,Drietak,38,51.1371461152,5.79589760613
3640,Kinrooi,Weertersteenweg,282,51.1615592195,5.74269833083
3640,Kinrooi,Makkestraat,15,51.1632321326,5.7348196195
3640,Kinrooi,Venlosesteenweg,206,51.1363932279,5.80598508357
3640,Kinrooi,Honsdries,5,51.1230155775,5.79526905453
3640,Kinrooi,Natterveld,63,51.1407814387,5.74623508196
3640,Kinrooi,Landweg,14,51.1226462527,5.7930379
3640,Kinrooi,Venlosesteenweg,91,51.1261704573,5.80181082911
3640,Kinrooi,De Belder,43,51.1238306497,5.7936178983
3640,Kinrooi,Belestraat,35,51.1504063933,5.72590549737
3640,Kinrooi,Dorpsplein,14,51.1453300067,5.74243600039
3640,Kinrooi,Venlosesteenweg,259,51.1423812299,5.80743228146
3640,Kinrooi,Geistingen,8,51.1311238507,5.80560412699
3640,Kinrooi,Baekhoven,35,51.1295652566,5.80041649871
3640,Kinrooi,Venlosesteenweg,47,51.1233256677,5.80071979293
3640,Kinrooi,Heesstraat,28,51.1492509259,5.80599351009
3640,Kinrooi,Breeërsteenweg,407,51.1456129999,5.72128968563
3640,Kinrooi,Esserstraat,21,51.1492578886,5.73733953147
3640,Kinrooi,Merrenhofstraat,20,51.1271542331,5.7985331016
3640,Kinrooi,Vroenhof,35,51.1331403978,5.8136763598
3640,Kinrooi,Kloosterstraat,29,51.1442773584,5.73685706204
3640,Kinrooi,Smeetsstraat,90,51.1743040672,5.74890814034
3640,Kinrooi,Honsdries,12,51.1228806494,5.79445735155
3640,Kinrooi,Zielderveld,21,51.1393804685,5.74109280223
3640,Kinrooi,Breeërsteenweg,180,51.1447135352,5.76294476646
3640,Kinrooi,Meierstraat,33,51.1495429882,5.81859804575
3640,Kinrooi,Grootbroekstraat,23,51.1640199278,5.72199914948
3640,Kinrooi,Dwarsstraat,9,51.1361264264,5.80268060133
3640,Kinrooi,Venlosesteenweg,179,51.1333199012,5.80416663741
3640,Kinrooi,Heikempstraat,3,51.1800035359,5.72570985211
3640,Kinrooi,Kampstraat,18,51.1478738368,5.73256642986
3640,Kinrooi,Makkestraat,1,51.1659645894,5.73846490467
3640,Kinrooi,Kessenicherweg,21,51.1364739954,5.81002723725
3640,Kinrooi,Oud Kevelaer,27,51.1693562049,5.73121676822
3640,Kinrooi,Toekomststraat,41,51.1542641516,5.81281534665
3640,Kinrooi,Weertersteenweg,108,51.1416324665,5.74810336354
3640,Kinrooi,Heesstraat,89,51.1501326447,5.7877859365
3640,Kinrooi,Manestraat,8,51.1571638046,5.77416161736
3640,Kinrooi,Weertersteenweg,126,51.1430732442,5.74641018808
3640,Kinrooi,Sweversveld,15,51.1510882867,5.81253897042
3640,Kinrooi,Honsdries,30,51.1229273681,5.79116959295
3640,Kinrooi,Pastorijstraat,4,51.1317851932,5.8108331253
3640,Kinrooi,Broekstraat,44B,51.1521889246,5.71690571278
3640,Kinrooi,Teunestraat,77,51.1835880202,5.75545446892
3640,Kinrooi,Schuttersstraat,14,51.1708256319,5.73563358657
3640,Kinrooi,Esserstraat,6,51.1494137101,5.74081306408
3640,Kinrooi,Hoekstraat,8A,51.1827971904,5.72217709247
3640,Kinrooi,Scheurestraat,24,51.1729200107,5.73677782716
3640,Kinrooi,Maasstraat,81,51.1258582306,5.8123945149
3640,Kinrooi,Leustraat,24,51.1267187723,5.79529374748
3640,Kinrooi,Fosheistraat,8,51.1751022401,5.72972532598
3640,Kinrooi,Maasstraat,17,51.1260347755,5.80416285819
3640,Kinrooi,Oudekerkstraat,31,51.1679341597,5.73274188631
3640,Kinrooi,Donkstraat,7,51.1283326813,5.79675309326
3640,Kinrooi,Leuerbroek,1028,51.1387431029,5.74774189704
3640,Kinrooi,Hagendorenstraat,50,51.1364628773,5.73481196458
3640,Kinrooi,Hubensstraat,2,51.1505980581,5.76072369358
3640,Kinrooi,Fosheistraat,63,51.1747186401,5.72148890873
3640,Kinrooi,Letterveld,47,51.1300874368,5.79779821092
3640,Kinrooi,Maasstraat,63,51.1265219033,5.80942446483
3640,Kinrooi,Willenstraat,3,51.1694092642,5.7417510653
3640,Kinrooi,Melkerijstraat,7,51.1451273205,5.73912389458
3640,Kinrooi,Venlosesteenweg,55,51.1240307025,5.80102999478
3640,Kinrooi,Zandbosstraat,27,51.1708557153,5.72955195838
3640,Kinrooi,Binnenweg,54,51.1471267185,5.72269610649
3640,Kinrooi,Hoogveldstraat,38,51.1530958103,5.80594194971
3640,Kinrooi,Fosheistraat,10,51.1752232774,5.72936387873
3640,Kinrooi,Zandbosstraat,3,51.1721162448,5.73442995601
3640,Kinrooi,Sweversveld,33,51.1504322614,5.81265661707
3640,Kinrooi,Bomerstraat,29,51.1540961364,5.73672548847
3640,Kinrooi,Grootbeersel,14,51.1762941491,5.75892699935
3640,Kinrooi,Leustraat,59,51.1243892809,5.79102140007
3640,Kinrooi,Letterveld,20,51.1311152648,5.80101055816
3640,Kinrooi,Makkestraat,23,51.1625865757,5.72973657648
3640,Kinrooi,Veldstraat,10,51.1528652206,5.82102250317
3640,Kinrooi,Lakerweg,4,51.1565731931,5.79782671489
3640,Kinrooi,Heyerstraat,5,51.1752495366,5.73962039382
3640,Kinrooi,Haexkamp,12,51.1339138892,5.80722209096
3640,Kinrooi,Verbindingsstraat,3,51.1367489392,5.79234751467
3640,Kinrooi,Ververstraat,10,51.1686715742,5.73934988369
3640,Kinrooi,Weertersteenweg,151B,51.1443918223,5.74305082812
3640,Kinrooi,Kerkstraat,10,51.1515079958,5.82492119007
3640,Kinrooi,Venderstraat,19,51.1670436581,5.73534833123
3640,Kinrooi,Binnenweg,26,51.1484365136,5.72667566563
3640,Kinrooi,Meierstraat,68,51.1488118135,5.81356975142
3640,Kinrooi,Horkerstraat,6,51.1552865216,5.74562208897
3640,Kinrooi,Weertersteenweg,517,51.1848152479,5.72474883269
3640,Kinrooi,Ittervoorterweg,1,51.1550727066,5.81493227246
3640,Kinrooi,Broekstraat,9,51.1470782353,5.72413901117
3640,Kinrooi,Zandveldstraat,10,51.1702406215,5.73320372174
3640,Kinrooi,Kerkhofstraat,2,51.1462015128,5.73953004739
3640,Kinrooi,Kerkhofstraat,12A,51.1474771824,5.73841848152
3640,Kinrooi,Donkstraat,42,51.1280676617,5.79221557322
3640,Kinrooi,Daalstraat,12,51.1345980929,5.8063932311
3640,Kinrooi,Hogerstraat,40,51.1766984239,5.73768727616
3640,Kinrooi,De Belder,15,51.1255489666,5.79997377028
3640,Kinrooi,Meierstraat,86,51.1479139738,5.81142979122
3640,Kinrooi,Vlasbrei,13,51.1715176328,5.76161675813
3640,Kinrooi,Steyvershofstraat,37,51.1294417292,5.7570052619
3640,Kinrooi,Zielderveld,56,51.1384600033,5.74286534139
3640,Kinrooi,Zielderveld,74,51.1372290723,5.74160616442
3640,Kinrooi,Weertersteenweg,297,51.1628588658,5.74046966467
3640,Kinrooi,Veldstraat,45,51.1522648949,5.81475249104
3640,Kinrooi,Raamdijk,4,51.1342542773,5.73689643038
3640,Kinrooi,Weertersteenweg,154,51.1448976064,5.74360668865
3640,Kinrooi,Truyenstraat,30,51.1743456054,5.73950244256
3640,Kinrooi,Vroenhof,8,51.1323162691,5.80986845698
3640,Kinrooi,Reystraat,9,51.124443389,5.78979213599
3640,Kinrooi,Basdonkstraat,3,51.1351897196,5.73512723201
3640,Kinrooi,Luitestraat,13,51.1444519209,5.72542379877
3640,Kinrooi,Processieweg,6,51.1434779502,5.73685721364
3640,Kinrooi,Merrenhofstraat,5,51.1259545596,5.80099999644
3640,Kinrooi,Kasteelstraat,4,51.1560963299,5.81097409062
3640,Kinrooi,Berkenstraat,11,51.1712228258,5.73389241643
3640,Kinrooi,Breeërsteenweg,357,51.1454665097,5.72899512648
3640,Kinrooi,Rozenstraat,10,51.1441486961,5.74228932726
3640,Kinrooi,Sweversveld,61,51.1511143765,5.8128534009
3640,Kinrooi,Weertersteenweg,172,51.1466622918,5.74266502146
3640,Kinrooi,Fosheistraat,98,51.1771262025,5.71371239306
3640,Kinrooi,Geistingen,86,51.1351939158,5.81426134645
3640,Kinrooi,Keunenstraat,6,51.1462859101,5.72736904427
3640,Kinrooi,Belestraat,53,51.1519663629,5.72866925505
3640,Kinrooi,Hogekamp,2,51.1300961488,5.79850359571
3640,Kinrooi,Weertersteenweg,301,51.163225864,5.7404214033
3640,Kinrooi,Venlosesteenweg,369,51.1529494841,5.81092730486
3640,Kinrooi,Truyenstraat,12,51.1732405216,5.73669898895
3640,Kinrooi,Donkstraat,133,51.1308913229,5.77645878907
3640,Kinrooi,Gremelsloweg,1,51.1283210846,5.76140547425
3640,Kinrooi,Oudekerkstraat,13,51.1688796371,5.73541626984
3640,Kinrooi,Weertersteenweg,57,51.1365038643,5.754978035
3640,Kinrooi,Scheyerveld,34,51.1480655253,5.73802895705
3640,Kinrooi,Broekstraat,46,51.1547173286,5.71837383966
3640,Kinrooi,Hunselerstraat,7,51.1785260912,5.75877712076
3640,Kinrooi,Zielderveld,110,51.1388326031,5.74351724146
3640,Kinrooi,Lichtenberg,5,51.1232345074,5.77916216786
3640,Kinrooi,Dolenweg,2,51.1505286904,5.7796878173
3640,Kinrooi,Breeërsteenweg,393,51.1453409794,5.72347384381
3640,Kinrooi,Zorgvlietstraat,7,51.1699610461,5.73394872974
3640,Kinrooi,Geerenstraat,3,51.1673638509,5.73009243029
3640,Kinrooi,Berkenstraat,9,51.1711806851,5.73374274456
3640,Kinrooi,Broekstraat,11,51.1473849083,5.72361292495
3640,Kinrooi,Smeetsstraat,16,51.1702839024,5.73908279248
3640,Kinrooi,Merrenhofstraat,29,51.1282524501,5.79809195407
3640,Kinrooi,Natterveld,17,51.1416352314,5.7423731471
3640,Kinrooi,Geistingen,68,51.1349193443,5.81209611
3640,Kinrooi,Breeërsteenweg,375,51.1455314615,5.72570486767
3640,Kinrooi,Weertersteenweg,22,51.1302166441,5.76153073755
3640,Kinrooi,Smeetsstraat,87,51.1748565965,5.74766208364
3640,Kinrooi,Greuwkensstraat,15,51.1703230242,5.74211372765
3640,Kinrooi,Drietak,84,51.1424989193,5.78776982465
3640,Kinrooi,Teunestraat,59,51.1796887974,5.74828295326
3640,Kinrooi,Kloosterstraat,22,51.1437183902,5.73807779927
3640,Kinrooi,Breeërsteenweg,269,51.1454014616,5.74269222554
3640,Kinrooi,Schoolstraat,2,51.1491363903,5.7934291836
3640,Kinrooi,Hogerstraat,29,51.1760630441,5.737172208
3640,Kinrooi,Molenwegske,7,51.1527867877,5.8151922256
3640,Kinrooi,Hoogstraat,15,51.1487474808,5.72836191939
3640,Kinrooi,Breeërsteenweg,400,51.1460344238,5.72197465528
3640,Kinrooi,Venlosesteenweg,425,51.1585768849,5.81276452347
3640,Kinrooi,Geistingen,25,51.1324922324,5.80736290328
3640,Kinrooi,Bosstraatje,1,51.1472720813,5.81369103729
3640,Kinrooi,Drietak,95B,51.1427733301,5.78617475322
3640,Kinrooi,Donkstraat,115,51.1298135874,5.77937618653
3640,Kinrooi,Reystraat,11,51.1243318595,5.78972159642
3640,Kinrooi,Sweversveld,43,51.1492865387,5.81259744402
3640,Kinrooi,Sevensstraat,24,51.1502290001,5.74476790079
3640,Kinrooi,Belestraat,71,51.1541903496,5.73225969792
3640,Kinrooi,Breeërsteenweg,216,51.1460086983,5.751668107
3640,Kinrooi,Honsdries,29,51.1233380718,5.7912272465
3640,Kinrooi,Zielderveld,38,51.1397348711,5.74220433098
3640,Kinrooi,Venlosesteenweg,334,51.1497649539,5.81105060532
3640,Kinrooi,Fiejestraat,18,51.1776637856,5.74142609524
3640,Kinrooi,Manestraat,15,51.1442864184,5.77192946395
3640,Kinrooi,Oude Stramproyerweg,5,51.1865550042,5.74282835978
3640,Kinrooi,Heesstraat,64,51.1492564786,5.80128638396
3640,Kinrooi,Lichtenberg,12,51.1256283376,5.77142352561
3640,Kinrooi,Stegerstraat,2,51.1253275815,5.7896586042
3640,Kinrooi,Scheyerveld,44,51.1479601216,5.73978180391
3640,Kinrooi,Donkstraat,32,51.128235808,5.79356829805
3640,Kinrooi,Schansstraat,37,51.1393683965,5.73569841207
3640,Kinrooi,Esserstraat,13,51.1492774646,5.73896030313
3640,Kinrooi,Weertersteenweg,491,51.1819786255,5.72575844912
3640,Kinrooi,Venlosesteenweg,316,51.1477112129,5.81013024407
3640,Kinrooi,Kasteelstraat,18,51.1579077044,5.80841121133
3640,Kinrooi,Venlosesteenweg,180,51.1335167841,5.80526738446
3640,Kinrooi,Heidestraat,9,51.135193559,5.79569245089
3640,Kinrooi,Geistingen,51A,51.1343662267,5.8096868117
3640,Kinrooi,Slichtestraat,9,51.1682197572,5.73599909317
3640,Kinrooi,Merrenhofstraat,12,51.1266716935,5.79993603215
3640,Kinrooi,Bosstraatje,6F,51.1466794989,5.81146753222
3640,Kinrooi,Hezerstraat,54,51.1618990892,5.74661188223
3640,Kinrooi,Manestraat,1,51.1611936374,5.75674596133
3640,Kinrooi,Meierstraat,43,51.1499116113,5.81721309204
3640,Kinrooi,Haansberg,6,51.1255342449,5.80803075207
3640,Kinrooi,Kleine Kasteelstraat,7,51.1570638942,5.81130278907
3640,Kinrooi,Rondstraat,34,51.1705593785,5.74437541315
3640,Kinrooi,Natterveld,35,51.1411132884,5.74465411127
3640,Kinrooi,Lemmensstraat,26,51.1472538711,5.72786146021
3640,Kinrooi,Fosheistraat,27,51.1742021941,5.72721663638
3640,Kinrooi,Grootbroekstraat,27A,51.1628148359,5.71980751108
3640,Kinrooi,Dwarsstraat,11A,51.1356222401,5.8019489103
3640,Kinrooi,Rondstraat,48,51.1722494747,5.74390069832
3640,Kinrooi,Leustraat,52,51.1249947216,5.79220362038
3640,Kinrooi,Teunestraat,69A,51.1822684242,5.75278316907
3640,Kinrooi,Rondstraat,16,51.168103509,5.74129008563
3640,Kinrooi,Letterveld,37,51.1303510981,5.79853469225
3640,Kinrooi,Molenweg,26,51.1435000298,5.73301774871
3640,Kinrooi,Middelweg,5,51.133877119,5.77497943359
3640,Kinrooi,Veldstraat,27,51.1523184656,5.81823383399
3640,Kinrooi,Grootbroekstraat,4,51.1679792069,5.72912686989
3640,Kinrooi,Dwarsstraat,24,51.1356620046,5.80226479296
3640,Kinrooi,Meierstraat,61,51.1489246388,5.81467816473
3640,Kinrooi,Oud Kevelaer,10,51.1698943112,5.73216227304
3640,Kinrooi,Schansstraat,19,51.1407611219,5.73484771351
3640,Kinrooi,Greuwkensveld,4,51.1706566658,5.74215072047
3640,Kinrooi,Breeërsteenweg,96,51.1433021413,5.78567315088
3640,Kinrooi,Weertersteenweg,372,51.170391684,5.73734790916
3640,Kinrooi,Leuerbroek,1046,51.1371258465,5.74797306809
3640,Kinrooi,Lichtenberg,9A,51.1257404659,5.7777790419
3640,Kinrooi,Rondstraat,9,51.1683115643,5.74002726049
3640,Kinrooi,Weertersteenweg,326,51.1661315815,5.74013320108
3640,Kinrooi,Fiejestraat,4,51.1771494663,5.74352727232
3640,Kinrooi,Weertersteenweg,409,51.173033999,5.73405282059
3640,Kinrooi,Heesstraat,18,51.1489709949,5.80742228604
3640,Kinrooi,Haexkamp,22,51.1331207391,5.80820374776
3640,Kinrooi,Zorgvlietstraat,14,51.1696838832,5.73463245261
3640,Kinrooi,Schoolstraat,44,51.1472046107,5.78921958248
3640,Kinrooi,Dorpsstraat,5,51.1520133805,5.82321256358
3640,Kinrooi,Kaltissenstraat,2,51.1480029945,5.76501037818
3640,Kinrooi,Breeërsteenweg,244,51.1460474932,5.74593083663
3640,Kinrooi,Molenweg,7,51.1439004583,5.73596805106
3640,Kinrooi,Hezerstraat,26,51.1632770369,5.7430317314
3640,Kinrooi,Fosheistraat,106,51.1771123824,5.71234441863
3640,Kinrooi,Toekomststraat,13,51.1533937016,5.81646230407
3640,Kinrooi,Basdonkstraat,10,51.1354362946,5.72136309622
3640,Kinrooi,Bijhoevenweg,2,51.1486154872,5.79678346679
3640,Kinrooi,Vlasvenstraat,4,51.1717540022,5.73151575256
3640,Kinrooi,Weertersteenweg,427,51.1755778312,5.72991096676
3640,Kinrooi,Breeërsteenweg,340,51.14603602,5.73252402171
3640,Kinrooi,Vroenhof,27,51.1329090808,5.81253065163
3640,Kinrooi,Weertersteenweg,189,51.148710582,5.74123878289
3640,Kinrooi,Breeërsteenweg,280,51.1457454277,5.74055987612
3640,Kinrooi,Weertersteenweg,308,51.1641323341,5.74107903729
3640,Kinrooi,Weertersteenweg,3,51.1248578685,5.76427047112
3640,Kinrooi,Hoofstraat,1,51.1649376971,5.72188392804
3640,Kinrooi,Winkelstraat,3,51.1681191748,5.72911193295
3640,Kinrooi,Venlosesteenweg,352,51.1515382622,5.81125921857
3640,Kinrooi,Donkstraat,67,51.1275877516,5.78852438922
3640,Kinrooi,Heesstraat,36,51.1492600607,5.8051031323
3640,Kinrooi,Kloosterstraat,3,51.1436977654,5.7409900583
3640,Kinrooi,Maasstraat,35,51.1267467137,5.80598691904
3640,Kinrooi,Veldstraat,47,51.1523369654,5.8143588962
3640,Kinrooi,Hezerstraat,7,51.1649886865,5.74200274858
3640,Kinrooi,Lakerweg,46,51.1466575907,5.77617161326
3640,Kinrooi,Sweversveld,68,51.150884473,5.81358945957
3640,Kinrooi,Hogerstraat,30,51.1773453574,5.73767880238
3640,Kinrooi,Groezenstraat,7,51.1630174607,5.7586336536
3640,Kinrooi,Natterveld,53,51.1416283919,5.74729063115
3640,Kinrooi,Venlosesteenweg,83,51.1256570134,5.80174449707
3640,Kinrooi,Breeërsteenweg,329,51.1453536818,5.73358774571
3640,Kinrooi,Venlosesteenweg,269,51.1440875693,5.80795780947
3640,Kinrooi,Broekstraat,28,51.1474947221,5.72139967257
3640,Kinrooi,Dorpsstraat,11A,51.151474497,5.8233440061
3640,Kinrooi,Neeroetersesteenweg,82,51.1378059696,5.7382269074
3640,Kinrooi,Smeetsstraat,62,51.1730927082,5.74459827874
3640,Kinrooi,Weertersteenweg,201,51.1497330308,5.74143222968
3640,Kinrooi,Venlosesteenweg,216,51.1372448475,5.8063569843
3640,Kinrooi,Teunestraat,52,51.1783096324,5.74748998407
3640,Kinrooi,Dikke Linde,20A,51.1218811977,5.79595039731
3640,Kinrooi,Venlosesteenweg,287,51.1461342302,5.80873785572
3640,Kinrooi,Zielderveld,6,51.1387005877,5.74053992179
3640,Kinrooi,Torenweg,4,51.1350566383,5.8005810339
3640,Kinrooi,Merrenhofstraat,30,51.1285111246,5.79878724997
3640,Kinrooi,Molenwegske,14,51.1517663736,5.81502451364
3640,Kinrooi,Vlasvenstraat,18,51.1742342444,5.73026376128
3640,Kinrooi,Bosstraatje,8,51.145884853,5.81163578292
3640,Kinrooi,Neeroetersesteenweg,64,51.1391702268,5.73920268219
3640,Kinrooi,Leustraat,5,51.1271808788,5.79746951984
3640,Kinrooi,Breeërsteenweg,262,51.1464558001,5.74358226544
3640,Kinrooi,Lemmensstraat,7,51.147126684,5.73114087493
3640,Kinrooi,Geistingen,61,51.1350995517,5.81065213518
3640,Kinrooi,Hogerstraat,12,51.1741727609,5.7370973052
3640,Kinrooi,Oudekerkstraat,41,51.1679963565,5.73143558929
3640,Kinrooi,Baekhoven,25,51.1291499766,5.80012886797
3640,Kinrooi,Eikelenbosstraat,8,51.1726911181,5.70828420248
3640,Kinrooi,Toekomststraat,36,51.1547636488,5.81390255263
3640,Kinrooi,Zandbosstraat,39,51.1707309251,5.72642985339
3640,Kinrooi,Drietak,89,51.142192416,5.78671763692
3640,Kinrooi,Nieuwkamp,7,51.133017436,5.80616951935
3640,Kinrooi,Smeetsstraat,95,51.1749051852,5.74889703674
3640,Kinrooi,Bomerstraat,37,51.1543681536,5.73546303803
3640,Kinrooi,Breeërsteenweg,15,51.1471984394,5.80833073785
3640,Kinrooi,Greuwkensstraat,8,51.16998481,5.74056035995
3640,Kinrooi,Langvenstraat,10,51.1443705011,5.78196696959
3640,Kinrooi,Geistingen,81,51.1356819094,5.81341048923
3640,Kinrooi,Fiejestraat,9,51.1774140813,5.74317665358
3640,Kinrooi,Maasstraat,51,51.1266086872,5.8077655548
3640,Kinrooi,Bosweg,1,51.1389963501,5.78878146925
3640,Kinrooi,Letterveld,30,51.1309862676,5.79962434242
3640,Kinrooi,Nagelstraat,5,51.1291033672,5.79745561918
3640,Kinrooi,Geerenstraat,10,51.1666353968,5.72937409615
3640,Kinrooi,Zielderveld,11,51.138632636,5.74139649898
3640,Kinrooi,Haexkamp,7,51.1339810993,5.80771900125
3640,Kinrooi,Venlosesteenweg,226,51.1387374894,5.80697129427
3640,Kinrooi,Zandveldstraat,22,51.1702621471,5.73322365655
3640,Kinrooi,Smeetsstraat,77,51.1742983804,5.74630095979
3640,Kinrooi,Vroenhof,33,51.132710776,5.81329969572
3640,Kinrooi,Letterveld,12,51.1312824326,5.8021323311
3640,Kinrooi,Donkstraat,54,51.1277380215,5.79057305024
3640,Kinrooi,Breivinstraat,3A,51.1756032076,5.7214620742
3640,Kinrooi,Veldstraat,22,51.1529055842,5.81964155919
3640,Kinrooi,Rondstraat,26A,51.1694614836,5.74373700707
3640,Kinrooi,Heikempstraat,1121,51.1805742565,5.72084088121
3640,Kinrooi,Hezerstraat,14,51.164503489,5.74245860028
3640,Kinrooi,Kampstraat,2,51.1478947325,5.73502620627
3640,Kinrooi,Looverstraat,4,51.174607629,5.75455122347
3640,Kinrooi,Geistingen,63,51.1351783883,5.81093964971
3640,Kinrooi,Neeroetersesteenweg,102,51.1336396728,5.73495269599
3640,Kinrooi,Scheurestraat,18,51.1725671436,5.73770118385
3640,Kinrooi,Winkeldervenstraat,15B,51.1745661155,5.72173676302
3640,Kinrooi,Donkstraat,121,51.1300771376,5.778425136
3640,Kinrooi,Schoorstraat,14,51.1524767884,5.82369745583
3640,Kinrooi,Breeërsteenweg,108,51.1435557203,5.78207135988
3640,Kinrooi,Basdonkstraat,14B,51.135357417,5.71617431878
3640,Kinrooi,Hoogveldstraat,28,51.1530802864,5.80742974208
3640,Kinrooi,Meierstraat,25,51.14958674,5.81981455059
3640,Kinrooi,Honsdries,20,51.1228464116,5.79342958036
3640,Kinrooi,Leuerbroek,1038,51.1376007804,5.74750566186
3640,Kinrooi,Vlasvenstraat,13,51.1735901542,5.7305012391
3640,Kinrooi,Fabrieksstraat,2,51.1511004734,5.81410632055
3640,Kinrooi,Belestraat,71A,51.154305432,5.73189324156
3640,Kinrooi,Schansstraat,12,51.1408676789,5.73396820905
3640,Kinrooi,Weertersteenweg,359,51.1689043104,5.73738349602
3640,Kinrooi,Hezerstraat,49,51.1626429503,5.7466104004
3640,Kinrooi,Uffelseweg,7,51.174448035,5.75945305277
3640,Kinrooi,Steyvershofstraat,3,51.1332707147,5.75821636109
3640,Kinrooi,Zielderveld,99,51.138550197,5.74406682591
3640,Kinrooi,Hurkenstraat,5,51.1703629768,5.73055690252
3640,Kinrooi,Processieweg,36,51.1427026879,5.7336242816
3640,Kinrooi,Breeërsteenweg,126,51.143824084,5.77808823401
3640,Kinrooi,Drietak,48,51.138145249,5.79435547393
3640,Kinrooi,Scheurestraat,36,51.1744946685,5.73380725551
3640,Kinrooi,Hogekamp,7,51.1299345635,5.79935850343
3640,Kinrooi,Processieweg,18,51.1433081512,5.7359399833
3640,Kinrooi,Lichtenberg,12A,51.1258085809,5.77103905577
3640,Kinrooi,Kromstraat,1,51.1291670096,5.78698403573
3640,Kinrooi,Klimstraat,7,51.1371221816,5.80740711586
3640,Kinrooi,Geistingen,45,51.1339952275,5.80903634219
3640,Kinrooi,Weertersteenweg,450,51.1782053216,5.72841578969
3640,Kinrooi,Winkeldervenstraat,7,51.1732690618,5.72311394571
3640,Kinrooi,Vlasbrei,2A,51.1696543661,5.7445895392
3640,Kinrooi,Leustraat,16,51.1270938579,5.79592469854
3640,Kinrooi,Venderstraat,29,51.1675563533,5.73433165163
3640,Kinrooi,Venlosesteenweg,189,51.1344905311,5.80457329741
3640,Kinrooi,Meierstraat,78,51.1481961876,5.81252426365
3640,Kinrooi,Breeërsteenweg,33,51.1467455157,5.80540938177
3640,Kinrooi,Natterveld,68,51.1401845305,5.74573871965
3640,Kinrooi,Keyersveld,1,51.1606728928,5.77179429311
3640,Kinrooi,Geistingen,17,51.1319836238,5.80720263032
3640,Kinrooi,Simpelstraat,6,51.1431380419,5.72542105553
3640,Kinrooi,Kloosterstraat,10,51.1441225628,5.74016187999
3640,Kinrooi,Zielderveld,46,51.1393190507,5.74272356917
3640,Kinrooi,Eikelenbosstraat,5A,51.1681220881,5.70925292429
3640,Kinrooi,Hogekamp,18,51.1294629155,5.79905572256
3640,Kinrooi,Sevensstraat,34,51.1509040345,5.74579597898
3640,Kinrooi,Kruisstraat,8,51.1446219402,5.72860820441
3640,Kinrooi,Winkelstraat,10,51.1690998715,5.72336141399
3640,Kinrooi,Natterveld,3,51.1431545673,5.74354677447
3640,Kinrooi,Borgstraat,6,51.1507792272,5.82358106784
3640,Kinrooi,Donkstraat,26,51.1283588963,5.79438573062
3640,Kinrooi,Neeroetersesteenweg,38,51.141517931,5.74067945189
3640,Kinrooi,Kasteelstraat,13,51.1572868781,5.80890129828
3640,Kinrooi,Breeërsteenweg,43,51.1460374134,5.80224812797
3640,Kinrooi,Fabrieksstraat,9B,51.1529761251,5.81357044582
3640,Kinrooi,Venlosesteenweg,254,51.141448223,5.80802835605
3640,Kinrooi,Esserstraat,18,51.1478889624,5.73678869037
3640,Kinrooi,Huikensstraat,3,51.1345434626,5.80185477839
3640,Kinrooi,Oud Kevelaer,63,51.169613851,5.73099949744
3640,Kinrooi,Weertersteenweg,144,51.1441270558,5.74431632509
3640,Kinrooi,Fosheistraat,68,51.1755194104,5.72045051366
3640,Kinrooi,Breeërsteenweg,297,51.145454943,5.73775156274
3640,Kinrooi,Breivinstraat,3,51.1755112378,5.72223870866
3640,Kinrooi,Venlosesteenweg,272,51.1445076076,5.80907671844
3640,Kinrooi,Leustraat,34,51.1265194514,5.79400782866
3640,Kinrooi,Heesstraat,66,51.1492600966,5.80100318827
3640,Kinrooi,Dorpsplein,5,51.1447851319,5.74157699923
3640,Kinrooi,Weertersteenweg,269,51.1597431104,5.74174157256
3640,Kinrooi,Schoolstraat,24,51.1482988246,5.79059977422
3640,Kinrooi,Groezenstraat,14,51.1633794166,5.76151521943
3640,Kinrooi,Esserstraat,16A,51.148294386,5.73720236274
3640,Kinrooi,Fiejestraat,13,51.1772621266,5.74232890969
3640,Kinrooi,Dikke Linde,5,51.1239464716,5.79707126814
3640,Kinrooi,Berkenstraat,21,51.171422142,5.73470007969
3640,Kinrooi,Bouwensstraat,6,51.169206426,5.74018312065
3640,Kinrooi,Belestraat,61,51.153510925,5.73072971982
3640,Kinrooi,Tongerloseweg,2,51.1450030443,5.71721954828
3640,Kinrooi,Molenweg,14,51.143910652,5.73458358742
3640,Kinrooi,Schoolstraat,59,51.1451585457,5.7882457294
3640,Kinrooi,Vlasvenstraat,9,51.1722852108,5.73044198056
3640,Kinrooi,Helmuskesstraat,2,51.1838126742,5.72484341434
3640,Kinrooi,Hogerstraat,19,51.1752378725,5.73696822796
3640,Kinrooi,Goortweg,6,51.1475665978,5.7410983725
3640,Kinrooi,Lemmensstraat,32,51.1472787991,5.72710207851
3640,Kinrooi,Weertersteenweg,377,51.1706098171,5.7363133907
3640,Kinrooi,Binnenweg,60,51.1468645096,5.7219409782
3640,Kinrooi,Leeuwerkstraat,1,51.1709187387,5.73400492796
3640,Kinrooi,Molenweg,32,51.1431762262,5.73242489066
3640,Kinrooi,Dorpsstraat,16,51.1511971951,5.82280746172
3640,Kinrooi,Hoogstraat,25,51.1486410497,5.73009162398
3640,Kinrooi,Veldstraat,57,51.1520295304,5.8123955497
3640,Kinrooi,Fabrieksstraat,2A,51.1513286535,5.81388567311
3640,Kinrooi,Breeërsteenweg,312,51.1458518431,5.73602421025
3640,Kinrooi,Bongertestraat,5,51.1261990009,5.79781408116
3640,Kinrooi,Teunestraat,69,51.1822787501,5.7536889137
3640,Kinrooi,De Belder,46A,51.1243444291,5.79250309755
3640,Kinrooi,Scheyerveld,46,51.1482338934,5.74018220108
3640,Kinrooi,Zielderveld,100,51.1382486259,5.74316007541
3640,Kinrooi,Reystraat,21,51.1237871389,5.78943015586
3640,Kinrooi,Geistingen,35,51.1330334654,5.80847440649
3640,Kinrooi,Breeërsteenweg,330,51.1458709649,5.73344879623
3640,Kinrooi,Truyenstraat,20,51.173702283,5.73797575843
3640,Kinrooi,Kelderbergstraat,4,51.1817056418,5.73904133462
3640,Kinrooi,Oudekerkstraat,34A,51.1685950102,5.73195685224
3640,Kinrooi,Vlasbrei,2,51.1696243413,5.74431938448
3640,Kinrooi,Keyersstraat,2,51.1630060018,5.77141835054
3640,Kinrooi,Weertersteenweg,45,51.135432937,5.75617928503
3640,Kinrooi,Hagendorenstraat,10,51.1417404927,5.73970817131
3640,Kinrooi,Geistingen,98,51.1354954033,5.81575382177
3640,Kinrooi,Vijverbroekstraat,8,51.1532863798,5.82181427359
3640,Kinrooi,Teunestraat,16,51.1754616838,5.74464484148
3640,Kinrooi,Kampstraat,41,51.1504328653,5.72808854337
3640,Kinrooi,Verbindingsstraat,1B,51.1371245697,5.79256975001
3640,Kinrooi,Smeetsstraat,59,51.1731945018,5.74340771092
3640,Kinrooi,Lemmensstraat,14,51.1474693212,5.7298381908
3640,Kinrooi,Weertersteenweg,395,51.1716852169,5.73574629318
3640,Kinrooi,De Belder,20B,51.1245675276,5.79743485235
3640,Kinrooi,Hurkenstraat,16,51.1697255244,5.72808942138
3640,Kinrooi,Schuttersstraat,5,51.1704998871,5.73510851816
3640,Kinrooi,Oudekerkstraat,2,51.1699033356,5.73630912553
3640,Kinrooi,Fosheistraat,129,51.1785645441,5.70595407279
3640,Kinrooi,Oudekerkstraat,18,51.1689562655,5.73401513495
3640,Kinrooi,Zandbosstraat,22,51.1714039725,5.73100572438
3640,Kinrooi,Hofstraat,3,51.1469253418,5.79907413532
3640,Kinrooi,Lemmensstraat,42,51.1469064705,5.72559833976
3640,Kinrooi,Stalsstraat,4,51.1781293655,5.74338223457
3640,Kinrooi,Putstraatje,2,51.1262606048,5.80365389803
3640,Kinrooi,Truyenstraat,55,51.1757747062,5.74328767167
3640,Kinrooi,Steyvershofstraat,14,51.1318551662,5.75331900583
3640,Kinrooi,Leustraat,44,51.1256203625,5.79299274592
3640,Kinrooi,Venlosesteenweg,40,51.123047567,5.80250515414
3640,Kinrooi,Heibroekstraat,1A,51.1778503337,5.71795234783
3640,Kinrooi,Daalstraat,7,51.1347747533,5.80802239518
3640,Kinrooi,Landweg,14A,51.1224835698,5.79327251061
3640,Kinrooi,Eikelenbosstraat,1,51.1640322762,5.71895084236
3640,Kinrooi,Breeërsteenweg,383,51.1455752718,5.72463119634
3640,Kinrooi,Zielderveld,28,51.1397109392,5.74126357511
3640,Kinrooi,Drietak,82,51.1423798065,5.78809791707
3640,Kinrooi,Luitestraat,18,51.1443002352,5.72434647537
3640,Kinrooi,Hagendorenstraat,45,51.1381734137,5.73626518834
3640,Kinrooi,Breeërsteenweg,208,51.1454812717,5.75198006791
3640,Kinrooi,Venlosesteenweg,15,51.1211676119,5.80002392214
3640,Kinrooi,Heerweg,11,51.1271922762,5.80905982018
3640,Kinrooi,Drietak,64,51.1395677016,5.79224097399
3640,Kinrooi,Rondstraat,24,51.1684464137,5.74296479544
3640,Kinrooi,Veldstraat,39,51.1524555392,5.81565784017
3640,Kinrooi,Fosheistraat,15,51.1744802696,5.72884723321
3640,Kinrooi,Bosstraatje,17,51.1447975243,5.8093803788
3640,Kinrooi,Meierstraat,53,51.1496572854,5.81532894758
3640,Kinrooi,Honsdries,19,51.1233791224,5.79350140482
3640,Kinrooi,Oudekerkstraat,36,51.1684882969,5.73161440408
3640,Kinrooi,Scheyerveld,28,51.1480850234,5.73909067077
3640,Kinrooi,Torenweg,2A,51.1352245605,5.80186311042
3640,Kinrooi,Landweg,9,51.1232650462,5.79163160152
3640,Kinrooi,Leuerbroek,1074,51.1365444605,5.75257739083
3640,Kinrooi,Venderstraat,12,51.1673252416,5.73661992064
3640,Kinrooi,Vijverbroekstraat,1A,51.1528788278,5.82243628982
3640,Kinrooi,Honsdries,37,51.1229759876,5.79002291579
3640,Kinrooi,Breeërsteenweg,189,51.144224992,5.76079147488
3640,Kinrooi,Grootbroekstraat,28,51.1626708075,5.71943116895
3640,Kinrooi,Donkstraat,97,51.1287084351,5.78252708156
3640,Kinrooi,Haexkamp,19,51.1332199025,5.8076290967
3640,Kinrooi,Schansstraat,29,51.1399463971,5.7352077247
3640,Kinrooi,Breeërsteenweg,101,51.1428961818,5.78431423822
3640,Kinrooi,Venderstraat,30,51.1680762855,5.73457723554
3640,Kinrooi,Klein Hoefstraat,2,51.1760400696,5.73811460481
3640,Kinrooi,Grootbeersel,5,51.1754418798,5.75507457011
3640,Kinrooi,Hoogveldstraat,11,51.152208703,5.80958627896
3640,Kinrooi,Natterveld,23,51.1407487834,5.74279894931
3640,Kinrooi,Kampstraat,31,51.1487422606,5.73033470801
3640,Kinrooi,Leuerbroek,1056,51.1361960633,5.74875826023
3640,Kinrooi,Drietak,2,51.1321717388,5.80378269308
3640,Kinrooi,Breeërsteenweg,86,51.1436970662,5.78749239089
3640,Kinrooi,Sweversveld,56,51.150286986,5.81364000459
3640,Kinrooi,Kerkhofstraat,11A,51.1468026908,5.73740017953
3640,Kinrooi,Sportstraat,9,51.1288770099,5.8018774644
3640,Kinrooi,Leustraat,62,51.124885135,5.79058604939
3640,Kinrooi,Zielderveld,92,51.1378612809,5.74277826753
3640,Kinrooi,Meierstraat,8,51.1501972561,5.8221387808
3640,Kinrooi,Vennerweg,3,51.1214290864,5.78840501284
3640,Kinrooi,Venlosesteenweg,126,51.1290055731,5.80376268392
3640,Kinrooi,Hilvenstraat,3,51.1451578461,5.72810871698
3640,Kinrooi,Teunestraat,44,51.1779683039,5.74627104079
3640,Kinrooi,Fosheistraat,61,51.1747584744,5.72184116585
3640,Kinrooi,Landweg,12,51.1225621677,5.79212418819
3640,Kinrooi,Breeërsteenweg,290,51.1457446628,5.73897022134
3640,Kinrooi,Neeroetersesteenweg,21,51.1426685016,5.74212372065
3640,Kinrooi,Drietak,36,51.1370035145,5.79631480819
3640,Kinrooi,Weertersteenweg,280,51.1613188253,5.7424664961
3640,Kinrooi,Schuttersstraat,26,51.1714259061,5.73523703182
3640,Kinrooi,Honsdries,7,51.1234568163,5.79502452672
3640,Kinrooi,Breeërsteenweg,337,51.1454624373,5.73253270364
3640,Kinrooi,Natterveld,61,51.1409987589,5.74623277712
3640,Kinrooi,Sweversveld,38,51.1499016907,5.812807731
3640,Kinrooi,Breeërsteenweg,254,51.1461543379,5.7444709752
3640,Kinrooi,Dikke Linde,16,51.1228608302,5.79577619082
3640,Kinrooi,Lakerweg,56,51.1464432513,5.77432506612
3640,Kinrooi,Heerweg,8,51.1268635923,5.80902996576
3640,Kinrooi,Teunestraat,80,51.1836015595,5.75645989417
3640,Kinrooi,Hogerstraat,20,51.1756242849,5.73796681734
3640,Kinrooi,De Belder,45,51.1239915171,5.79229047358
3640,Kinrooi,Natterveld,76,51.1395522526,5.74514529294
3640,Kinrooi,Smidsestraat,14,51.1702431822,5.7267374117
3640,Kinrooi,Kampstraat,13,51.1470876998,5.7329429504
3640,Kinrooi,Natterveld,43,51.1420652203,5.74426442718
3640,Kinrooi,Baekhoven,33,51.1295574701,5.80006549075
3640,Kinrooi,Kloosterstraat,27,51.1440660024,5.73700407921
3640,Kinrooi,Sweversveld,4,51.1517441433,5.81283915185
3640,Kinrooi,Dorpsplein,16,51.1450931244,5.74294470218
3640,Kinrooi,Weertersteenweg,360,51.1692552713,5.73825264273
3640,Kinrooi,Merrenhofstraat,22,51.1272987868,5.79843023049
3640,Kinrooi,Belestraat,33,51.1503126141,5.72567206467
3640,Kinrooi,Drietak,18,51.1345439461,5.80054173289
3640,Kinrooi,Heyerstraat,20,51.1771362164,5.73830940238
3640,Kinrooi,Venlosesteenweg,344,51.1506694799,5.81126309952
3640,Kinrooi,'t Meulke,7,51.1355360129,5.80652228433
3640,Kinrooi,Weertersteenweg,439,51.1764683522,5.72854093
3640,Kinrooi,Venlosesteenweg,297,51.146596032,5.8088877452
3640,Kinrooi,Leeuwerkstraat,8,51.1704225434,5.73361130776
3640,Kinrooi,Vroenhof,15,51.132645829,5.81059893426
3640,Kinrooi,Nieuwkamp,10,51.1326116642,5.8064306596
3640,Kinrooi,Maasstraat,23,51.1263402792,5.80482659306
3640,Kinrooi,Brenjersstraat,6,51.1358557886,5.73674173632
3640,Kinrooi,Kerkhofstraat,14,51.147505285,5.73675571891
3640,Kinrooi,Sweversveld,37A,51.150198815,5.81319014875
3640,Kinrooi,Doorslagstraat,5,51.1613616478,5.74355250636
3640,Kinrooi,Broekstraat,38,51.148861615,5.71919148081
3640,Kinrooi,Broekstraat,4,51.1463223006,5.72494075419
3640,Kinrooi,Schansstraat,40,51.1387620626,5.73469261034
3640,Kinrooi,Weertersteenweg,179,51.1475854574,5.74145554368
3640,Kinrooi,Binnenweg,32,51.148310061,5.72586755282
3640,Kinrooi,Hurkenstraat,13A,51.169750329,5.72922155971
3640,Kinrooi,Winkeldervenstraat,10,51.1737562731,5.7227342364
3640,Kinrooi,De Belder,10,51.1253385683,5.79937556834
3640,Kinrooi,Heidestraat,59,51.13554825,5.78794109805
3640,Kinrooi,Grootbeersel,26,51.1778861111,5.76859753087
3640,Kinrooi,Zielderveld,107,51.1391436054,5.74447844529
3640,Kinrooi,Weertersteenweg,197,51.1494031535,5.74160463074
3640,Kinrooi,Letterveld,40,51.130796351,5.79780361936
3640,Kinrooi,Hagendorenstraat,27,51.1396313343,5.73801822046
3640,Kinrooi,Teunestraat,62,51.1794157036,5.74882697272
3640,Kinrooi,Baekhoven,15,51.1286576592,5.80024036497
3640,Kinrooi,Kasteelstraat,9,51.1560768167,5.80927425275
3640,Kinrooi,Veldstraat,50,51.1528871193,5.81400369209
3640,Kinrooi,Schoolstraat,52,51.1466116366,5.78880676034
3640,Kinrooi,Weertersteenweg,244,51.1563661642,5.74240418885
3640,Kinrooi,Reystraat,38,51.1227327586,5.78671063146
3640,Kinrooi,Kasteelstraat,17A,51.1576931191,5.80861646655
3640,Kinrooi,Hagerweg,1,51.1353386533,5.734835227
3640,Kinrooi,Grootbeersel,16,51.1771969213,5.75957706048
3640,Kinrooi,Neeroetersesteenweg,74,51.138388832,5.73868129306
3640,Kinrooi,Smeetsstraat,67,51.1737097182,5.74499760593
3640,Kinrooi,Langvenstraat,20,51.1440133802,5.78091067536
3640,Kinrooi,Maasstraat,61,51.1265334062,5.80924823165
3640,Kinrooi,Klein Hoefstraat,11,51.176567831,5.74041843792
3640,Kinrooi,Grote Kerkstraat,15,51.144402518,5.74134450166
3640,Kinrooi,Schoorstraat,10A,51.1528311537,5.82446557518
3640,Kinrooi,Binnenweg,52,51.1471876284,5.72297401542
3640,Kinrooi,Oudekerkstraat,9,51.169036837,5.73596283744
3640,Kinrooi,Weertersteenweg,369,51.1696272219,5.73704849167
3640,Kinrooi,Hoogveldstraat,36,51.1530976517,5.80636643019
3640,Kinrooi,Bomerstraat,27,51.1540292753,5.73697140748
3640,Kinrooi,Makkestraat,25,51.1625779328,5.72939460693
3640,Kinrooi,Doorslagstraat,16D,51.1631157932,5.74375389316
3640,Kinrooi,Maasstraat,43,51.1264465514,5.8066484562
3640,Kinrooi,Venlosesteenweg,93,51.1262724532,5.80188110795
3640,Kinrooi,Veldstraat,12,51.152876868,5.82079199872
3640,Kinrooi,Heyerstraat,7,51.1754217178,5.73892938692
3640,Kinrooi,Neeroetersesteenweg,56,51.1398370804,5.73962383279
3640,Kinrooi,Letterveld,22,51.1314874696,5.80055859821
3640,Kinrooi,Lakerweg,2,51.1568101484,5.79840796719
3640,Kinrooi,Schurenbeemdstraat,5,51.1744633954,5.73541453947
3640,Kinrooi,Goorterstraat,1,51.1540204486,5.75484319921
3640,Kinrooi,Fabrieksstraat,1A,51.1505768488,5.81488630465
3640,Kinrooi,Kerkstraat,12,51.1508645763,5.82447513707
3640,Kinrooi,Haexkamp,10,51.133624201,5.8074373636
3640,Kinrooi,Hezerstraat,24,51.1634125498,5.74287458323
3640,Kinrooi,Weertersteenweg,387,51.1712296619,5.73602810568
3640,Kinrooi,Baekhoven,3,51.1292698835,5.8016337698
3640,Kinrooi,Heikempstraat,1131,51.1790713618,5.71874628971
3640,Kinrooi,Wieljestraat,12,51.1298876006,5.80596429284
3640,Kinrooi,Reystraat,13,51.1242048522,5.78969701663
3640,Kinrooi,Sweversveld,41,51.1496295788,5.8127983112
3640,Kinrooi,Geistingen,53,51.134529508,5.80976644232
3640,Kinrooi,Toekomststraat,24A,51.1542034658,5.81508360118
3640,Kinrooi,Horkerstraat,8,51.1556893736,5.74701565946
3640,Kinrooi,Zandveldstraat,12,51.1703731656,5.7331699889
3640,Kinrooi,Belestraat,3,51.1466386758,5.71362312116
3640,Kinrooi,Donkstraat,44,51.1280325312,5.79194561237
3640,Kinrooi,Krommekamp,1,51.1390108359,5.7929415355
3640,Kinrooi,Kerkhofstraat,4,51.1462685573,5.73906764193
3640,Kinrooi,Breeërsteenweg,415,51.145578418,5.71996905098
3640,Kinrooi,Meierstraat,88,51.1479508191,5.81120308979
3640,Kinrooi,Honsdries,10,51.1234588468,5.79476743953
3640,Kinrooi,Klein Hoefstraat,9,51.1764624804,5.74020838862
3640,Kinrooi,Rondstraat,42,51.1716129788,5.74376924661
3640,Kinrooi,Grootbroekstraat,21,51.1641375734,5.7237651076
3640,Kinrooi,Dwarsstraat,7,51.1355924209,5.80298200524
3640,Kinrooi,Dorpsplein,12A,51.1457082018,5.74205951326
3640,Kinrooi,Vlasbrei,11,51.1699541932,5.7621849862
3640,Kinrooi,Oud Kevelaer,53,51.1692257713,5.73006253671
3640,Kinrooi,Kasteelstraat,21,51.1611637905,5.80292644219
3640,Kinrooi,Breeërsteenweg,118,51.1438848303,5.77979027488
3640,Kinrooi,Weertersteenweg,440,51.1768222197,5.72895285081
3640,Kinrooi,Toekomststraat,28,51.1544480939,5.81461399488
3640,Kinrooi,Zielderveld,89,51.1378316772,5.74345947103
3640,Kinrooi,Meierstraat,35,51.1496014285,5.8183783018
3640,Kinrooi,Hoeveweg,3,51.14948718,5.78648914274
3640,Kinrooi,Oudekerkstraat,46,51.1684774152,5.7306411405
3640,Kinrooi,Luitestraat,11,51.1446314973,5.72555293238
3640,Kinrooi,Weertersteenweg,277,51.160737826,5.74161385799
3640,Kinrooi,Berkenstraat,13,51.1712707809,5.73406013434
3640,Kinrooi,Bongertestraat,17,51.1256177792,5.79722739615
3640,Kinrooi,Manestraat,6,51.1570473664,5.7696113283
3640,Kinrooi,Venlosesteenweg,199,51.1354702887,5.8048474986
3640,Kinrooi,Fiejestraat,21,51.1780640771,5.7406480868
3640,Kinrooi,Heggestraat,2,51.1670320011,5.725628988
3640,Kinrooi,Schuttersstraat,16,51.1709378331,5.73557881459
3640,Kinrooi,Aan de Maas,1,51.1326520045,5.83957905649
3640,Kinrooi,Fosheistraat,43,51.1742398307,5.72476419102
3640,Kinrooi,Oudekerkstraat,11,51.1690337784,5.73569133759
3640,Kinrooi,Natterveld,58,51.1415098523,5.74613267016
3640,Kinrooi,Esserstraat,8,51.1491935333,5.74065136132
3640,Kinrooi,Venlosesteenweg,72A,51.1251576116,5.80230549395
3640,Kinrooi,Driessenstraat,8,51.1493850377,5.77053186147
3640,Kinrooi,Hunselerstraat,5,51.1784430802,5.75849731629
3640,Kinrooi,Smeetsstraat,14,51.1703947848,5.73890944175
3640,Kinrooi,Weertersteenweg,259,51.1589471209,5.74150227077
3640,Kinrooi,Kampstraat,48,51.1510758876,5.72781123789
3640,Kinrooi,Lichtenberg,7,51.1237319647,5.77751329143
3640,Kinrooi,Nieuwkamp,19,51.1320221703,5.80602456906
3640,Kinrooi,Venlosesteenweg,423,51.158434098,5.81258253822
3640,Kinrooi,Zorgvlietstraat,5,51.1699214617,5.73373349937
3640,Kinrooi,Sweversveld,31,51.1497506528,5.81241840157
3640,Kinrooi,Winkeldervenstraat,19,51.1741232862,5.71978837997
3640,Kinrooi,Oud Kevelaer,5,51.1703898581,5.7312112063
3640,Kinrooi,Hogerstraat,27,51.1768934205,5.73657799849
3640,Kinrooi,Weertersteenweg,412,51.1736150954,5.73436557722
3640,Kinrooi,Zielderveld,1,51.1383022402,5.73958805045
3640,Kinrooi,Weertersteenweg,334,51.1670658945,5.73916043507
3640,Kinrooi,Grensstraat,6,51.1399948084,5.78921499353
3640,Kinrooi,Geistingen,27,51.1325749078,5.80752062816
3640,Kinrooi,Hogerstraat,7,51.1742587489,5.73637989489
3640,Kinrooi,Broekstraat,26A,51.1473664564,5.72316072666
3640,Kinrooi,De Belder,17,51.1254587153,5.79899465139
3640,Kinrooi,Venlosesteenweg,389,51.1549673856,5.81138851706
3640,Kinrooi,Reystraat,31,51.1233479259,5.78820119746
3640,Kinrooi,Daalstraat,10,51.1342652826,5.80724749269
3640,Kinrooi,Heesstraat,56,51.1492629951,5.80228945004
3640,Kinrooi,Hagendorenstraat,47,51.1379014228,5.73608230794
3640,Kinrooi,Smeetsstraat,103,51.1749854051,5.75021659432
3640,Kinrooi,Breeërsteenweg,237,51.1450381433,5.74636384687
3640,Kinrooi,Venlosesteenweg,326,51.1489002409,5.81044197885
3640,Kinrooi,Weertersteenweg,152,51.1447186575,5.7437107545
3640,Kinrooi,Raamdijk,2,51.1342847486,5.74623501939
3640,Kinrooi,Heinestraat,1,51.1365416039,5.76358927192
3640,Kinrooi,Venlosesteenweg,405,51.1563982067,5.81218873348
3640,Kinrooi,Venlosesteenweg,3,51.1202544287,5.8000485052
3640,Kinrooi,Molenweg,24,51.1434779675,5.73351832318
3640,Kinrooi,Weertersteenweg,465,51.1795484413,5.72674359054
3640,Kinrooi,Toekomststraat,8,51.1537385671,5.81740020272
3640,Kinrooi,Huikensstraat,1B,51.1347248863,5.80374785285
3640,Kinrooi,Hagendorenstraat,20,51.140510745,5.73777119902
3640,Kinrooi,Kleine Scheurestraat,5,51.1716495694,5.73726325772
3640,Kinrooi,Kasteelstraat,2,51.1558750302,5.81105159798
3640,Kinrooi,Geistingen,88,51.1352900744,5.81457255376
3640,Kinrooi,Heesstraat,74,51.1496390479,5.79650731895
3640,Kinrooi,Weertersteenweg,170,51.1464341062,5.74270489953
3640,Kinrooi,Breeërsteenweg,302,51.1459272937,5.73688298362
3640,Kinrooi,Keunenstraat,8,51.1464672157,5.72742591896
3640,Kinrooi,Merrenhofstraat,3,51.1258967272,5.8012462421
3640,Kinrooi,Heesstraat,21,51.148492288,5.80668255033
3640,Kinrooi,Lemmensstraat,24,51.1472580236,5.72812528892
3640,Kinrooi,Weertersteenweg,430,51.1760415069,5.73063859269
3640,Kinrooi,Pastorijstraat,2,51.1322145726,5.81039200327
3640,Kinrooi,Breeërsteenweg,289,51.1454283733,5.73917275249
3640,Kinrooi,Heidestraat,49,51.1359054493,5.78959771848
3640,Kinrooi,Rondstraat,32,51.1702106334,5.74411473316
3640,Kinrooi,Breeërsteenweg,373,51.1455253427,5.72700216923
3640,Kinrooi,Venlosesteenweg,201,51.1359133821,5.80523480962
3640,Kinrooi,Kleine Kasteelstraat,5,51.1569880143,5.81153090115
3640,Kinrooi,Heinestraat,18,51.1419467064,5.7710673766
3640,Kinrooi,Fosheistraat,25,51.1742500941,5.72747588502
3640,Kinrooi,Bekerstraat,3,51.1690807454,5.76924636793
3640,Kinrooi,Breeërsteenweg,391,51.1453847867,5.72369865023
3640,Kinrooi,Natterveld,33,51.1409486743,5.74453878807
3640,Kinrooi,Natterveld,15,51.1418257803,5.74249265749
3640,Kinrooi,Dwarsstraat,26,51.1356438193,5.80194871535
3640,Kinrooi,Processieweg,11,51.1429817964,5.7369800163
3640,Kinrooi,Smeetsstraat,60,51.1728483581,5.7444670822
3640,Kinrooi,Hoogveldstraat,8,51.153006802,5.81015070439
3640,Kinrooi,Schansstraat,3,51.1419997788,5.73436718196
3640,Kinrooi,Veldstraat,29,51.1523181333,5.8178144089
3640,Kinrooi,Truyenstraat,45,51.1752167263,5.74132991422
3640,Kinrooi,Leustraat,54,51.1249478903,5.79192732036
3640,Kinrooi,Letterveld,39,51.1303087227,5.7983740815
3640,Kinrooi,Hoverstraat,4,51.1455175848,5.75357463279
3640,Kinrooi,Kampstraat,9,51.1469822328,5.73355032355
3640,Kinrooi,Breeërsteenweg,94,51.143613035,5.78586695741
3640,Kinrooi,Venlosesteenweg,50,51.1236608195,5.80222268728
3640,Kinrooi,Breeërsteenweg,111,51.1430228894,5.78156658353
3640,Kinrooi,Meierstraat,63,51.1487392504,5.81457608075
3640,Kinrooi,Broekstraat,27A,51.1477969242,5.72232863006
3640,Kinrooi,Horkerstraat,1,51.1538612521,5.7425883421
3640,Kinrooi,Binnenweg,59,51.1463934582,5.72244758025
3640,Kinrooi,Hoogstraat,17,51.1488306332,5.72858088955
3640,Kinrooi,Hoverstraat,2B,51.145480786,5.75314047367
3640,Kinrooi,Venlosesteenweg,164,51.1320533542,5.80478569554
3640,Kinrooi,Breeërsteenweg,218,51.145536714,5.75079341902
3640,Kinrooi,Fiejestraat,2,51.1769662054,5.74371623862
3640,Kinrooi,Rondstraat,14,51.167720119,5.74128681402
3640,Kinrooi,Donkstraat,34,51.1281969386,5.79328807692
3640,Kinrooi,Fabrieksstraat,9,51.1521464952,5.8141946087
3640,Kinrooi,Weertersteenweg,352A,51.1686662393,5.73839994097
3640,Kinrooi,Donkstraat,138,51.1319967038,5.77577882896
3640,Kinrooi,Honsdries,27,51.1227713006,5.79162370061
3640,Kinrooi,Zielderveld,36,51.1400773235,5.74218753952
3640,Kinrooi,Sevensstraat,26,51.1503799635,5.74495131407
3640,Kinrooi,Makkestraat,6,51.1648651286,5.7360666497
3640,Kinrooi,Zielderveld,82,51.1374677877,5.74226810238
3640,Kinrooi,Rondstraat,37A,51.1709902628,5.74324193979
3640,Kinrooi,Bredenreinstraat,3,51.1730008561,5.7454364713
3640,Kinrooi,Drietak,92,51.1428605396,5.78684769476
3640,Kinrooi,Schoorstraat,5,51.1527552308,5.82547444533
3640,Kinrooi,Toekomststraat,11,51.1533488036,5.81683158822
3640,Kinrooi,Zielderveld,18,51.1389256419,5.7414492724
3640,Kinrooi,Stegerstraat,4,51.1254909626,5.78962657315
3640,Kinrooi,Schansstraat,39,51.1392218311,5.73580144332
3640,Kinrooi,Krommekamp,8,51.139632083,5.79340179483
3640,Kinrooi,Neeroetersesteenweg,13,51.1433861164,5.74223801806
3640,Kinrooi,Zielderveld,64,51.138030193,5.74243984236
3640,Kinrooi,Kasteelstraat,1A,51.1552230962,5.81147462027
3640,Kinrooi,Scheyerveld,36,51.1479522402,5.7378825571
3640,Kinrooi,Driessenstraat,1,51.1449840214,5.76362416603
3640,Kinrooi,Venlosesteenweg,23,51.1219428172,5.80019725102
3640,Kinrooi,Leuerbroek,1031,51.137562018,5.74916718309
3640,Kinrooi,Weertersteenweg,352,51.1685950495,5.73850738645
3640,Kinrooi,Esserstraat,1,51.1504428469,5.74033859369
3640,Kinrooi,Heikempstraat,1203,51.1786045281,5.72486305095
3640,Kinrooi,Oudekerkstraat,28,51.1685160932,5.73288144826
3640,Kinrooi,Hezerstraat,52,51.161948234,5.74636812848
3640,Kinrooi,Letterveld,3,51.1307061724,5.80300308776
3640,Kinrooi,Merrenhofstraat,14,51.1266486912,5.79888265664
3640,Kinrooi,Sweversveld,66,51.1510926742,5.81342179695
3640,Kinrooi,Kessenicherweg,18,51.1358737988,5.8108142312
3640,Kinrooi,Leuerbroek,1013,51.1386059869,5.74924192508
3640,Kinrooi,Groezenstraat,5,51.1623050676,5.75687024372
3640,Kinrooi,Leustraat,26,51.126950637,5.79509281024
3640,Kinrooi,Hogerstraat,13A,51.174633142,5.73674054388
3640,Kinrooi,Natterveld,51,51.1416760202,5.74589919169
3640,Kinrooi,Belestraat,23,51.148022524,5.72059253158
3640,Kinrooi,Oudekerkstraat,48,51.1684853835,5.73046477288
3640,Kinrooi,Greuwkensveld,6,51.1707344514,5.74238067198
3640,Kinrooi,Breeërsteenweg,146,51.144403325,5.77361119098
3640,Kinrooi,Sweversveld,13,51.151201038,5.81256733108
3640,Kinrooi,Hagendorenstraat,19,51.1402355703,5.73880751475
3640,Kinrooi,Fosheistraat,71,51.1748666067,5.72029673337
3640,Kinrooi,Vijverbroekstraat,1,51.1527312433,5.82240410318
3640,Kinrooi,Weertersteenweg,270,51.1603176928,5.74247348017
3640,Kinrooi,Broekstraat,41,51.1497620881,5.71709861757
3640,Kinrooi,Kleinvenstraat,1A,51.1430120432,5.78039988543
3640,Kinrooi,Kloosterstraat,37,51.1453555051,5.73748094666
3640,Kinrooi,Kleinvenstraat,2,51.1426868948,5.77963086709
3640,Kinrooi,Torenweg,2,51.1347142221,5.80115640333
3640,Kinrooi,Bosstraatje,6,51.146632645,5.81261511589
3640,Kinrooi,Kampstraat,56,51.1516546846,5.72643581371
3640,Kinrooi,Venlosesteenweg,118,51.128363534,5.80323359973
3640,Kinrooi,Breeërsteenweg,264,51.145900757,5.74291774071
3640,Kinrooi,Landweg,12C,51.122295446,5.79254677268
3640,Kinrooi,Lemmensstraat,5,51.1472019549,5.7313490356
3640,Kinrooi,Dwarsstraat,5B,51.1353782656,5.80363289743
3640,Kinrooi,Hogerstraat,10,51.1744558525,5.73739249693
3640,Kinrooi,Baekhoven,23,51.1292094802,5.80047059989
3640,Kinrooi,Processieweg,1,51.1431490891,5.73797306064
3640,Kinrooi,Haexkamp,20,51.1333988245,5.80777535896
3640,Kinrooi,Weertersteenweg,116,51.1422894203,5.74734631058
3640,Kinrooi,Dorpsstraat,7,51.1518174751,5.82321303389
3640,Kinrooi,Kloosterstraat,19,51.1433393017,5.7384394124
3640,Kinrooi,Drietak,28,51.1365851209,5.79730846537
3640,Kinrooi,Binnenweg,24,51.1483437852,5.72694468592
3640,Kinrooi,Molenweg,5,51.1439330958,5.73621597481
3640,Kinrooi,Hofstraat,3A,51.1468353579,5.79874706439
3640,Kinrooi,Weertersteenweg,169,51.1466262552,5.7412503868
3640,Kinrooi,Basdonkstraat,12,51.1348908644,5.71989607309
3640,Kinrooi,Vlasvenstraat,2,51.1716200344,5.73158720301
3640,Kinrooi,Zorgvlietstraat,16,51.169717362,5.7348080359
3640,Kinrooi,Oud Kevelaer,25,51.1694140633,5.73150817397
3640,Kinrooi,Enkestraat,36,51.1763192862,5.72540072761
3640,Kinrooi,Hogerstraat,45,51.1816163619,5.73232543388
3640,Kinrooi,Venlosesteenweg,301,51.1466866642,5.80891641233
3640,Kinrooi,Hagendorenstraat,37,51.1388785979,5.73707197022
3640,Kinrooi,Keyersstraat,9,51.1543630285,5.77456603183
3640,Kinrooi,Vroenhof,25,51.1328137645,5.81215018898
3640,Kinrooi,Weertersteenweg,187,51.1483594004,5.74155005944
3640,Kinrooi,Maasstraat,33,51.1267148812,5.80581778007
3640,Kinrooi,Enkestraat,18,51.1739966477,5.72478786951
3640,Kinrooi,Keunenstraat,1,51.146091846,5.72628843818
3640,Kinrooi,Raam,2,51.1341955204,5.76565413583
3640,Kinrooi,Luitestraat,9,51.1448155873,5.72577424094
3640,Kinrooi,Truyenstraat,27,51.1746660833,5.73886128317
3640,Kinrooi,Venlosesteenweg,354,51.1517638941,5.81133480749
3640,Kinrooi,Toekomststraat,1,51.1530259125,5.81947032676
3640,Kinrooi,Hezerstraat,5,51.1649937921,5.74161025973
3640,Kinrooi,Weertersteenweg,19,51.1295860961,5.76118559528
3640,Kinrooi,Heitjesstraat,1,51.1545170352,5.73870315286
3640,Kinrooi,Meierstraat,48,51.1504000003,5.81644120012
3640,Kinrooi,Bisschop Ruttenstraat,8,51.1319063568,5.80975406931
3640,Kinrooi,Vroenhof,13,51.133059101,5.81041636536
3640,Kinrooi,Molenweg,12,51.1440121947,5.73477392856
3640,Kinrooi,Vlasbrei,8,51.1698795784,5.76005074816
3640,Kinrooi,Linderweg,4,51.122381597,5.80234670749
3640,Kinrooi,De Belder,38,51.1244418508,5.79479745755
3640,Kinrooi,Schoolstraat,66,51.1445831826,5.78705596119
3640,Kinrooi,Geerenstraat,8,51.1668370873,5.72931577527
3640,Kinrooi,Hoogveldstraat,26,51.1530723774,5.80764335407
3640,Kinrooi,Kelderbergstraat,6,51.1829027053,5.74211755071
3640,Kinrooi,Zielderveld,106,51.1385724681,5.74335167072
3640,Kinrooi,Venlosesteenweg,237,51.1401714336,5.80651542257
3640,Kinrooi,Weertersteenweg,304,51.1640467305,5.74153663849
3640,Kinrooi,Belestraat,41,51.1507188236,5.7265832634
3640,Kinrooi,Colbersstraat,3,51.1817089789,5.74031789467
3640,Kinrooi,Hoverstraat,13,51.1519847909,5.75278391987
3640,Kinrooi,Grensstraat,3,51.1393664468,5.78832870132
3640,Kinrooi,Breeërsteenweg,389,51.1454736496,5.72390647076
3640,Kinrooi,Oud Kevelaer,52,51.169523403,5.72958173515
3640,Kinrooi,Kerkstraat,4A,51.1517399935,5.82388261897
3640,Kinrooi,Kampstraat,52,51.1515035471,5.72721803779
3640,Kinrooi,Kempweg,13,51.1473714076,5.81459502855
3640,Kinrooi,Venlosesteenweg,58,51.1243825509,5.80285258449
3640,Kinrooi,Fosheistraat,120,51.1779094208,5.70950703468
3640,Kinrooi,Venlosesteenweg,130,51.1297149289,5.80375405119
3640,Kinrooi,Leuerbroek,1060,51.1361129845,5.74962705177
3640,Kinrooi,Hagendorenstraat,25,51.1397988391,5.73821806101
3640,Kinrooi,Zielderveld,88,51.1376868804,5.74262308709
3640,Kinrooi,Doorslagstraat,11,51.1615426044,5.74371582588
3640,Kinrooi,Binnenweg,38,51.1481220529,5.72510353745
3640,Kinrooi,Kleine Scheurestraat,4,51.1713708844,5.73741767917
3640,Kinrooi,Geistingen,92,51.1353546961,5.8148967895
3640,Kinrooi,Heidestraat,39,51.1359651681,5.79075958795
3640,Kinrooi,Venlosesteenweg,6,51.1202237257,5.80137736416
3640,Kinrooi,Zorgvlietstraat,4,51.1695187382,5.73375403391
3640,Kinrooi,Hunselerstraat,19,51.1811122987,5.76146031209
3640,Kinrooi,Geistingen,74,51.1346924898,5.81274470216
3640,Kinrooi,Kelderbergstraat,1B,51.181472734,5.73851240945
3640,Kinrooi,Natterveld,57,51.1417889742,5.74629639768
3640,Kinrooi,Zielderveld,124,51.1396280774,5.74408614868
3640,Kinrooi,Geistingen,56,51.1341398033,5.81124979901
3640,Kinrooi,Geistingen,28,51.1323176034,5.80854463815
3640,Kinrooi,Hogerstraat,2,51.1736654371,5.73669514633
3640,Kinrooi,Sevensstraat,10,51.1491823394,5.74324291683
3640,Kinrooi,Venlosesteenweg,76,51.1253788626,5.80236486112
3640,Kinrooi,Vlasvenstraat,24,51.1746187586,5.7308863733
3640,Kinrooi,Weertersteenweg,1,51.1245991257,5.76462003926
3640,Kinrooi,Breeërsteenweg,183,51.1442265711,5.76230250365
3640,Kinrooi,Schoolstraat,31,51.147594765,5.79085590483
3640,Kinrooi,Bosstraatje,11,51.1453764077,5.80996224035
3640,Kinrooi,Baekhoven,39,51.1295712766,5.80110536285
3640,Kinrooi,Geistingen,4,51.1310007829,5.80485777102
3640,Kinrooi,Huikensstraat,1,51.1344731967,5.8034267489
3640,Kinrooi,Leeuwerkstraat,10,51.1703244273,5.73366091887
3640,Kinrooi,Hoofstraat,3,51.1664390872,5.71814196915
3640,Kinrooi,Vroenhof,31,51.1328556651,5.81314114092
3640,Kinrooi,Kloosterstraat,1,51.1438698886,5.74145703957
3640,Kinrooi,Merrenhofstraat,24,51.1276382259,5.79922657093
3640,Kinrooi,Molenwegske,4,51.1532054837,5.81493416475
3640,Kinrooi,Groezenstraat,12,51.1652834496,5.75929598462
3640,Kinrooi,Zandbosstraat,43,51.1706652152,5.72581159956
3640,Kinrooi,Weertersteenweg,267,51.159486248,5.74167325276
3640,Kinrooi,Kloosterstraat,25,51.1438478516,5.73716332997
3640,Kinrooi,Neeroetersesteenweg,7,51.1438579944,5.74221631564
3640,Kinrooi,Neeroetersesteenweg,59,51.1394286963,5.7403859702
3640,Kinrooi,Vijverbroekstraat,10,51.152562961,5.82200131558
3640,Kinrooi,Nagelstraat,18,51.1311506875,5.79116777829
3640,Kinrooi,Hogerstraat,17,51.1750144818,5.73695938721
3640,Kinrooi,Schoorstraat,12,51.1522362692,5.82444316006
3640,Kinrooi,Weertersteenweg,375,51.1703884021,5.73677794911
3640,Kinrooi,Breeërsteenweg,403,51.1455971927,5.72186064471
3640,Kinrooi,Fiejestraat,24,51.1782990843,5.73980399108
3640,Kinrooi,Steenpad,6,51.1358638847,5.81188209662
3640,Kinrooi,Beekstraat,7,51.1310014503,5.8079669509
3640,Kinrooi,Kerkstraat,15,51.1502578652,5.82495937544
3640,Kinrooi,Kruisstraat,17,51.1451014609,5.72693938222
3640,Kinrooi,Veldstraat,15,51.1522954406,5.82033348025
3640,Kinrooi,Venlosesteenweg,413,51.1574803669,5.8125270094
3640,Kinrooi,Weertersteenweg,393,51.171454758,5.7359363154
3640,Kinrooi,Teunestraat,6B,51.1743354366,5.74470386606
3640,Kinrooi,Scheurestraat,38,51.1744319458,5.73328384626
3640,Kinrooi,Fabrieksstraat,8,51.1518475567,5.81343201301
3640,Kinrooi,Zielderveld,35,51.1402780242,5.74161265744
3640,Kinrooi,Schansstraat,23,51.140409378,5.73499933735
3640,Kinrooi,Baekhoven,6,51.1289070079,5.80156176838
3640,Kinrooi,Schuttersstraat,20,51.171127809,5.73545324578
3640,Kinrooi,Weertersteenweg,452,51.1784449521,5.72809953506
3640,Kinrooi,Stegerstraat,13,51.1266236751,5.79012493921
3640,Kinrooi,Grootbeersel,11,51.1758332075,5.75710277638
3640,Kinrooi,Toekomststraat,44,51.1550443219,5.81277201211
3640,Kinrooi,Donkstraat,37,51.1276708042,5.79304399979
3640,Kinrooi,Enkestraat,47,51.1776652972,5.72474149073
3640,Kinrooi,Hurkenstraat,18,51.1694731787,5.72791719057
3640,Kinrooi,Oud Kevelaer,8,51.1700318784,5.7320983681
3640,Kinrooi,Dwarsstraat,21,51.1355284377,5.79941159545
3640,Kinrooi,Kasteelstraat,15,51.1571193659,5.80818845598
3640,Kinrooi,Oudekerkstraat,16,51.1690191815,5.73421846021
3640,Kinrooi,Melkerijstraat,4,51.1447218158,5.73846225845
3640,Kinrooi,Sweversveld,73,51.1503072675,5.8142228414
3640,Kinrooi,Fosheistraat,48,51.1747518061,5.72394286485
3640,Kinrooi,Natterveld,29,51.1412428485,5.74310303432
3640,Kinrooi,Haansberg,9,51.1253304079,5.80887224164
3640,Kinrooi,Pastorijstraat,1,51.1322233479,5.8098873079
3640,Kinrooi,Congostraat,2,51.1380416232,5.79374267574
3640,Kinrooi,Luitestraat,16,51.1444328651,5.72445380295
3640,Kinrooi,Oudekerkstraat,34,51.1684484594,5.73233150959
3640,Kinrooi,Fosheistraat,66,51.1753409361,5.72085279666
3640,Kinrooi,Langvenstraat,1,51.1438709205,5.78447057066
3640,Kinrooi,Weertersteenweg,142,51.1440936535,5.74446698093
3640,Kinrooi,Greuwkensstraat,2,51.1702534524,5.73973084052
3640,Kinrooi,Venlosesteenweg,327,51.1489319133,5.80963763798
3640,Kinrooi,Hagendorenstraat,53,51.1356475155,5.73507161182
3640,Kinrooi,Rondstraat,39,51.1711608797,5.74321235967
3640,Kinrooi,Heyerstraat,2,51.1754595194,5.74058993321
3640,Kinrooi,Eikelenbosstraat,2,51.1654070752,5.71560357052
3640,Kinrooi,Fosheistraat,13,51.1745259467,5.72912744349
3640,Kinrooi,Manestraat,3,51.1598319836,5.75967066831
3640,Kinrooi,Molenweg,29,51.1428418865,5.73306982925
3640,Kinrooi,Hubensstraat,12,51.1533686407,5.7701581924
3640,Kinrooi,Meierstraat,64,51.1490134265,5.81379326068
3640,Kinrooi,Donkstraat,108,51.129991188,5.78096523512
3640,Kinrooi,Hoverstraat,2A,51.1455139472,5.7533637081
3640,Kinrooi,Geerenstraat,1,51.1675076481,5.73024433817
3640,Kinrooi,Molenwegske,11,51.1518284514,5.81581279555
3640,Kinrooi,Veldstraat,61,51.1516565908,5.81177991721
3640,Kinrooi,Dorpsstraat,18,51.1510572818,5.82353870357
3640,Kinrooi,Dorpsstraat,2,51.1521698348,5.82311594526
3640,Kinrooi,Maasstraat,21,51.1262908965,5.80462934288
3640,Kinrooi,Oud Kevelaer,59,51.1694886466,5.73060759852
3640,Kinrooi,Kerkhofstraat,12,51.1472377695,5.73816332705
3640,Kinrooi,Hogerstraat,34A,51.1779211576,5.7378350082
3640,Kinrooi,Lemmensstraat,38,51.1471850717,5.72592688961
3640,Kinrooi,Breeërsteenweg,354,51.1459816829,5.72962329762
3640,Kinrooi,Belestraat,66,51.153458817,5.73191783022
3640,Kinrooi,Scheurestraat,17A,51.1720912665,5.73709917233
3640,Kinrooi,Weertersteenweg,177,51.1473237691,5.7415314624
3640,Kinrooi,Tongerloseweg,1,51.1451187047,5.71786804925
3640,Kinrooi,Hagendorenstraat,8,51.1418369059,5.73995238614
3640,Kinrooi,Breeërsteenweg,75,51.1434288568,5.78901149819
3640,Kinrooi,Schoolstraat,41,51.1473166763,5.79048452376
3640,Kinrooi,Breeërsteenweg,372,51.1459074766,5.72613057292
3640,Kinrooi,Veldstraat,43,51.1522833588,5.81501380318
3640,Kinrooi,Zielderveld,81,51.1372856887,5.7429128017
3640,Kinrooi,Sweversveld,10,51.1513151153,5.81197291485
3640,Kinrooi,Letterveld,51,51.1300010579,5.79756667223
3640,Kinrooi,Weertersteenweg,195,51.1492653132,5.74146735828
3640,Kinrooi,Meierstraat,82,51.1479679391,5.81215557441
3640,Kinrooi,Hoogstraat,2,51.1468163144,5.72907105401
3640,Kinrooi,Teunestraat,18,51.1756708632,5.74449998393
3640,Kinrooi,De Belder,21,51.12600373,5.79910435188
3640,Kinrooi,Greuwkensstraat,18,51.1697669662,5.74220046129
3640,Kinrooi,De Belder,17A,51.1244800646,5.79806434924
3640,Kinrooi,Venlosesteenweg,183,51.1337540493,5.80427715197
3640,Kinrooi,Sweversveld,45,51.1489476685,5.81262884219
3640,Kinrooi,Esserstraat,25,51.1488461655,5.73717451667
3640,Kinrooi,Makkestraat,11,51.163411278,5.73535003293
3640,Kinrooi,Geistingen,11,51.1319000788,5.80650419711
3640,Kinrooi,Venlosesteenweg,137,51.1300585116,5.80283259676
3640,Kinrooi,Kerkhofstraat,9A,51.1465127294,5.73789850364
3640,Kinrooi,Heesstraat,52,51.1492504879,5.802771202
3640,Kinrooi,Landweg,10,51.1233675039,5.79215573477
3640,Kinrooi,Baekhoven,22,51.1292043732,5.8006839037
3640,Kinrooi,Oudekerkstraat,44,51.1685032072,5.73087569221
3640,Kinrooi,Natterveld,50,51.1418266577,5.74568683364
3640,Kinrooi,Weertersteenweg,260,51.1590114553,5.74230878465
3640,Kinrooi,Venlosesteenweg,255,51.141776956,5.80699262391
3640,Kinrooi,Keyersveld,2,51.1608895438,5.77165168535
3640,Kinrooi,Kloosterstraat,8,51.1441529592,5.74046262339
3640,Kinrooi,Merrenhofstraat,22A,51.1274989016,5.79846078881
3640,Kinrooi,Sevensstraat,27,51.1506359842,5.74435936477
3640,Kinrooi,Dorpsplein,10,51.1458338971,5.74133228191
3640,Kinrooi,Schepersheidestraat,3,51.1376613344,5.7279971783
3640,Kinrooi,Lemmensstraat,4,51.1477548333,5.73107016335
3640,Kinrooi,Honsdries,26,51.1232998039,5.79245382029
3640,Kinrooi,Leustraat,36,51.126434643,5.79378707805
3640,Kinrooi,Leustraat,2,51.1278935047,5.79778450231
3640,Kinrooi,Zielderveld,17,51.1391722848,5.74096664049
3640,Kinrooi,Torenweg,7,51.1351740015,5.80155504493
3640,Kinrooi,Weertersteenweg,470,51.1801646167,5.72822789331
3640,Kinrooi,Breeërsteenweg,390,51.145992718,5.72347789569
3640,Kinrooi,Neeroetersesteenweg,14,51.1433599055,5.74148534671
3640,Kinrooi,Broekstraat,42,51.1502456526,5.71754026393
3640,Kinrooi,Zielderveld,63,51.1380957033,5.74181685294
3640,Kinrooi,Belestraat,31,51.1502258012,5.72545041356
3640,Kinrooi,Schansstraat,6,51.1416274116,5.73386180582
3640,Kinrooi,Meierstraat,2,51.15033433,5.8228634867
3640,Kinrooi,Reystraat,49,51.1233879465,5.78535921113
3640,Kinrooi,Oud Kevelaer,24,51.1690693523,5.73185345453
3640,Kinrooi,Meierstraat,18,51.1502778092,5.82081720174
3640,Kinrooi,Venlosesteenweg,22,51.1214715027,5.80149578322
3640,Kinrooi,Neeroetersesteenweg,70,51.1388659506,5.73860312014
3640,Kinrooi,Stegerstraat,5,51.1256877396,5.79026246258
3640,Kinrooi,Binnenweg,56,51.1471110087,5.7222788657
3640,Kinrooi,Grootbroekstraat,1,51.1676939745,5.72986569469
3640,Kinrooi,Bekerstraat,6,51.1625471078,5.76915777734
3640,Kinrooi,Weertersteenweg,506,51.1838036587,5.72587062929
3640,Kinrooi,Esserstraat,9,51.148821045,5.73890516625
3640,Kinrooi,Weertersteenweg,124,51.1429682575,5.74675495338
3640,Kinrooi,Venderstraat,32,51.1682832357,5.73415001746
3640,Kinrooi,Steyvershofstraat,9,51.1328324549,5.75787924854
3640,Kinrooi,Breeërsteenweg,308,51.1457823964,5.7364699657
3640,Kinrooi,Weertersteenweg,340,51.1676776574,5.73878989053
3640,Kinrooi,Zandbosstraat,1,51.1722582458,5.73470554207
3640,Kinrooi,Leuerbroek,1014,51.1395825229,5.74930181443
3640,Kinrooi,Binnenweg,74,51.1463759706,5.72024826686
3640,Kinrooi,Processieweg,16,51.1433303806,5.73613186043
3640,Kinrooi,Verbindingsstraat,1,51.1375723117,5.79331235765
3640,Kinrooi,Natterveld,12,51.1421627425,5.74259218235
3640,Kinrooi,Brandstraat,4,51.1522338372,5.72624753444
3640,Kinrooi,Fosheistraat,41,51.1741137827,5.72536733178
3640,Kinrooi,Truyenhoevenweg,4,51.1746984401,5.73787785823
3640,Kinrooi,Scheyerveld,41,51.148199039,5.73933657786
3640,Kinrooi,Leustraat,18,51.1267853985,5.79575382689
3640,Kinrooi,Winkeldervenstraat,9,51.1736022419,5.72283888331
3640,Kinrooi,Fabrieksstraat,1,51.1504342288,5.81524839379
3640,Kinrooi,Smidsestraat,4,51.1688509697,5.7292676892
3640,Kinrooi,Weertersteenweg,242,51.1557822072,5.74268620982
3640,Kinrooi,Teunestraat,64,51.1795446558,5.74910855387
3640,Kinrooi,Vijverbroekstraat,2,51.1529924155,5.82247685252
3640,Kinrooi,Hofstraat,5,51.1461454316,5.79791694243
3640,Kinrooi,Meierstraat,36,51.1502515225,5.81799024706
3640,Kinrooi,Schuttersstraat,3,51.1703748636,5.73512158758
3640,Kinrooi,Makkestraat,28,51.162823784,5.72687605745
3640,Kinrooi,Raam,24,51.1355995428,5.75851459119
3640,Kinrooi,Nieuwkamp,9,51.1328986607,5.80592709353
3640,Kinrooi,Beekstraat,14,51.129739523,5.80748369639
3640,Kinrooi,Breeërsteenweg,283,51.1453774603,5.74037426341
3640,Kinrooi,Bomerstraat,35,51.1542792202,5.7356821533
3640,Kinrooi,Truyenstraat,17,51.1740364139,5.73742795691
3640,Kinrooi,Venlosesteenweg,51,51.1236953086,5.80080484417
3640,Kinrooi,Venlosesteenweg,391,51.1553731762,5.81177346956
3640,Kinrooi,Enkestraat,26,51.1749877035,5.72460844927
3640,Kinrooi,Winkelstraat,14A,51.1614318543,5.7112083272
3640,Kinrooi,Leuerbroek,1049,51.1372185413,5.75129768567
3640,Kinrooi,Heidestraat,57,51.135619196,5.78840324209
3640,Kinrooi,Leerestraat,5,51.1772767874,5.7418955512
3640,Kinrooi,Oud Kevelaer,1,51.1703509675,5.73208009398
3640,Kinrooi,Bongertestraat,14,51.1252334259,5.79688718935
3640,Kinrooi,Dwarsstraat,8B,51.1361099609,5.80291830932
3640,Kinrooi,Sweversveld,27,51.1497502314,5.81187964112
3640,Kinrooi,Weertersteenweg,106,51.1413877845,5.7485311631
3640,Kinrooi,Fiejestraat,7,51.1772863024,5.74334137013
3640,Kinrooi,Toekomststraat,34,51.154692944,5.81410407675
3640,Kinrooi,Venlosesteenweg,373,51.153207623,5.81080004911
3640,Kinrooi,Lakerweg,58,51.1463989749,5.7740420176
3640,Kinrooi,Grootbroekstraat,35,51.1610316067,5.71772122985
3640,Kinrooi,Dwarsstraat,4,51.1354722193,5.80431226295
3640,Kinrooi,Scheurestraat,21,51.1723762672,5.73657039317
3640,Kinrooi,Hezerstraat,29,51.1637062084,5.74415219673
3640,Kinrooi,Toekomststraat,16,51.1539538215,5.81638718806
3640,Kinrooi,Kampstraat,59,51.151372626,5.72504777403
3640,Kinrooi,Ververstraat,7,51.1689778897,5.74006000202
3640,Kinrooi,Rondstraat,22,51.1683478513,5.74235730446
3640,Kinrooi,Manestraat,10,51.1487725295,5.77194641114
3640,Kinrooi,Putstraatje,8,51.1267464448,5.8038016974
3640,Kinrooi,Natterveld,30,51.1412561644,5.74358047073
3640,Kinrooi,Hoverstraat,5,51.1469854112,5.75740686004
3640,Kinrooi,Zandveldstraat,7,51.1692241615,5.73320731141
3640,Kinrooi,Fosheistraat,112,51.1773190144,5.711076326
3640,Kinrooi,Donkstraat,91,51.1285195555,5.78370337348
3640,Kinrooi,Hogekamp,6,51.1299413718,5.79863402141
3640,Kinrooi,Geistingen,100,51.1355865447,5.81601200628
3640,Kinrooi,Zielderveld,78,51.1375630111,5.74198867276
3640,Kinrooi,Reystraat,24,51.1232579097,5.78932291108
3640,Kinrooi,Natterveld,6,51.1429457782,5.74274742806
3640,Kinrooi,Dorpsstraat,9,51.151682193,5.82337163574
3640,Kinrooi,Breeërsteenweg,247,51.1452583246,5.74516133798
3640,Kinrooi,Venlosesteenweg,104,51.1269196853,5.80297436595
3640,Kinrooi,Weertersteenweg,150,51.1447188313,5.74471365633
3640,Kinrooi,Simpelstraat,3,51.1433767365,5.72663165776
3640,Kinrooi,Toekomststraat,26,51.1542938194,5.81484880897
3640,Kinrooi,Oud Kevelaer,42,51.1689617283,5.72978227853
3640,Kinrooi,Molenweg,22,51.1434978907,5.73373114152
3640,Kinrooi,De Belder,28,51.1242899378,5.79850026337
3640,Kinrooi,Zorgvlietstraat,18,51.1697542657,5.73498286173
3640,Kinrooi,Kampstraat,42,51.1508026328,5.72845495278
3640,Kinrooi,Daalstraat,16,51.1340814661,5.8060350928
3640,Kinrooi,Heesstraat,14,51.1488374115,5.80782668744
3640,Kinrooi,Kasteelstraat,8,51.1558991992,5.80952209585
3640,Kinrooi,Hagendorenstraat,35,51.1390310725,5.73723463659
3640,Kinrooi,Natterveld,65,51.1406150338,5.74611927239
3640,Kinrooi,Weertersteenweg,275,51.1604005689,5.74164025
3640,Kinrooi,Heesstraat,32,51.1492468201,5.80557771425
3640,Kinrooi,Enkestraat,16,51.1738211883,5.72474644376
3640,Kinrooi,Heikempstraat,1111,51.1798033226,5.72470095337
3640,Kinrooi,Keyersstraat,7,51.1594251406,5.7791327409
3640,Kinrooi,Broekstraat,24,51.1478859873,5.72378784116
3640,Kinrooi,Vroenhof,23,51.1327857108,5.81181253039
3640,Kinrooi,Kampstraat,13A,51.1473421236,5.73283389755
3640,Kinrooi,De Belder,4,51.1254187149,5.80016479144
3640,Kinrooi,Truyenstraat,25,51.174579187,5.73866437332
3640,Kinrooi,Geistingen,82,51.134842486,5.81367402246
3640,Kinrooi,Fosheistraat,130,51.1812015577,5.70803373212
3640,Kinrooi,Luitestraat,7,51.1449931808,5.72595848794
3640,Kinrooi,Berkenstraat,15,51.1713066788,5.73421319919
3640,Kinrooi,Hunselerstraat,3,51.1776348864,5.75723521046
3640,Kinrooi,Kasteelstraat,19A,51.1610681811,5.80377306728
3640,Kinrooi,Greuwkensstraat,11,51.1704337478,5.74120463132
3640,Kinrooi,Zielderveld,114,51.1390234205,5.74366762507
3640,Kinrooi,Smeetsstraat,12,51.1702837889,5.7385039173
3640,Kinrooi,Smeetsstraat,65,51.1735004002,5.74436761205
3640,Kinrooi,Teunestraat,11,51.1747280745,5.7441217895
3640,Kinrooi,Breeërsteenweg,230,51.1455041593,5.74806727653
3640,Kinrooi,Weertersteenweg,257,51.1587621383,5.74173887154
3640,Kinrooi,Geistingen,46,51.1336303195,5.81020551872
3640,Kinrooi,Heyerstraat,11,51.1759370555,5.73877990956
3640,Kinrooi,Geistingen,38,51.1332410067,5.80934701219
3640,Kinrooi,Breeërsteenweg,397,51.1452379044,5.72308652764
3640,Kinrooi,Schoolstraat,21,51.1480387165,5.79152607827
3640,Kinrooi,Heidestraat,29,51.1355082196,5.79264249004
3640,Kinrooi,Venlosesteenweg,421,51.1582285586,5.81244464829
3640,Kinrooi,Geistingen,64,51.1347189237,5.81175282296
3640,Kinrooi,Breeërsteenweg,379,51.1455268237,5.72498238654
3640,Kinrooi,Goortweg,3,51.1479266884,5.7406780156
3640,Kinrooi,Smeetsstraat,30,51.1711032295,5.74112822857
3640,Kinrooi,Weertersteenweg,139,51.1432360646,5.74475341295
3640,Kinrooi,Venlosesteenweg,347,51.1510234933,5.81001454789
3640,Kinrooi,Drietak,88,51.1426148525,5.78722010954
3640,Kinrooi,Dikke Linde,4,51.1240684429,5.79783045634
3640,Kinrooi,Kloosterstraat,35,51.145078359,5.73705290689
3640,Kinrooi,Venlosesteenweg,403,51.156124022,5.81256925016
3640,Kinrooi,Breeërsteenweg,265,51.1453531792,5.74318661376
3640,Kinrooi,Donkstraat,111,51.1297221952,5.77977120134
3640,Kinrooi,Dorpsstraat,11,51.1515327376,5.82342558607
3640,Kinrooi,Landweg,2,51.1239487996,5.7917627247
3640,Kinrooi,Neeroetersesteenweg,67,51.1389581698,5.74006718356
3640,Kinrooi,Weertersteenweg,414,51.1738053472,5.73405280094
3640,Kinrooi,Hoogstraat,11,51.1479499271,5.72834183095
3640,Kinrooi,Zielderveld,48,51.139068243,5.74256756458
3640,Kinrooi,Molenwegske,18,51.1515153926,5.81516883187
3640,Kinrooi,Baekhoven,29,51.1291187417,5.799109475
3640,Kinrooi,Kampstraat,53A,51.1511967265,5.72622494391
3640,Kinrooi,Breeërsteenweg,40,51.146758624,5.80281713656
3640,Kinrooi,Landweg,17,51.1219487177,5.79446390057
3640,Kinrooi,Venlosesteenweg,319,51.1481699838,5.80940199798
3640,Kinrooi,Schansstraat,33,51.1396874857,5.73558742702
3640,Kinrooi,Smeetsstraat,101,51.1749799167,5.74979438941
3640,Kinrooi,Hurkenstraat,4,51.1707924419,5.72997154304
3640,Kinrooi,Batvendijk,1,51.1323792706,5.72662101805
3640,Kinrooi,Rondstraat,40,51.1711800281,5.7439302362
3640,Kinrooi,Neeroetersesteenweg,44A,51.1411075294,5.74043201311
3640,Kinrooi,Rozenstraat,1,51.1436148721,5.74400895905
3640,Kinrooi,Kasteelstraat,23,51.1609540571,5.80243730988
3640,Kinrooi,Itterstraat,3,51.1303498988,5.79140785701
3640,Kinrooi,Fiejestraat,14,51.1778131555,5.74268968429
3640,Kinrooi,Breeërsteenweg,244A,51.1457304292,5.74595992897
3640,Kinrooi,Meierstraat,9,51.1496970441,5.82232032108
3640,Kinrooi,Venlosesteenweg,157,51.1316364358,5.80379881863
3640,Kinrooi,Honsdries,16,51.1228834561,5.79394257381
3640,Kinrooi,Neeroetersesteenweg,49,51.1403096188,5.74080571491
3640,Kinrooi,Sevensstraat,55,51.1527021897,5.74740231379
3640,Kinrooi,Weertersteenweg,215B,51.151301164,5.74157312403
3640,Kinrooi,Enkestraat,62,51.1793830271,5.72629781481
3640,Kinrooi,Honsdries,34,51.1228401453,5.79058950165
3640,Kinrooi,Winkeldervenstraat,2,51.1715828144,5.72442039421
3640,Kinrooi,Scheurestraat,28,51.173562554,5.73556519557
3640,Kinrooi,Donkstraat,27,51.1279876779,5.79452012886
3640,Kinrooi,Keekstraat,2,51.1320743323,5.76718085055
3640,Kinrooi,Dalerweg,2,51.1315926174,5.81572917519
3640,Kinrooi,Slichtestraat,5,51.1683631645,5.73713039029
3640,Kinrooi,Breeërsteenweg,12,51.1479175796,5.80840408951
3640,Kinrooi,Schuttersstraat,10,51.1706038151,5.73565182671
3640,Kinrooi,Venlosesteenweg,68,51.1249269825,5.80225584002
3640,Kinrooi,Merrenhofstraat,16,51.1269997503,5.7996176249
3640,Kinrooi,Venlosesteenweg,193,51.1350114005,5.8047679367
3640,Kinrooi,Esserstraat,17,51.1485058582,5.73612254162
3640,Kinrooi,Donkstraat,3,51.1283772284,5.79732838765
3640,Kinrooi,Zielderveld,25,51.1396012803,5.74119218383
3640,Kinrooi,Bongertestraat,8,51.1257099818,5.79777968565
3640,Kinrooi,Kessenicherweg,16,51.1357665166,5.81075761615
3640,Kinrooi,Kempweg,21,51.1466256153,5.81479661605
3640,Kinrooi,Sweversveld,20,51.1506145978,5.8120310157
3640,Kinrooi,Nagelstraat,4,51.1292362138,5.7984448309
3640,Kinrooi,Leustraat,11,51.1268409493,5.79684634507
3640,Kinrooi,Landweg,14C,51.1225022145,5.79392436759
3640,Kinrooi,Wieljestraat,23,51.1303909859,5.80720200261
3640,Kinrooi,Veldstraat,1,51.1521793015,5.82237690508
3640,Kinrooi,Horkerstraat,2,51.1541449346,5.74287802424
3640,Kinrooi,Sweversveld,83,51.1501336785,5.81534399907
3640,Kinrooi,Natterveld,39,51.1422209851,5.74373536802
3640,Kinrooi,Leuerbroek,1070,51.1364706031,5.75172295251
3640,Kinrooi,Nieuwkamp,17,51.1321891604,5.80609515216
3640,Kinrooi,Truyenstraat,53,51.1755087031,5.74310120356
3640,Kinrooi,Fosheistraat,58,51.1750617257,5.72230232206
3640,Kinrooi,Nieuwkamp,2,51.1330948924,5.80712412678
3640,Kinrooi,Kerkstraat,1,51.1521521941,5.82395608165
3640,Kinrooi,Winkeldervenstraat,17,51.1743347227,5.7212651138
3640,Kinrooi,Weertersteenweg,367,51.1694781734,5.73690827062
3640,Kinrooi,Bouwensstraat,7,51.1696279553,5.74031606149
3640,Kinrooi,Meierstraat,46,51.1506608809,5.816494034
3640,Kinrooi,Truyenstraat,48,51.1748761727,5.74264450865
3640,Kinrooi,Kampstraat,7,51.1469086544,5.73381788132
3640,Kinrooi,Hezerstraat,22,51.16381586,5.7429892655
3640,Kinrooi,Sweversveld,47,51.149168864,5.81314026327
3640,Kinrooi,Leustraat,46,51.1253531433,5.79229497982
3640,Kinrooi,Venlosesteenweg,175,51.1330659497,5.80412753692
3640,Kinrooi,Hubensstraat,6,51.1521185787,5.76596374588
3640,Kinrooi,Haexkamp,16,51.1336227829,5.80681645327
3640,Kinrooi,Dwarsstraat,11,51.13588844,5.80370173581
3640,Kinrooi,Weertersteenweg,332,51.1668241782,5.73948321604
3640,Kinrooi,Zandveldstraat,14,51.1698318581,5.73344344688
3640,Kinrooi,Oud Kevelaer,60,51.1698338535,5.73028133928
3640,Kinrooi,Meierstraat,11,51.1495706107,5.82194316302
3640,Kinrooi,Veldstraat,58,51.1524766443,5.81234205093
3640,Kinrooi,Letterveld,33,51.1304550061,5.79935187406
3640,Kinrooi,Zielderveld,96,51.1380862371,5.74297709384
3640,Kinrooi,Venlosesteenweg,122,51.1286445759,5.80352898747
3640,Kinrooi,Kampstraat,49,51.1508942097,5.72704506623
3640,Kinrooi,Broekstraat,5,51.1466761714,5.72540826675
3640,Kinrooi,Weertersteenweg,339,51.167419871,5.73833632468
3640,Kinrooi,De Belder,11,51.1254624695,5.80030785672
3640,Kinrooi,Breeërsteenweg,240,51.145802579,5.74660251481
3640,Kinrooi,Vlasbrei,17,51.1715946371,5.76811157016
3640,Kinrooi,Donkstraat,118,51.1303843727,5.77979035498
3640,Kinrooi,Weertersteenweg,167,51.146273116,5.74141308907
3640,Kinrooi,Geistingen,99,51.136116698,5.81560974343
3640,Kinrooi,Basdonkstraat,14,51.1349800808,5.71805547607
3640,Kinrooi,Neeroetersesteenweg,128,51.1314304296,5.73374055927
3640,Kinrooi,Bosstraatje,18,51.144666488,5.80923698165
3640,Kinrooi,Kampstraat,67,51.1508618729,5.72397801929
3640,Kinrooi,Bisschop Ruttenstraat,17,51.1313098598,5.81232588422
3640,Kinrooi,Dikke Linde,11,51.1227263767,5.7967380913
3640,Kinrooi,Letterveld,43,51.1302097225,5.79809357455
3640,Kinrooi,Hoverhofweg,3,51.1257853674,5.7830627705
3640,Kinrooi,Veldstraat,51,51.1519022093,5.81321242071
3640,Kinrooi,Sevensstraat,19,51.1501906772,5.7436518342
3640,Kinrooi,Reystraat,5,51.1245823127,5.79009609203
3640,Kinrooi,Scheyerveld,38,51.1478331361,5.73772626773
3640,Kinrooi,Breeërsteenweg,122,51.1438617896,5.77856673348
3640,Kinrooi,Hofstraat,1A,51.1484505381,5.79656615826
3640,Kinrooi,Breeërsteenweg,344,51.1459630804,5.73187314382
3640,Kinrooi,Maasstraat,31,51.1266447059,5.80561531554
3640,Kinrooi,Merrenhofstraat,9,51.1270598182,5.80052770203
3640,Kinrooi,Smeetsstraat,40,51.1714202303,5.74203949016
3640,Kinrooi,Fosheistraat,119,51.1772246096,5.70913079567
3640,Kinrooi,Zielderveld,71,51.1376338223,5.74143529528
3640,Kinrooi,Weertersteenweg,63,51.1368996824,5.75409994792
3640,Kinrooi,Venlosesteenweg,247,51.1411096833,5.8067205347
3640,Kinrooi,Raamdijk,1,51.134942866,5.74613983597
3640,Kinrooi,Hunselerstraat,10,51.1785988751,5.75960456226
3640,Kinrooi,Groezenstraat,3,51.1620500983,5.75596876397
3640,Kinrooi,Donkerdijk,2A,51.1616533734,5.71457045731
3640,Kinrooi,Hezerstraat,3,51.1650055821,5.74124584971
3640,Kinrooi,Doorslagstraat,18,51.1630142864,5.74441804582
3640,Kinrooi,Winkelstraat,7,51.1684671337,5.72557792412
3640,Kinrooi,Baekhoven,12,51.1285653905,5.80079061119
3640,Kinrooi,Baekhoven,30,51.1292528483,5.79913415762
3640,Kinrooi,Breeërsteenweg,362,51.1459417528,5.72809610125
3640,Kinrooi,Sweversveld,55,51.1501633621,5.81372866155
3640,Kinrooi,Bosstraatje,4,51.1467056036,5.8131768104
3640,Kinrooi,Natterveld,40,51.141787571,5.74354996037
3640,Kinrooi,Zielderveld,2,51.1386575031,5.73971437875
3640,Kinrooi,Heikempstraat,1118,51.1812867225,5.72353014104
3640,Kinrooi,Laerestraat,1,51.1530356359,5.74134124965
3640,Kinrooi,Heesstraat,42,51.149211596,5.8043354834
3640,Kinrooi,Breeërsteenweg,6,51.1478934899,5.80886045555
3640,Kinrooi,Breeërsteenweg,229,51.1447896306,5.74752020091
3640,Kinrooi,Zielderveld,53,51.1388325458,5.7417932243
3640,Kinrooi,Kruisstraat,9,51.1447810392,5.72787721237
3640,Kinrooi,Neeroetersesteenweg,60,51.1395418238,5.73929276214
3640,Kinrooi,Stegerstraat,1A,51.1251027794,5.79048266976
3640,Kinrooi,Venlosesteenweg,230,51.1392199051,5.80718565805
3640,Kinrooi,Molenweg,3,51.1439870846,5.73650654341
3640,Kinrooi,Hogerstraat,25,51.1763872301,5.73697019127
3640,Kinrooi,Sevensstraat,37,51.1514775167,5.74544167302
3640,Kinrooi,Geistingen,21,51.1321491719,5.80741348889
3640,Kinrooi,Hogerstraat,9,51.1743130775,5.73722298338
3640,Kinrooi,Drietak,81,51.141681861,5.78773412557
3640,Kinrooi,Zandveldstraat,14A,51.1698026151,5.73272229911
3640,Kinrooi,Lakerweg,15,51.1544654707,5.79166311654
3640,Kinrooi,Klein Hoefstraat,7,51.1763391391,5.73994503682
3640,Kinrooi,Venlosesteenweg,330,51.1493853038,5.81049798609
3640,Kinrooi,Heesstraat,60,51.1492593578,5.80181920912
3640,Kinrooi,Grootbroekstraat,27,51.1629198872,5.71999185001
3640,Kinrooi,Rozenstraat,8,51.1441940642,5.74268584213
3640,Kinrooi,De Belder,46,51.124084668,5.79201401702
3640,Kinrooi,Dekkerstraatje,3,51.1836019433,5.73137174846
3640,Kinrooi,Kampstraat,14,51.1477625353,5.73309545924
3640,Kinrooi,Grote Kerkstraat,3,51.1454197828,5.74008222324
3640,Kinrooi,Goorterhuisjesstraat,13,51.1509333607,5.74351247389
3640,Kinrooi,Maasstraat,84,51.1238955738,5.81604370041
3640,Kinrooi,Weertersteenweg,114,51.1421685238,5.74755982978
3640,Kinrooi,Bongertestraat,1,51.1269311444,5.79758674842
3640,Kinrooi,Venderstraat,24,51.167840857,5.73528989052
3640,Kinrooi,Venlosesteenweg,61,51.1242539256,5.80121570614
3640,Kinrooi,Fosheistraat,51,51.1743925043,5.72345461653
3640,Kinrooi,Pekstraatje,10,51.1264784953,5.79238943487
3640,Kinrooi,Hilvenstraat,2,51.1452596899,5.72896794641
3640,Kinrooi,Heikempstraat,1518,51.1780447204,5.71989982138
3640,Kinrooi,Simpelstraat,7A,51.1429148461,5.72425321971
3640,Kinrooi,Goortweg,10,51.1472611909,5.74106838179
3640,Kinrooi,Kloosterstraat,17,51.1434006715,5.73869775391
3640,Kinrooi,Kleine Kasteelstraat,3,51.1568479501,5.81174373216
3640,Kinrooi,Leuerbroek,1024,51.1390730556,5.7483482793
3640,Kinrooi,Hurkenstraat,11,51.1700180579,5.72963448867
3640,Kinrooi,Weertersteenweg,17,51.1290615264,5.76156514866
3640,Kinrooi,Oud Kevelaer,32,51.1688510038,5.73099509689
3640,Kinrooi,Fosheistraat,4,51.1751897019,5.73031882268
3640,Kinrooi,Natterveld,22,51.1410336347,5.74198472948
3640,Kinrooi,Kampstraat,32,51.149058018,5.73145396582
3640,Kinrooi,Venlosesteenweg,30,51.1219747695,5.80170422213
3640,Kinrooi,Grootbeersel,18,51.1779579305,5.76116374433
3640,Kinrooi,Leustraat,28,51.1268301019,5.7948676784
3640,Kinrooi,Sweversveld,37,51.1502380602,5.81306142792
3640,Kinrooi,Rondstraat,30,51.170035418,5.74442316949
3640,Kinrooi,Hoogveldstraat,34,51.1530980243,5.8067342566
3640,Kinrooi,Goorterstraat,2,51.1555910391,5.76228476296
3640,Kinrooi,Kerkstraat,8,51.151195086,5.82407233035
3640,Kinrooi,Heibroekstraat,5,51.1750061465,5.71419629658
3640,Kinrooi,Natterveld,75,51.1398882738,5.74468574399
3640,Kinrooi,Bongertestraat,24,51.1262901125,5.79666048446
3640,Kinrooi,Stalsstraat,5,51.1783744926,5.74332323739
3640,Kinrooi,Bomerstraat,25,51.153945991,5.73719154173
3640,Kinrooi,Maasstraat,13,51.1260043767,5.80376489139
3640,Kinrooi,Willenstraat,7,51.169079523,5.74185790447
3640,Kinrooi,Heyerstraat,9,51.1756617762,5.73884991234
3640,Kinrooi,Hoogveldstraat,16,51.1529778071,5.80893229076
3640,Kinrooi,Venlosesteenweg,129,51.1296393559,5.80275328402
3640,Kinrooi,Zandbosstraat,23,51.1714064083,5.730514144
3640,Kinrooi,Meierstraat,28,51.1502463314,5.81933446951
3640,Kinrooi,Oud Kevelaer,14,51.1696183871,5.73228062073
3640,Kinrooi,Itterstraat,10,51.1315338096,5.79327214755
3640,Kinrooi,Schoorstraat,3,51.1527463968,5.82550547595
3640,Kinrooi,Binnenweg,66,51.1464948868,5.72134068212
3640,Kinrooi,Breeërsteenweg,104,51.143528617,5.7827201179
3640,Kinrooi,Nagelstraat,11,51.1295837027,5.79709354329
3640,Kinrooi,Greuwkensstraat,9,51.170513013,5.74097501287
3640,Kinrooi,Weertersteenweg,149,51.1441654507,5.74350594459
3640,Kinrooi,Vierstraat,1,51.1490207702,5.80312006248
3640,Kinrooi,Hezerstraat,39,51.1631440891,5.74533680378
3640,Kinrooi,Rondstraat,12,51.1679245324,5.74068552897
3640,Kinrooi,Processieweg,3,51.1431147311,5.73776524942
3640,Kinrooi,Kloosterstraat,23,51.1435977454,5.73744226697
3640,Kinrooi,Bouwensstraat,2,51.1691466941,5.73966785711
3640,Kinrooi,Heidestraat,37,51.1358777152,5.79125721191
3640,Kinrooi,Venlosesteenweg,8,51.1203525313,5.8014091714
3640,Kinrooi,Zorgvlietstraat,2,51.1694828466,5.73356150767
3640,Kinrooi,Sevensstraat,30,51.150567218,5.74537608398
3640,Kinrooi,Truyenstraat,15,51.1739526262,5.73707125497
3640,Kinrooi,Winkelstraat,14,51.1622829077,5.71198572771
3640,Kinrooi,Venlosesteenweg,393,51.1560409862,5.81194908955
3640,Kinrooi,Vlasvenstraat,10A,51.1729846726,5.73059482557
3640,Kinrooi,Bosstraatje,9,51.1458312648,5.81140100799
3640,Kinrooi,Natterveld,73,51.1400563425,5.74482088845
3640,Kinrooi,Sweversveld,1,51.1521151663,5.81297199596
3640,Kinrooi,Drietak,23,51.1358580546,5.79698327265
3640,Kinrooi,Natterveld,55,51.1414966824,5.74706007979
3640,Kinrooi,Sweversveld,25,51.1501089171,5.81194076191
3640,Kinrooi,Fosheistraat,46,51.1746109564,5.72448880728
3640,Kinrooi,Smeetsstraat,20,51.1706029173,5.74003869985
3640,Kinrooi,Breeërsteenweg,257,51.1455657959,5.7440352829
3640,Kinrooi,Sevensstraat,12,51.1493227653,5.74343587335
3640,Kinrooi,Hogerstraat,4,51.173837709,5.73684063678
3640,Kinrooi,Fosheistraat,64,51.1755037341,5.72098723235
3640,Kinrooi,Weertersteenweg,140,51.144040232,5.7448001293
3640,Kinrooi,Berkenstraat,1,51.1709978774,5.73313963911
3640,Kinrooi,Leeuwerkstraat,12,51.170212528,5.73371298652
3640,Kinrooi,Baekhoven,37,51.1295685214,5.80075479474
3640,Kinrooi,Bekerstraat,5A,51.1629298122,5.76929480069
3640,Kinrooi,Kruisstraat,4,51.1444344289,5.72922216746
3640,Kinrooi,Makkestraat,41,51.1620275383,5.72528872118
3640,Kinrooi,Esserstraat,3A,51.1492640272,5.74057310249
3640,Kinrooi,Breeërsteenweg,293,51.1453632439,5.73855697465
3640,Kinrooi,Merrenhofstraat,26,51.1277789436,5.79993639386
3640,Kinrooi,Dorpsstraat,17A,51.1512830503,5.82357347274
3640,Kinrooi,Molenwegske,2,51.1534309144,5.81484994639
3640,Kinrooi,Weertersteenweg,265,51.1592905253,5.74170480881
3640,Kinrooi,Neeroetersesteenweg,5,51.1443535045,5.742411836
3640,Kinrooi,Venlosesteenweg,375,51.153623488,5.81089052308
3640,Kinrooi,Toekomststraat,3,51.1532617313,5.81912642236
3640,Kinrooi,Broekstraat,34,51.1485627443,5.72095308031
3640,Kinrooi,Breeërsteenweg,316,51.1460403612,5.73586179261
3640,Kinrooi,Vroenhof,11,51.1326631349,5.81030111563
3640,Kinrooi,Weertersteenweg,320,51.1654018542,5.74058961446
3640,Kinrooi,Venlosesteenweg,357,51.1516752569,5.81021607595
3640,Kinrooi,Binnenweg,18,51.1485381185,5.72774391591
3640,Kinrooi,Reystraat,16,51.1238058541,5.79058504655
3640,Kinrooi,Hagendorenstraat,23,51.1399457773,5.73840057921
3640,Kinrooi,Vlasbrei,6,51.170425142,5.75401627485
3640,Kinrooi,Linderweg,2,51.1227141751,5.80218948666
3640,Kinrooi,Binnenweg,64,51.1465841516,5.72157652866
3640,Kinrooi,Venlosesteenweg,149,51.1308167178,5.80341998823
3640,Kinrooi,Venlosesteenweg,239,51.1403651134,5.80652053028
3640,Kinrooi,Breivinstraat,7,51.1765406192,5.72226028324
3640,Kinrooi,Teunestraat,21,51.176082274,5.74375711606
3640,Kinrooi,Lakerweg,53,51.145885281,5.77489384187
3640,Kinrooi,Venlosesteenweg,96,51.1265144423,5.80274161326
3640,Kinrooi,Maasstraat,82,51.1248239041,5.81410292687
3640,Kinrooi,Doorslagstraat,9,51.1614414535,5.74411803644
3640,Kinrooi,Breeërsteenweg,387,51.1455574383,5.72411771788
3640,Kinrooi,Hogerstraat,43,51.177392788,5.73673580915
3640,Kinrooi,Reystraat,34,51.1226980795,5.78732158239
3640,Kinrooi,Heidestraat,19,51.1351428385,5.79393141732
3640,Kinrooi,Breeërsteenweg,334,51.1458547772,5.7330917202
3640,Kinrooi,Stegerstraat,11,51.1264031923,5.78999393148
3640,Kinrooi,Zielderveld,104,51.1384927076,5.74329144572
3640,Kinrooi,Enkestraat,24,51.1748187497,5.72447024802
3640,Kinrooi,Kampstraat,54,51.1517021833,5.72699553716
3640,Kinrooi,Geistingen,94,51.1353706874,5.81530097126
3640,Kinrooi,Horkerstraat,3A,51.1541930647,5.74424864368
3640,Kinrooi,Baekhoven,19,51.1289207457,5.80097110527
3640,Kinrooi,Fosheistraat,82,51.1758607909,5.71834216168
3640,Kinrooi,Kleine Scheurestraat,2,51.1709602378,5.73724532378
3640,Kinrooi,Weertersteenweg,497,51.1824843592,5.72499560497
3640,Kinrooi,Schoolstraat,46,51.1470943895,5.78913747213
3640,Kinrooi,Tongerloseweg,6,51.1419034503,5.71805080457
3640,Kinrooi,Smeetsstraat,55,51.1726529617,5.7432667624
3640,Kinrooi,Breeërsteenweg,222,51.1455868612,5.74952814426
3640,Kinrooi,Binnenweg,36,51.1481905785,5.72535194673
3640,Kinrooi,Dorpsstraat,21,51.1506356615,5.82274150877
3640,Kinrooi,Grootbeersel,13,51.1763374754,5.75801109572
3640,Kinrooi,Truyenstraat,33,51.1750030794,5.73943795562
3640,Kinrooi,Dwarsstraat,23,51.1361896845,5.8023801681
3640,Kinrooi,Melkerijstraat,2,51.1446592633,5.73791073925
3640,Kinrooi,Neeroetersesteenweg,115,51.132445399,5.73537298441
3640,Kinrooi,Venderstraat,5,51.1669449773,5.73806828743
3640,Kinrooi,Sweversveld,53,51.150110446,5.81361552779
3640,Kinrooi,Weertersteenweg,219,51.1516923417,5.74157176572
3640,Kinrooi,Klimstraat,3,51.1364839871,5.80778042711
3640,Kinrooi,Breeërsteenweg,204,51.1455213059,5.75238402146
3640,Kinrooi,Drietak,94,51.1430378711,5.78665713839
3640,Kinrooi,Sweversveld,71,51.1505953922,5.81391585785
3640,Kinrooi,Kasteelstraat,6A,51.1556723393,5.81003289212
3640,Kinrooi,Oudekerkstraat,14,51.1691706361,5.73446956537
3640,Kinrooi,Zielderveld,122,51.139471541,5.74397964361
3640,Kinrooi,Natterveld,27,51.1404466545,5.74261098909
3640,Kinrooi,Truyenstraat,43,51.1751895522,5.74159484032
3640,Kinrooi,Weertersteenweg,58,51.1369144148,5.75537862879
3640,Kinrooi,Binnenweg,7,51.1478326073,5.73027501074
3640,Kinrooi,Stalsstraat,16,51.1864291904,5.74043512013
3640,Kinrooi,Driessenstraat,3,51.146129268,5.76460629542
3640,Kinrooi,Geistingen,2,51.1309601005,5.80454403249
3640,Kinrooi,Oudekerkstraat,32,51.1686394723,5.73237269878
3640,Kinrooi,Geistingen,58,51.1345297049,5.81097133988
3640,Kinrooi,Brenjersstraat,10,51.1350874572,5.73553448799
3640,Kinrooi,Uffelseweg,3,51.1757600357,5.75814135061
3640,Kinrooi,Venlosesteenweg,78,51.125522719,5.80240099411
3640,Kinrooi,Venlosesteenweg,19,51.1214805641,5.80015751135
3640,Kinrooi,Greuwkensstraat,4,51.1700000601,5.74005258239
3640,Kinrooi,Hagendorenstraat,51,51.1358032448,5.73525621872
3640,Kinrooi,Weertersteenweg,76,51.1383636956,5.75312376767
3640,Kinrooi,Zielderveld,15,51.1389623467,5.74083671276
3640,Kinrooi,Rondstraat,37,51.1708104327,5.74315941933
3640,Kinrooi,Donkstraat,50,51.1278904093,5.79120662204
3640,Kinrooi,Schurenbeemdstraat,2,51.1744317322,5.73482582213
3640,Kinrooi,Fosheistraat,11,51.1745685124,5.72942014887
3640,Kinrooi,Heyerstraat,4,51.1755886589,5.74040837953
3640,Kinrooi,Letterveld,25,51.1305596534,5.80030767844
3640,Kinrooi,Eikelenbosstraat,4,51.1671915206,5.70949114938
3640,Kinrooi,Neeroetersesteenweg,79,51.1377850376,5.73924733135
3640,Kinrooi,Venlosesteenweg,37,51.1225318225,5.80087473795
3640,Kinrooi,Schoorstraat,10,51.152244995,5.82449375057
3640,Kinrooi,Bisschop Ruttenstraat,6,51.1319840376,5.80956242583
3640,Kinrooi,Zandbosstraat,19A,51.1709789048,5.73163025068
3640,Kinrooi,Meierstraat,56,51.1495898222,5.81448836264
3640,Kinrooi,Breeërsteenweg,401,51.1455949806,5.72235910563
3640,Kinrooi,Steenpad,8,51.135949173,5.81283215678
3640,Kinrooi,Bekerstraat,1,51.1710566248,5.76940364475
3640,Kinrooi,Donkstraat,116,51.130212594,5.78025395561
3640,Kinrooi,Haexkamp,3,51.1339598012,5.80837393916
3640,Kinrooi,Honsdries,24,51.1232981483,5.79271006082
3640,Kinrooi,Weertersteenweg,504A,51.1837056198,5.72589824447
3640,Kinrooi,Leustraat,21,51.1264984854,5.79580092113
3640,Kinrooi,Hoverstraat,11,51.1524809619,5.75459892102
3640,Kinrooi,Meierstraat,74,51.1484042436,5.81315433646
3640,Kinrooi,Middenstraat,4,51.1535995389,5.76210135649
3640,Kinrooi,Fabrieksstraat,6,51.1516174943,5.81365961125
3640,Kinrooi,Baekhoven,8,51.128681807,5.801553715
3640,Kinrooi,Grote Kerkstraat,10,51.1448829908,5.74093943381
3640,Kinrooi,Schuttersstraat,22,51.1712393206,5.7353648467
3640,Kinrooi,Weertersteenweg,454,51.1786298164,5.72799550702
3640,Kinrooi,Breeërsteenweg,20,51.1477491198,5.80764347952
3640,Kinrooi,Oud Kevelaer,50,51.1694401257,5.72941271208
3640,Kinrooi,Makkestraat,9,51.1635185719,5.73561811953
3640,Kinrooi,Breeërsteenweg,83,51.143136034,5.78791410528
3640,Kinrooi,Zielderveld,86,51.1375862376,5.74253409827
