PKANCODE,COMMUNE_NL,STREET_NL,HUISNR,LAT,LON
3740,Bilzen,Wijngaardstraat,23,50.8861285737,5.5234170961
3740,Bilzen,Demerplein,6,50.8344524597,5.51290108298
3740,Bilzen,Paardskerkhofstraat,2,50.878671916,5.51313627288
3740,Bilzen,Heesstraat,50,50.8477452812,5.61257448651
3740,Bilzen,Winterbergstraat,5,50.8365943822,5.52120397099
3740,Bilzen,Lochtstraat,20,50.8783915504,5.57349589315
3740,Bilzen,Broekem,10,50.8794012164,5.51110824999
3740,Bilzen,Haagstraat,13A,50.8952367827,5.52336769657
3740,Bilzen,Deense Wijersstraat,10,50.9125780278,5.51062946892
3740,Bilzen,Daalstraat,6,50.8439295366,5.57728663263
3740,Bilzen,Blookstraat,11B,50.866850627,5.57953724588
3740,Bilzen,Toekomststraat,10,50.8438398612,5.61146484506
3740,Bilzen,Zutendaalweg,49,50.903038269,5.52949061843
3740,Bilzen,Molendriesstraat,23,50.8803190775,5.56966182197
3740,Bilzen,Maastrichterstraat,321,50.860832538,5.57123908152
3740,Bilzen,Palsbosstraat,35,50.9105511162,5.4687052788
3740,Bilzen,Grote Mereweg,67,50.8720099396,5.58098788264
3740,Bilzen,Processiestraat,33,50.894898464,5.52053288007
3740,Bilzen,Demerwal,13,50.8691940941,5.51496142817
3740,Bilzen,Oudestraat,4,50.8946874236,5.46782608854
3740,Bilzen,Stationlaan,38,50.8688709338,5.51126223092
3740,Bilzen,Hageveldstraat,2,50.8476324561,5.54782100377
3740,Bilzen,Lindestraat,24,50.8368346967,5.51368390227
3740,Bilzen,St.Rochusstraat,20,50.8835839291,5.53274721216
3740,Bilzen,Zangerheistraat,115,50.8857401901,5.56653494521
3740,Bilzen,Solveldstraat,24,50.868396739,5.5068837126
3740,Bilzen,Zeepstraat,10,50.8677383373,5.50990202091
3740,Bilzen,Palsbosstraat,17,50.9096692173,5.4709228199
3740,Bilzen,Hoogstraat,45,50.8477608345,5.57293656919
3740,Bilzen,Holt,28,50.8841047574,5.48490554639
3740,Bilzen,Waterstraat,20,50.8905920675,5.52608293178
3740,Bilzen,Langheidestraat,26,50.9047557455,5.48666896185
3740,Bilzen,Maastrichterstraat,414,50.861822817,5.58464188717
3740,Bilzen,Hoekstraat,3,50.9018944265,5.48458558006
3740,Bilzen,Nijverheidsstraat,2,50.8935223018,5.47040129282
3740,Bilzen,Akkerhof,2,50.8342638345,5.55603521806
3740,Bilzen,Panisstraat,14,50.8895039403,5.53015925749
3740,Bilzen,Oude Tramweg,41,50.9012430073,5.52586309736
3740,Bilzen,Vossenkuilstraat,10,50.8779396203,5.5774777736
3740,Bilzen,Hoogveld,47,50.9002051629,5.48065205089
3740,Bilzen,Eikerweg,6,50.8976878434,5.5116609046
3740,Bilzen,Kogelstraat,4,50.8391127583,5.51835585133
3740,Bilzen,Langblookstraat,8,50.8988786369,5.52737220008
3740,Bilzen,Althoeseltweg,8,50.8303445258,5.5132909725
3740,Bilzen,Kapelstraat,40,50.8748365577,5.51223397705
3740,Bilzen,Weg naar Diepenbeek,35,50.9033784654,5.51663128421
3740,Bilzen,Riemsterweg,216,50.8473502363,5.54116216772
3740,Bilzen,Langheidestraat,2,50.9039990627,5.48914424967
3740,Bilzen,Rehagestraat,7A,50.8841104511,5.49416099208
3740,Bilzen,Cuvelierstraat,19,50.8327659569,5.51435934463
3740,Bilzen,Maastrichterstraat,141,50.8633435256,5.54002165586
3740,Bilzen,Jonkherenbos,23,50.9043521792,5.47162741019
3740,Bilzen,Bosstraat,24,50.8444871903,5.57350929139
3740,Bilzen,Winkelomstraat,42,50.87454717,5.58147669976
3740,Bilzen,Populierenstraat,36,50.9039220675,5.46122962887
3740,Bilzen,Haenenstraat,5,50.8816047333,5.57182007983
3740,Bilzen,Spelverstraat,5A,50.8740011399,5.52720429237
3740,Bilzen,Bremstraat,12,50.9067655535,5.48757369667
3740,Bilzen,Holt,4,50.8826981721,5.48798463192
3740,Bilzen,Dorpsstraat,21,50.8757315478,5.57538861161
3740,Bilzen,Oudestraat,28,50.8962913601,5.46406133355
3740,Bilzen,Heseputterstraat,14,50.8798163758,5.58020022468
3740,Bilzen,Groenstraat,31,50.84777464,5.57912907727
3740,Bilzen,Rode Kruislaan,124,50.8377174125,5.5549269776
3740,Bilzen,Spurkerweg,9,50.8753737432,5.5133396441
3740,Bilzen,Noppenstraat,6,50.844863785,5.60873485147
3740,Bilzen,Paardskerkhofstraat,26,50.8780495941,5.51259247176
3740,Bilzen,Bammestraat,55,50.8264298934,5.51719789123
3740,Bilzen,Elzenstraat,17,50.9011168303,5.46355225563
3740,Bilzen,Sapstraat,12,50.8318986798,5.55234466121
3740,Bilzen,Litsebeek,19,50.8871054887,5.56819025682
3740,Bilzen,Kerkhoflaan,43,50.8796639605,5.56946586015
3740,Bilzen,Gansbeekstraat,39,50.8761729985,5.51630215042
3740,Bilzen,Vrankrijk,21,50.8617277846,5.50845345749
3740,Bilzen,Zangerheistraat,9,50.8894912681,5.53205523555
3740,Bilzen,Wolfsbergstraat,1,50.885845396,5.57148035198
3740,Bilzen,Zavelstraat,14,50.885761586,5.52710980955
3740,Bilzen,Markt,35,50.8701178288,5.51780428819
3740,Bilzen,Troffelstraat,15A,50.8369065504,5.54424666117
3740,Bilzen,Maastrichterstraat,303,50.8615986551,5.56806809922
3740,Bilzen,Groenkloosterstraat,41,50.8884546946,5.53130833999
3740,Bilzen,Maastrichterstraat,24,50.8653051413,5.52633753155
3740,Bilzen,Berkenstraat,9,50.9019627187,5.46586386988
3740,Bilzen,Haagstraat,34,50.8940987309,5.52241185807
3740,Bilzen,Kerkstraat,33,50.8448827521,5.57497187868
3740,Bilzen,Keistraat,21,50.8459366927,5.54796774052
3740,Bilzen,Biesenweg,5A,50.8654354856,5.52171319105
3740,Bilzen,Jaak Vandersandenstraat,58,50.8376258473,5.54764316088
3740,Bilzen,Braamstraat,22,50.8728459752,5.57091815473
3740,Bilzen,Hasseltsepoort,12A,50.8731981469,5.51327339043
3740,Bilzen,Kogelstraat,28,50.8371141716,5.51900365492
3740,Bilzen,Bovenstraat,50,50.82815875,5.54581918552
3740,Bilzen,Rozenstraat,5,50.9035741963,5.52917188021
3740,Bilzen,Markt,47,50.8704431849,5.51824574313
3740,Bilzen,St.Bertiliastraat,11,50.8487236264,5.57741096446
3740,Bilzen,Annastraat,9,50.8605089548,5.57114357525
3740,Bilzen,Schietboomstraat,8,50.8838878722,5.52976533018
3740,Bilzen,Markt,17,50.8699334999,5.51691632024
3740,Bilzen,Bosselaar,22,50.8385682403,5.52783428912
3740,Bilzen,Biesenweg,8,50.8647901621,5.52231461951
3740,Bilzen,Hoogbrugstraat,7C,50.8854826078,5.50374966345
3740,Bilzen,Wijsstraat,6,50.8675433498,5.51335008636
3740,Bilzen,Dennenstraat,32,50.9025507349,5.46267136955
3740,Bilzen,Jaak Vandersandenstraat,23,50.8386326232,5.54920599792
3740,Bilzen,Hasseltsestraat,53,50.8782084798,5.49997426906
3740,Bilzen,Biestertstraat,7A,50.8304556463,5.54635143862
3740,Bilzen,Lenaarshof,5,50.9008693399,5.4761587721
3740,Bilzen,Molenstraat,6,50.8978706375,5.46467424456
3740,Bilzen,Maastrichterstraat,266,50.8619788538,5.56637211811
3740,Bilzen,Dennenstraat,14,50.9019331487,5.46472776178
3740,Bilzen,Bunderstraat,7,50.8859237659,5.53092827773
3740,Bilzen,Broekemveldweg,33,50.8804620149,5.5134678326
3740,Bilzen,Leenveldstraat,39,50.9033596819,5.46114700769
3740,Bilzen,Oude Tongersestraat,23,50.8760112264,5.50780253571
3740,Bilzen,Elzenstraat,35,50.9018540979,5.46068030916
3740,Bilzen,Haenenstraat,29,50.8833324402,5.57308334767
3740,Bilzen,Bergweidelaan,2,50.8724442798,5.52435806942
3740,Bilzen,Blookstraat,15,50.8667561708,5.58008221704
3740,Bilzen,Begijnhof,9,50.8699080869,5.51935308999
3740,Bilzen,Tipstraat,105,50.8986124738,5.4530870148
3740,Bilzen,Holt,110,50.8891101015,5.47730950062
3740,Bilzen,Bleekaart,19,50.8725518635,5.52589314421
3740,Bilzen,Merelstraat,16,50.8951008941,5.52538923632
3740,Bilzen,Pijpenhof,37,50.873624501,5.518766534
3740,Bilzen,Leterweg,11,50.8646732071,5.51903729579
3740,Bilzen,Eik,31,50.8975867339,5.51017055302
3740,Bilzen,Eikenbeekstraat,17,50.8741614752,5.57688572892
3740,Bilzen,St-Maertensgrachtstraat,10,50.8935490857,5.47415839614
3740,Bilzen,Klokkestraat,4,50.8709340722,5.5171533454
3740,Bilzen,Biestertstraat,27,50.8300101642,5.54302747914
3740,Bilzen,Kraailingenveld,8,50.8945090317,5.46999529553
3740,Bilzen,Gansbeekstraat,50,50.8748639476,5.5163421955
3740,Bilzen,Pleinstraat,4,50.8361861147,5.51751443877
3740,Bilzen,Jaak Vandersandenstraat,76,50.8362565069,5.54497423008
3740,Bilzen,Spelverstraat,8,50.8743470487,5.52753666037
3740,Bilzen,Jonkherenbos,76,50.9045132125,5.47597918067
3740,Bilzen,Leten,23,50.8560618331,5.51654638644
3740,Bilzen,Langstraat,28,50.8659064167,5.54724118108
3740,Bilzen,Bammestraat,73,50.8249718022,5.51815019687
3740,Bilzen,Genutstraat,20,50.8715901193,5.51477226694
3740,Bilzen,Wijsstraat,2A,50.8676121571,5.51293250497
3740,Bilzen,Hoogbrugstraat,7A,50.8845604831,5.50442491226
3740,Bilzen,Langstraat,4,50.8636590092,5.54766424153
3740,Bilzen,Langstraat,74,50.8705082935,5.54591212607
3740,Bilzen,Rooierweg,23,50.8777567377,5.50523472364
3740,Bilzen,Lochtstraat,56A,50.8815984894,5.57156979301
3740,Bilzen,Winkelstraat,8,50.8449347025,5.61110541438
3740,Bilzen,Hoveweg,10,50.89720992,5.52652464753
3740,Bilzen,Pijpenpoort,3,50.8726039557,5.52031801055
3740,Bilzen,Bloemendaalstraat,8,50.8815645036,5.53235492096
3740,Bilzen,Cornelstraat,4A,50.8862970378,5.52961314864
3740,Bilzen,Winkelstraat,21B,50.8448985628,5.61182585831
3740,Bilzen,Weg naar Diepenbeek,17,50.9025193594,5.51997891822
3740,Bilzen,Hoogstraat,10,50.85001568,5.56616325923
3740,Bilzen,Zagerijstraat,8,50.8680946482,5.5081344618
3740,Bilzen,Sportveldstraat,8,50.8627333876,5.54301838395
3740,Bilzen,Kempenstraat,3,50.9198944088,5.48263344112
3740,Bilzen,Grote Mereweg,14,50.8731321553,5.58152668434
3740,Bilzen,Betonweg,10,50.8641109294,5.57775728292
3740,Bilzen,Onze Lieve Vrouwstraat,17,50.8708773865,5.51591796462
3740,Bilzen,Laakstraat,3,50.8812366523,5.51129005752
3740,Bilzen,Kerktorenstraat,12,50.8647165457,5.54623547055
3740,Bilzen,Litsebeek,65,50.8860018678,5.57201166678
3740,Bilzen,Tabaartstraat,33,50.8733627539,5.5244400707
3740,Bilzen,Mopertingenstraat,11,50.8614312537,5.57540175305
3740,Bilzen,Steenveldstraat,16,50.8710116561,5.57862494065
3740,Bilzen,Fietenstraat,26,50.882577253,5.56587040672
3740,Bilzen,Akkerstraat,32,50.8895588948,5.49382713093
3740,Bilzen,Beterveld,6,50.9039181388,5.47472090094
3740,Bilzen,Veldhof,13,50.8969884644,5.50857529919
3740,Bilzen,Faurenweg,5,50.8800681604,5.53464135635
3740,Bilzen,Laarstraat,27,50.8885320148,5.48513108094
3740,Bilzen,Beukenstraat,17,50.8666655595,5.51478136112
3740,Bilzen,Vrijweide,26,50.8962142294,5.50748048558
3740,Bilzen,Beekomstraat,35,50.8714242232,5.57077532916
3740,Bilzen,Brugstraat,36A,50.8677327805,5.5187529429
3740,Bilzen,Riemsterweg,27,50.8630668722,5.52581625797
3740,Bilzen,Gansbeekstraat,128,50.8756146523,5.51431021847
3740,Bilzen,Mathijsestraat,18,50.8629909525,5.57968364072
3740,Bilzen,Meremweg,36,50.8674192148,5.50532506596
3740,Bilzen,Noppenstraat,19A,50.8436280515,5.60662954826
3740,Bilzen,Rooierweg,6,50.877100811,5.50363582978
3740,Bilzen,Leten,6,50.8546479992,5.52162890928
3740,Bilzen,Akkerstraat,14,50.8897742547,5.49572446033
3740,Bilzen,Pater Damiaanstraat,13,50.8682969555,5.50160916624
3740,Bilzen,Meremweg,18,50.8676709806,5.50694383521
3740,Bilzen,Eikerweg,41,50.9014850013,5.50986416423
3740,Bilzen,Winkelomstraat,32,50.8745193795,5.5802597791
3740,Bilzen,Heesstraat,128,50.847407766,5.62216225218
3740,Bilzen,Batterijstraat,10,50.8993648064,5.52884983445
3740,Bilzen,Kasteelstraat,6,50.8417231681,5.52072842917
3740,Bilzen,Litsebeek,83,50.8857424817,5.57365031504
3740,Bilzen,Beverststraat,32,50.8924991337,5.4718718129
3740,Bilzen,Sint Lambertuslaan,42,50.8731246966,5.51010910165
3740,Bilzen,Munsterbilzenstraat,38,50.8858204643,5.5294119039
3740,Bilzen,Amelsdorp,68,50.8541947207,5.55115039471
3740,Bilzen,Pijpenhof,20,50.8736414861,5.51998595594
3740,Bilzen,Kortebosstraat,2,50.8951623518,5.46217203563
3740,Bilzen,Schoonbeekstraat,50,50.9013298931,5.47197137673
3740,Bilzen,Maastrichterstraat,356,50.8608334427,5.57613743697
3740,Bilzen,Kattestraat,1A,50.879887928,5.56862133123
3740,Bilzen,Rosmeerstraat,27,50.846501804,5.57799015424
3740,Bilzen,Heesveld,8,50.8950386517,5.49839291956
3740,Bilzen,Winkelomstraat,11A,50.8751542899,5.57721934603
3740,Bilzen,Parklaan,20,50.867975364,5.51355071314
3740,Bilzen,Braamstraat,5,50.8737868213,5.57365368096
3740,Bilzen,Sporthalstraat,1,50.8766752864,5.57617553308
3740,Bilzen,Kleistraat,38,50.8864817437,5.47243875812
3740,Bilzen,Hoogveld,17,50.9003729992,5.4847824185
3740,Bilzen,Dennebosstraat,7,50.8475513285,5.54726994209
3740,Bilzen,Nieuwstraat,29,50.8681486264,5.50891704154
3740,Bilzen,Riemsterweg,306,50.8384318783,5.55354289827
3740,Bilzen,Broekemveldweg,15,50.8791596996,5.5141075376
3740,Bilzen,Jonkherenbos,58,50.9046162705,5.47436469299
3740,Bilzen,Winterstraat,51,50.8771980387,5.51647343035
3740,Bilzen,Taunusweg,2,50.90462127,5.52568905755
3740,Bilzen,Kellerstraat,10A,50.832636922,5.56255223457
3740,Bilzen,Nieuwstraat,5,50.8729060964,5.50857888485
3740,Bilzen,Eikerweg,2A,50.8964054619,5.51241581896
3740,Bilzen,Grotstraat,26,50.9042821444,5.48205277861
3740,Bilzen,Demerlaan,23,50.8689896503,5.51541193833
3740,Bilzen,Kapelstraat,12,50.8746530266,5.5097083215
3740,Bilzen,Eigenbilzerplein,2,50.8744036988,5.57457793097
3740,Bilzen,Damerstraat,1,50.8827730424,5.46184704843
3740,Bilzen,Souwveld,7,50.8389431675,5.51692814092
3740,Bilzen,Violierenstraat,15,50.8861228612,5.53450266019
3740,Bilzen,Spurkerweg,26,50.8764124425,5.51184364567
3740,Bilzen,Meershoven,54,50.8750520926,5.52694446926
3740,Bilzen,Brabantsestraat,30,50.8766153276,5.5221132344
3740,Bilzen,Kuilenweg,20,50.8949833834,5.50666136765
3740,Bilzen,Munieckstraat,5,50.835239821,5.55534715482
3740,Bilzen,Brugstraat,4,50.8692838508,5.5179435753
3740,Bilzen,Cuvelierstraat,8A,50.8326732781,5.51507487488
3740,Bilzen,Reekstraat,151,50.8489152118,5.52099214461
3740,Bilzen,Korte Heidestraat,16,50.8999347124,5.51332344683
3740,Bilzen,Beverststraat,67,50.8941198142,5.46879037619
3740,Bilzen,Spoorwegstraat,26,50.8924827144,5.47731439857
3740,Bilzen,Vereveldstraat,2,50.8882062592,5.48555954444
3740,Bilzen,Riemsterweg,262,50.8435218709,5.54827377594
3740,Bilzen,Rooi,51,50.8822504828,5.50203488757
3740,Bilzen,Beverststraat,49,50.8933347858,5.47113578661
3740,Bilzen,Schoolsteeg,7,50.8315559839,5.55343597979
3740,Bilzen,Riemsterweg,3,50.8651200107,5.5234578313
3740,Bilzen,Zutendaalweg,39,50.9023898268,5.52861368223
3740,Bilzen,Appelveldstraat,70,50.9073740076,5.46928202911
3740,Bilzen,Omstraat,26,50.8722895977,5.51659072777
3740,Bilzen,Oude Heidestraat,11,50.9006283844,5.51298550315
3740,Bilzen,Dorpsstraat,4,50.8766475167,5.57537947036
3740,Bilzen,Kapittelstraat,10,50.8717672686,5.53020289666
3740,Bilzen,Meershoven,72,50.8766860515,5.52719736365
3740,Bilzen,Appelveldstraat,52,50.9062790253,5.46813617696
3740,Bilzen,Oude Beekstraat,28,50.8931048487,5.5282470281
3740,Bilzen,Sapstraat,19,50.8314836131,5.55237693855
3740,Bilzen,Korte Heidestraat,34,50.9002055685,5.51410005772
3740,Bilzen,Kampveldweg,16,50.8760660568,5.50943175054
3740,Bilzen,Kerkhoflaan,8,50.8778505856,5.57276039535
3740,Bilzen,Fietenstraat,2,50.8838946061,5.56686035805
3740,Bilzen,Spoorwegstraat,2,50.890843816,5.47971343303
3740,Bilzen,Boomstraat,7,50.8882208108,5.49821887289
3740,Bilzen,Hasseltsestraat,54A,50.8781832591,5.49828147518
3740,Bilzen,Europaplein,11,50.8857899517,5.52654057305
3740,Bilzen,Grittelbergstraat,40,50.8669476344,5.54861629107
3740,Bilzen,Pastorijstraat,15,50.8333958182,5.55310897982
3740,Bilzen,Heesstraat,39,50.8475114276,5.61343870919
3740,Bilzen,Oude Kluisweg,12A,50.8889849672,5.53749598048
3740,Bilzen,Schaaienbosstraat,13A,50.877467819,5.57956707798
3740,Bilzen,Tipstraat,34,50.8951502468,5.46366282039
3740,Bilzen,Hoogveld,35,50.9000265333,5.48231960175
3740,Bilzen,Zonnelaan,2,50.898322715,5.51832733849
3740,Bilzen,Leenveldstraat,50,50.9028859957,5.46424101959
3740,Bilzen,Eendepoelstraat,5,50.87573896,5.57857880356
3740,Bilzen,Waterstraat,37,50.895296737,5.52444644125
3740,Bilzen,Oude Beekstraat,4,50.8945032229,5.5253693879
3740,Bilzen,Gellikerweg,12,50.882123782,5.58675832753
3740,Bilzen,Brugstraat,28,50.86853529,5.51810043462
3740,Bilzen,Bruulstraat,23,50.8752286709,5.57162827106
3740,Bilzen,Romeinsestraat,5,50.862167227,5.54799216502
3740,Bilzen,Lochtstraat,3,50.8774177904,5.5735908408
3740,Bilzen,Rode Kruislaan,152,50.834835582,5.54901065791
3740,Bilzen,Kattebroekstraat,3,50.8666462605,5.51880930224
3740,Bilzen,Heesveld,43,50.9003682313,5.49716291741
3740,Bilzen,Driesstraat,11,50.8459249146,5.55074357807
3740,Bilzen,Riemsterweg,435,50.8322412796,5.56383608039
3740,Bilzen,Koekoekstraat,10,50.8930980721,5.53006838361
3740,Bilzen,Zangerheistraat,133,50.8845790599,5.56652578169
3740,Bilzen,Tweevoetjesweg,11,50.8688515988,5.52260222702
3740,Bilzen,Maastrichterstraat,374,50.8610359286,5.57868245286
3740,Bilzen,Kapelstraat,30,50.8748421263,5.51120136444
3740,Bilzen,Holt,92,50.8881494976,5.4791133823
3740,Bilzen,Amelsdorp,86,50.8528897715,5.55027246625
3740,Bilzen,Cuvelierstraat,37,50.833628086,5.51699347823
3740,Bilzen,Grote Mereweg,85,50.8707778638,5.57963880245
3740,Bilzen,Riemsterweg,280,50.8423045668,5.5512060031
3740,Bilzen,Sinckestraat,1A,50.8582231904,5.57454673766
3740,Bilzen,Tipstraat,87,50.8983034301,5.45524944691
3740,Bilzen,Beverststraat,14,50.8915094043,5.47331221103
3740,Bilzen,Nieuwstraat,10A,50.8722030038,5.50873047313
3740,Bilzen,Litsebeek,12,50.8863741833,5.56932511101
3740,Bilzen,Vossenkuilstraat,17,50.8780136653,5.57693171616
3740,Bilzen,Riemsterweg,7A,50.8647017301,5.5239821361
3740,Bilzen,Heesstraat,67,50.8470833534,5.61789471842
3740,Bilzen,Dorpsstraat,28,50.8734538213,5.57479821922
3740,Bilzen,Hartenberg,12,50.8759315635,5.57381714794
3740,Bilzen,Lochtstraat,37,50.8792252116,5.57293932477
3740,Bilzen,Broekem,27,50.8808373366,5.51304723417
3740,Bilzen,Vinkenstraat,3,50.8955644121,5.5266411349
3740,Bilzen,Beemdstraat,2,50.8460232385,5.53907318599
3740,Bilzen,Maastrichterstraat,166,50.8637012193,5.54160874897
3740,Bilzen,Korenstraat,32,50.8698927049,5.51399045582
3740,Bilzen,Noppenstraat,23,50.8434882929,5.60647179216
3740,Bilzen,Leenveldstraat,14,50.9024002707,5.46681631043
3740,Bilzen,Jachtstraat,4,50.8820611574,5.48690499133
3740,Bilzen,Vogelzangstraat,20,50.8906825049,5.4795354902
3740,Bilzen,Jeugdstraat,11,50.8964117705,5.49995945618
3740,Bilzen,Grensstraat,38,50.9148124747,5.46685828454
3740,Bilzen,Batterijstraat,7A,50.8994190185,5.52777636871
3740,Bilzen,Chrysantenlaan,27,50.8852775962,5.53535035031
3740,Bilzen,Kleehofkensstraat,36,50.8620964579,5.57693972502
3740,Bilzen,Maastrichterpoort,10,50.8659903546,5.52296792806
3740,Bilzen,Lanakerdij,4,50.8701561336,5.52198000087
3740,Bilzen,Maastrichterstraat,148,50.8637494425,5.53881586713
3740,Bilzen,Leterweg,4,50.8650716485,5.51994619134
3740,Bilzen,Merelstraat,9,50.895259883,5.52585047547
3740,Bilzen,Groenstraat,38,50.8481023732,5.57971013201
3740,Bilzen,Laarstraat,63,50.8904219061,5.48796954649
3740,Bilzen,Romboutstraat,14,50.8694900544,5.5155139529
3740,Bilzen,Toekomststraat,27,50.8441841075,5.6131351333
3740,Bilzen,Blookstraat,8,50.8672448536,5.57936441937
3740,Bilzen,Rooierweg,41,50.8790974457,5.50657443278
3740,Bilzen,Schoonhofstraat,8,50.9040524088,5.47807843853
3740,Bilzen,Oudestraat,21,50.8957149671,5.46510311147
3740,Bilzen,Leenveldstraat,32,50.902533674,5.46601044119
3740,Bilzen,Langblookstraat,15,50.8987787007,5.52843315035
3740,Bilzen,Dennenstraat,39,50.9026447637,5.46083861329
3740,Bilzen,Stationlaan,31,50.8696672105,5.51203846478
3740,Bilzen,Amelsdorp,8,50.8585501213,5.54975193262
3740,Bilzen,Hasseltsestraat,47,50.8779850646,5.50046838241
3740,Bilzen,Heseputterstraat,7,50.8795275685,5.57961963604
3740,Bilzen,Langblookstraat,1,50.8981972979,5.52613743771
3740,Bilzen,Tombestraat,24,50.8477497586,5.60592454779
3740,Bilzen,Meremweg,54,50.8672107252,5.50343131487
3740,Bilzen,Holt,135,50.8900147232,5.47600455881
3740,Bilzen,Braamstraat,29,50.8721203364,5.57043622359
3740,Bilzen,Heseputterstraat,1B,50.8793055828,5.57905413578
3740,Bilzen,Molenstraat,23,50.900261665,5.46651632558
3740,Bilzen,Langstraat,117,50.8736743008,5.54754358629
3740,Bilzen,Herreweg,3,50.8434614226,5.55045453764
3740,Bilzen,Terfakkerstraat,9,50.8650332508,5.49668231125
3740,Bilzen,Zeepstraat,27,50.8651624759,5.50913363945
3740,Bilzen,Buissen,27,50.8831281706,5.52317075467
3740,Bilzen,Laarstraat,81,50.8892821401,5.49185045858
3740,Bilzen,Maastrichterstraat,42,50.8645633678,5.53029734031
3740,Bilzen,Sint-Aldegondisstraat,15,50.8392483679,5.54591057465
3740,Bilzen,Cuvelierstraat,12,50.8327551143,5.51647781329
3740,Bilzen,Beekstraat,11,50.8918245014,5.47711733049
3740,Bilzen,Kleehofkensstraat,18,50.8629127934,5.57852823031
3740,Bilzen,Litsebeek,30,50.8855677495,5.57235856235
3740,Bilzen,Eik,6,50.8967159242,5.50509439936
3740,Bilzen,Grote Mereweg,50,50.870760404,5.57892636449
3740,Bilzen,Kloosterstraat,4,50.8710596737,5.51818070094
3740,Bilzen,Hoogveld,53,50.9002719668,5.47991121548
3740,Bilzen,Demerwal,1C,50.8686610761,5.51604311719
3740,Bilzen,Maastrichterstraat,184,50.8635344125,5.54393738258
3740,Bilzen,Holt,21,50.8837374191,5.48692445742
3740,Bilzen,Grittelbergstraat,22,50.865497585,5.54921930556
3740,Bilzen,Bergstraat,2,50.8672310653,5.57724090635
3740,Bilzen,Leten,2A,50.8546347744,5.52278105229
3740,Bilzen,Op De Meer,6,50.8296902399,5.53822209981
3740,Bilzen,Sportveldstraat,1,50.8632423163,5.54199747358
3740,Bilzen,Op De Steeg,13,50.8275695936,5.53719652356
3740,Bilzen,Markt,53,50.8706014242,5.51845606322
3740,Bilzen,Cornelstraat,15,50.8867247099,5.5322363923
3740,Bilzen,Cabergstraat,1,50.8637435631,5.57513072848
3740,Bilzen,Riemsterweg,244,50.8444571205,5.5439020785
3740,Bilzen,Akkerstraat,7,50.8902091399,5.49647105291
3740,Bilzen,Maastrichterstraat,231,50.8625270957,5.55205485969
3740,Bilzen,Vossenkuilstraat,3,50.8774140069,5.57627539019
3740,Bilzen,Gansbeekstraat,85,50.8764723858,5.51352359284
3740,Bilzen,Langstraat,21,50.865591457,5.5476276583
3740,Bilzen,St.Ursulastraat,6,50.8766976726,5.57471628689
3740,Bilzen,Groenkloosterstraat,23,50.8881263911,5.53015260193
3740,Bilzen,Cornelstraat,51,50.8879132053,5.53502100777
3740,Bilzen,Groenkloosterstraat,58,50.8890164489,5.53243903874
3740,Bilzen,Leterweg,64,50.8581273935,5.5168423212
3740,Bilzen,Waterkasteelstraat,2A,50.9008067614,5.47827211583
3740,Bilzen,Borreberg,14,50.8689542826,5.51974685708
3740,Bilzen,Schietboomstraat,25,50.8826983684,5.53017079487
3740,Bilzen,Meershoven,115,50.8784958028,5.52726532844
3740,Bilzen,Mopertingenstraat,56,50.8660420401,5.57702390932
3740,Bilzen,Keistraat,28,50.8460248091,5.54731443787
3740,Bilzen,Roelants du Vivierlaan,2,50.8459396642,5.50669436778
3740,Bilzen,Gansbeekstraat,32,50.8749137547,5.51536792681
3740,Bilzen,Kleehofkensstraat,48,50.8616907573,5.5781646194
3740,Bilzen,Winkelstraat,25,50.844446933,5.6124721083
3740,Bilzen,Molenstraat,49B,50.9022554747,5.46895254249
3740,Bilzen,Kleehofkensstraat,2,50.8630954172,5.57636308431
3740,Bilzen,Kievitstraat,1,50.8959154785,5.52748924893
3740,Bilzen,Spelverstraat,1,50.8744745095,5.52702954468
3740,Bilzen,Maastrichterstraat,213,50.8627717117,5.54966688766
3740,Bilzen,St-Lodewijkstraat,76,50.9039254553,5.49051569174
3740,Bilzen,Dell,15,50.8836940696,5.51996531774
3740,Bilzen,Grotstraat,80,50.9047098717,5.48420551112
3740,Bilzen,Hospitaalstraat,46,50.870476739,5.51317906228
3740,Bilzen,Schietboomstraat,61,50.8819204734,5.53560942033
3740,Bilzen,Biesenweg,25,50.8635013148,5.5218903015
3740,Bilzen,Oude Tramweg,76,50.9036884567,5.52784458376
3740,Bilzen,Maastrichterstraat,60,50.8640918711,5.53264861693
3740,Bilzen,Winkelomstraat,7,50.8751296965,5.57616789767
3740,Bilzen,Herderstraat,2,50.8395134059,5.54915571247
3740,Bilzen,St.Catarinastraat,6,50.862492295,5.57436527216
3740,Bilzen,St.Catarinastraat,1A,50.8634243871,5.57486056557
3740,Bilzen,Nijverheidsstraat,9,50.8944454557,5.47107857595
3740,Bilzen,Gansbeekstraat,67,50.876429981,5.51422027035
3740,Bilzen,Biestertstraat,10,50.8308491371,5.54611300527
3740,Bilzen,Herkebamstraat,20,50.9010693347,5.5308099205
3740,Bilzen,Monnikenhof,6,50.8469949968,5.57410089992
3740,Bilzen,Oude Tramweg,58,50.9023371411,5.52633765926
3740,Bilzen,St-Lodewijkstraat,23,50.9019368995,5.48225333292
3740,Bilzen,Demerwal,1A,50.8685843812,5.51651222665
3740,Bilzen,Rehagestraat,3,50.8826582941,5.49269092224
3740,Bilzen,Bammestraat,37,50.828206783,5.51613548875
3740,Bilzen,Oude Tramweg,23,50.898831273,5.52318389154
3740,Bilzen,Kogelstraat,21,50.8373179967,5.51703197096
3740,Bilzen,Wagenstraat,14,50.8688911093,5.49722991584
3740,Bilzen,Holt,117,50.889667313,5.47710163594
3740,Bilzen,Eik,38,50.8977218671,5.50903254413
3740,Bilzen,Nachtegaalstraat,7,50.836370795,5.54892484584
3740,Bilzen,Laarstraat,10,50.8875955908,5.48332333203
3740,Bilzen,Leterweg,46,50.8593467724,5.51721972347
3740,Bilzen,Bovenstraat,32,50.8290122829,5.54674483495
3740,Bilzen,Stationlaan,13,50.8700156007,5.51251709293
3740,Bilzen,Rehagestraat,10,50.8868435912,5.49636574187
3740,Bilzen,Scheepveldweg,3,50.8637004677,5.58236463568
3740,Bilzen,Pleinstraat,21,50.8348670603,5.51530643034
3740,Bilzen,Klokkestraat,21,50.8715296893,5.5170161667
3740,Bilzen,Dennenstraat,1B,50.9013013141,5.46495796887
3740,Bilzen,Bleekaart,12,50.8736682999,5.52601245218
3740,Bilzen,Gansbeekstraat,14,50.8750154125,5.51477261232
3740,Bilzen,Groenkloosterstraat,76,50.8886521573,5.53440373019
3740,Bilzen,Schoonbeekstraat,29,50.9018912617,5.47466359842
3740,Bilzen,Hospitaalstraat,4,50.8717118711,5.51367492594
3740,Bilzen,Acacialaan,11,50.8669280099,5.49944422165
3740,Bilzen,Oude Siemerstraat,24,50.898031613,5.52094785469
3740,Bilzen,Eikenbeekstraat,10,50.8738432829,5.57755888278
3740,Bilzen,Biestertstraat,3,50.830686139,5.54689979659
3740,Bilzen,Sporthalstraat,8,50.8767369027,5.57930366749
3740,Bilzen,Kerkstraat,8,50.8421915705,5.57751924934
3740,Bilzen,Maastrichterstraat,113,50.863389528,5.53562444051
3740,Bilzen,Cuvelierstraat,47,50.8340884534,5.51848308513
3740,Bilzen,Toekomststraat,45,50.8446139412,5.61498124928
3740,Bilzen,Dennenstraat,7,50.901642115,5.46475835567
3740,Bilzen,Betonweg,27,50.8632296822,5.57897565005
3740,Bilzen,Camille Huysmansplein,12,50.8706981585,5.51899735244
3740,Bilzen,Munsterbilzenstraat,13,50.8872884727,5.52710684274
3740,Bilzen,Heesstraat,14,50.8468382208,5.60932363638
3740,Bilzen,Achter de Hoven,3,50.8318250003,5.51446034066
3740,Bilzen,Gansbeekstraat,111,50.8771673214,5.51466826321
3740,Bilzen,Heesveld,25,50.899145656,5.49828095761
3740,Bilzen,Mopertingenstraat,18,50.8619529907,5.57519994054
3740,Bilzen,Rosmeerstraat,20,50.846119559,5.57716687936
3740,Bilzen,Zutendaalweg,14,50.8990894731,5.52648771194
3740,Bilzen,Oude Tramweg,6,50.8952061786,5.52181728809
3740,Bilzen,Merem,11,50.8666283337,5.50059274542
3740,Bilzen,Jaak Vandersandenstraat,94,50.8356369119,5.54236975645
3740,Bilzen,Sinckestraat,13,50.8572096828,5.57486034425
3740,Bilzen,Mooi Uitzichtlaan,24,50.8683629326,5.52174614535
3740,Bilzen,Kastanjestraat,15,50.9027952092,5.46208006238
3740,Bilzen,Hoveweg,27,50.8977828922,5.52758014397
3740,Bilzen,Grote Spouwenstraat,32,50.8322213476,5.55710643619
3740,Bilzen,Hossetstraat,3,50.8923361999,5.52971590761
3740,Bilzen,Kloosterstraat,46,50.8721932988,5.51853738642
3740,Bilzen,Natveld,14,50.8621765766,5.50484232722
3740,Bilzen,Lochtstraat,55,50.8803820438,5.57243905735
3740,Bilzen,Kapelstraat,5,50.8740058664,5.50974772598
3740,Bilzen,Toekomststraat,63,50.8453406123,5.61692957992
3740,Bilzen,St-Lodewijkstraat,6,50.9025211142,5.48079124651
3740,Bilzen,Dorpsstraat,74,50.8684915795,5.57678474195
3740,Bilzen,Waterkasteelstraat,4A,50.9011588016,5.4791299297
3740,Bilzen,Bammestraat,20,50.8293873125,5.51575291777
3740,Bilzen,Kleehofkensstraat,54,50.8620678687,5.57783793637
3740,Bilzen,Mopertingenstraat,36,50.8637522022,5.5754095372
3740,Bilzen,Laakstraat,20,50.8805326425,5.50869926665
3740,Bilzen,Dorpsstraat,56,50.8704173225,5.57639709629
3740,Bilzen,Gellikerweg,19,50.8823889352,5.58833123208
3740,Bilzen,Lochtstraat,91,50.8835261257,5.56809652055
3740,Bilzen,Riemsterweg,20,50.8627728544,5.52696622771
3740,Bilzen,Hasseltsestraat,1,50.8748012947,5.50540161513
3740,Bilzen,Rooi,15,50.8801750627,5.50465263473
3740,Bilzen,Overslagstraat,16,50.8345310262,5.54755004097
3740,Bilzen,Korte Heidestraat,9,50.8993711682,5.5129478791
3740,Bilzen,Winterstraat,68,50.8786174633,5.51505736535
3740,Bilzen,Kloosterstraat,64,50.8727545716,5.51915216884
3740,Bilzen,Brugstraat,56,50.8672500551,5.5191860914
3740,Bilzen,Koekoekstraat,35,50.8933080517,5.52869996844
3740,Bilzen,Molenstraat,58,50.9025686424,5.46806644001
3740,Bilzen,Cuvelierstraat,65,50.8345016622,5.52156678169
3740,Bilzen,Beverststraat,39,50.8929144524,5.47201917554
3740,Bilzen,Amelsdorp,51,50.8541536392,5.55027599429
3740,Bilzen,Zutendaalweg,11A,50.9007522255,5.52680100171
3740,Bilzen,Zutendaalweg,32,50.8996835543,5.52678017169
3740,Bilzen,Tipstraat,52,50.8958089953,5.46172210682
3740,Bilzen,Schoonbeekstraat,67,50.9025293435,5.46992776407
3740,Bilzen,Achter de Hoven,17,50.8320730746,5.51539541521
3740,Bilzen,Cornelstraat,33,50.8871203341,5.53362730598
3740,Bilzen,Meershoven,2,50.8733725023,5.52192458704
3740,Bilzen,Hasseltsestraat,35,50.8773676361,5.50128408736
3740,Bilzen,Meershoven,18,50.8740613668,5.52365941414
3740,Bilzen,Schietboomstraat,43,50.8824936465,5.53349003482
3740,Bilzen,Spurk,18,50.8874718722,5.50286295863
3740,Bilzen,Haenenstraat,22,50.882910168,5.57323936428
3740,Bilzen,Tongersestraat,64,50.8646957444,5.50648104259
3740,Bilzen,Schoolstraat,17,50.90302347,5.47467720513
3740,Bilzen,Blindestraat,1,50.8881185808,5.4807447812
3740,Bilzen,Blindestraat,17,50.8893395512,5.4825093602
3740,Bilzen,Oude Beekstraat,56,50.8901612191,5.52863427573
3740,Bilzen,Kerkhoflaan,25,50.8793050938,5.57091032966
3740,Bilzen,Jaak Vandersandenstraat,41,50.8381728425,5.54806282184
3740,Bilzen,Spurk,2,50.8859137915,5.50517028943
3740,Bilzen,Schoolstraat,1,50.902407781,5.4762721434
3740,Bilzen,Omstraat,44,50.8727912801,5.51747101591
3740,Bilzen,Veldhof,6,50.8966274179,5.50952711184
3740,Bilzen,Maastrichterpoort,3,50.8656696947,5.52245300609
3740,Bilzen,Jonkherenbos,41,50.9043352588,5.47322572223
3740,Bilzen,Meershoven,133,50.8792650501,5.52715428279
3740,Bilzen,Frans-Ceulemansstraat,6,50.8308521445,5.55475595902
3740,Bilzen,Spoorstraat,2,50.8776927843,5.50988593621
3740,Bilzen,Winkelomstraat,39,50.8747556075,5.58251626666
3740,Bilzen,Achter de Hoven,35,50.8324816284,5.51675222894
3740,Bilzen,Papestraat,12,50.8331448295,5.55756265863
3740,Bilzen,Pannenovenstraat,9,50.886668007,5.47942257316
3740,Bilzen,Riemsterweg,279,50.8417447861,5.550931919
3740,Bilzen,Beekomstraat,13B,50.872066566,5.57298732814
3740,Bilzen,Pater Damiaanstraat,6,50.8677288061,5.50135265524
3740,Bilzen,Dulgaardstraat,11,50.8870439022,5.5362963696
3740,Bilzen,Spurkerweg,62,50.8797500454,5.50981543702
3740,Bilzen,Tongersestraat,11,50.8675355114,5.50850619623
3740,Bilzen,Pastorijstraat,43,50.8353577102,5.55317674494
3740,Bilzen,Vijverstraat,26,50.8918931595,5.47848980662
3740,Bilzen,Nieuwstraat,22,50.8692626488,5.50878681264
3740,Bilzen,Panisstraat,7,50.8890930368,5.52854547847
3740,Bilzen,Koekoekstraat,17,50.8914709822,5.52981305405
3740,Bilzen,Haenenstraat,57,50.8854839062,5.57480572682
3740,Bilzen,Brugstraat,21,50.8690426505,5.51723538097
3740,Bilzen,Appelveldstraat,69,50.9079614056,5.47072244399
3740,Bilzen,Rode Kruislaan,159,50.8351600527,5.54727803517
3740,Bilzen,Eikerweg,58,50.9016868804,5.50899028151
3740,Bilzen,Waltwilderstraat,26,50.8666337342,5.54308537648
3740,Bilzen,Cuvelierstraat,30,50.8337876727,5.5190189082
3740,Bilzen,Daalstraat,23,50.8442582333,5.58053478658
3740,Bilzen,Spurk,36,50.8881614652,5.50098964942
3740,Bilzen,Hoekstraat,20,50.9010178365,5.48564681753
3740,Bilzen,Reekstraat,123,50.85211925,5.5224390293
3740,Bilzen,Sapstraat,30,50.8310385239,5.550484704
3740,Bilzen,Steegstraat,12,50.8448578963,5.58091904571
3740,Bilzen,Kromstraat,13,50.8667655338,5.54381252832
3740,Bilzen,Koekoekstraat,3,50.8902740506,5.52962495428
3740,Bilzen,Perronstraat,12,50.8888426797,5.52703205963
3740,Bilzen,Grote Spouwenstraat,14,50.8322966425,5.55539010142
3740,Bilzen,Winterstraat,33,50.8758209476,5.51796220612
3740,Bilzen,Tweevoetjesweg,4,50.8698228613,5.52125686689
3740,Bilzen,Vinkenstraat,10,50.8954746216,5.52615572396
3740,Bilzen,Brugstraat,74,50.8668429677,5.52057765097
3740,Bilzen,Munsterbilzenstraat,48,50.8852465153,5.52976567886
3740,Bilzen,Riemsterweg,297,50.8387150094,5.55208217319
3740,Bilzen,Gellikerweg,5,50.8820086536,5.58618274202
3740,Bilzen,Daalstraat,58,50.8434198986,5.58338743381
3740,Bilzen,Hombergstraat,1,50.907109859,5.50104653267
3740,Bilzen,Chrysantenlaan,10,50.8855436408,5.53420018041
3740,Bilzen,Omstraat,24A,50.8722717968,5.51650802385
3740,Bilzen,Wijngaardstraat,41,50.8851044868,5.52340583192
3740,Bilzen,Kampveldweg,9,50.8762604506,5.51002121318
3740,Bilzen,Jachtstraat,18,50.8808284212,5.48632607767
3740,Bilzen,Beverststraat,7,50.8909636122,5.47460850162
3740,Bilzen,Romeinsestraat,22,50.8609071908,5.5485196505
3740,Bilzen,Driesstraat,4,50.8459394486,5.55174468163
3740,Bilzen,St.Landradastraat,15,50.8848150228,5.52470811602
3740,Bilzen,Lochtstraat,73,50.8819430891,5.57071127361
3740,Bilzen,Eikerweg,23,50.9003438977,5.51143855387
3740,Bilzen,Heesstraat,32,50.8474206488,5.61118195076
3740,Bilzen,Meershoven,36,50.8745120728,5.52574707226
3740,Bilzen,Rode Kruislaan,106,50.8396947146,5.55533726865
3740,Bilzen,Grote Steenstraat,2,50.8477336878,5.61052204303
3740,Bilzen,Papestraat,65,50.8371166347,5.55441373632
3740,Bilzen,Spurkerweg,44,50.8781162409,5.51041207121
3740,Bilzen,Maastrichterstraat,338,50.8608882106,5.57380275109
3740,Bilzen,Winterstraat,86,50.8798010891,5.51476026746
3740,Bilzen,Sint Lambertuslaan,24,50.8726726922,5.51178513203
3740,Bilzen,Beverststraat,50,50.8930736453,5.47084549592
3740,Bilzen,Bruulstraat,15,50.8751460635,5.57274816031
3740,Bilzen,Litsebeek,29,50.8868692436,5.56905777126
3740,Bilzen,Kellerstraat,5,50.8324169234,5.55996352817
3740,Bilzen,Oude Tramweg,51,50.9019279415,5.52662457293
3740,Bilzen,Hoevelaan,1,50.8584857929,5.54892615878
3740,Bilzen,Pastorijstraat,31B,50.8346031269,5.55154744581
3740,Bilzen,Grote Mereweg,95,50.8700166406,5.57913225388
3740,Bilzen,St-Lodewijkstraat,51,50.9027980097,5.48643193784
3740,Bilzen,Heesveld,42A,50.8997525165,5.49671008398
3740,Bilzen,Korenstraat,5,50.8707354724,5.51464427588
3740,Bilzen,Holt,38,50.8848214131,5.4844584092
3740,Bilzen,Ribusstraat,5A,50.8839184121,5.50754701654
3740,Bilzen,Gansbeekstraat,60,50.8752990368,5.51624640044
3740,Bilzen,Driesstraat,18,50.8463445094,5.55085936508
3740,Bilzen,Braamstraat,30,50.8725431598,5.57035781295
3740,Bilzen,Cornelstraat,8,50.8864059952,5.52995908925
3740,Bilzen,Stationlaan,28,50.8692663836,5.51204149194
3740,Bilzen,Kattestraat,6,50.8802837699,5.56842936368
3740,Bilzen,Romboutstraat,5,50.8697189261,5.51591196738
3740,Bilzen,Riemsterweg,224,50.8465397389,5.54172744961
3740,Bilzen,Spurkerweg,63B,50.8817722046,5.5096563928
3740,Bilzen,Processiestraat,23,50.8959327732,5.51923618498
3740,Bilzen,Elzenstraat,1,50.9006931659,5.46519327278
3740,Bilzen,Withofsstraat,15,50.8764426904,5.5779652948
3740,Bilzen,Hoogstraat,55,50.8474820298,5.57439742536
3740,Bilzen,Bovenstraat,42,50.8286766265,5.54630103981
3740,Bilzen,Kleistraat,56,50.8849110426,5.47305829752
3740,Bilzen,Hartenberg,3,50.8748878733,5.57419903055
3740,Bilzen,Dell,8,50.8831760342,5.5204326964
3740,Bilzen,Haagstraat,26,50.8943266319,5.52258634025
3740,Bilzen,Tipstraat,113,50.8990949692,5.45230046623
3740,Bilzen,Litsebeek,3,50.8872400391,5.56682152936
3740,Bilzen,Maastrichterstraat,331,50.8606155775,5.57314131224
3740,Bilzen,Beverststraat,58A,50.8931774717,5.47028203695
3740,Bilzen,Terfakkerstraat,2,50.8656036402,5.4979773136
3740,Bilzen,Eikenbeekstraat,1,50.8737591417,5.57520918263
3740,Bilzen,Kuilenweg,27,50.8946390312,5.50811764089
3740,Bilzen,Winterstraat,94,50.8804584584,5.51459625966
3740,Bilzen,Haenenstraat,65,50.8858685098,5.57460596664
3740,Bilzen,Leenveldstraat,5,50.9024013981,5.46524399772
3740,Bilzen,Groenkloosterstraat,51,50.888561252,5.53234915061
3740,Bilzen,Winterstraat,8,50.8739225583,5.51757187318
3740,Bilzen,Vrankrijk,31,50.8602293422,5.50707357492
3740,Bilzen,Eikenlaan,15,50.8669797776,5.51196322765
3740,Bilzen,Violierenstraat,23,50.8860485707,5.53515674426
3740,Bilzen,Rijkhovenstraat,27,50.8333423205,5.51481236732
3740,Bilzen,Haakstraat,7,50.8671807645,5.4981162548
3740,Bilzen,Meershoven,100,50.8785036833,5.52650368852
3740,Bilzen,Groenstraat,21,50.8476276435,5.57794429304
3740,Bilzen,Markt,25,50.8698108203,5.51775656624
3740,Bilzen,Maastrichterstraat,424,50.8621163687,5.58678079893
3740,Bilzen,Oudestraat,38,50.8968801083,5.46280231279
3740,Bilzen,Cornelstraat,58,50.8880967295,5.53462929285
3740,Bilzen,Beekstraat,4,50.8918913877,5.47644172751
3740,Bilzen,Demerlaan,15,50.8691334988,5.51569690798
3740,Bilzen,St.Rochusstraat,10,50.8840483779,5.53192261587
3740,Bilzen,Leten,4A,50.8546579527,5.52205199036
3740,Bilzen,Zangerheistraat,125,50.8851188448,5.56649151671
3740,Bilzen,Maastrichterstraat,313,50.8610333552,5.5701900313
3740,Bilzen,Spoorwegstraat,69,50.892786934,5.4751160086
3740,Bilzen,Bleekaart,3,50.8722996755,5.52666770228
3740,Bilzen,Cuvelierstraat,29,50.83331942,5.51582959081
3740,Bilzen,Mooi Uitzichtlaan,39,50.8676939841,5.52196172588
3740,Bilzen,Dorpsstraat,31,50.8752590771,5.57532872339
3740,Bilzen,Omstraat,69,50.8727800826,5.51809081915
3740,Bilzen,Merelstraat,2,50.8945341404,5.52599947118
3740,Bilzen,Braamstraat,12,50.8734144988,5.57202696801
3740,Bilzen,Brugstraat,66,50.8670853744,5.51943082475
3740,Bilzen,Papestraat,57,50.8366743502,5.55511872892
3740,Bilzen,Sint Martinusstraat,24,50.8689287109,5.51030546725
3740,Bilzen,Gansbeekstraat,42,50.8749841896,5.51581440688
3740,Bilzen,Spurkerweg,69,50.882589726,5.50965466119
3740,Bilzen,Tabaartstraat,58,50.8717397521,5.52449787626
3740,Bilzen,Oude Heidestraat,18,50.9013893694,5.51297278225
3740,Bilzen,Herreweg,20,50.8423747027,5.54527352137
3740,Bilzen,Heesstraat,60,50.847747904,5.61399557272
3740,Bilzen,Maastrichterstraat,348,50.8606651626,5.57478103772
3740,Bilzen,Dorpsstraat,117,50.8687455117,5.5774181266
3740,Bilzen,Pijpenhof,27,50.8739955211,5.5200604263
3740,Bilzen,Broekemveldweg,23,50.8797616408,5.51383771975
3740,Bilzen,Dorpsstraat,13,50.8760580923,5.5754143407
3740,Bilzen,Rijkhovenstraat,1,50.8340540577,5.51668189461
3740,Bilzen,Weg naar Diepenbeek,1,50.90192352,5.52156749201
3740,Bilzen,Biestertstraat,47,50.829515407,5.54081872382
3740,Bilzen,Dorpsstraat,66,50.8695176137,5.57713167467
3740,Bilzen,Vrankrijk,13,50.8621774888,5.50898998192
3740,Bilzen,Merem,4,50.8665405993,5.50175503498
3740,Bilzen,Jaak Vandersandenstraat,86,50.8359438756,5.54362356992
3740,Bilzen,Winterbergstraat,19,50.8370888177,5.52280756835
3740,Bilzen,Lochtstraat,98,50.8841687511,5.56716624467
3740,Bilzen,Paardskerkhofstraat,16,50.8783765888,5.51276656118
3740,Bilzen,Hasseltsestraat,43,50.8778738692,5.50069022622
3740,Bilzen,Jonkherenbos,33,50.9043537332,5.47256173393
3740,Bilzen,Jonkherenbos,86,50.9045428265,5.47692782102
3740,Bilzen,Eik,21,50.8972717353,5.50804025452
3740,Bilzen,Heesstraat,138,50.8475853313,5.62385130304
3740,Bilzen,Rode Kruislaan,8,50.8591197369,5.57516750083
3740,Bilzen,Groene Grachtlaan,14,50.8716730474,5.52284505269
3740,Bilzen,Redemptiestraat,41,50.8668296713,5.57924190392
3740,Bilzen,Broekemveldweg,58,50.8778268451,5.51370370003
3740,Bilzen,Bammestraat,10,50.8298858258,5.51582811538
3740,Bilzen,Zangerheistraat,107,50.8863644563,5.56642437858
3740,Bilzen,Vossenkuilstraat,20,50.878518261,5.57829714773
3740,Bilzen,Riemsterweg,208,50.8479597589,5.54076184468
3740,Bilzen,Solveldstraat,13A,50.8696953077,5.50812641798
3740,Bilzen,Laakstraat,10,50.880870129,5.51090041453
3740,Bilzen,Kerkstraat,23,50.844027023,5.57608892202
3740,Bilzen,Fietenstraat,46,50.881663563,5.56414908585
3740,Bilzen,Jaak Vandersandenstraat,33,50.8383429494,5.54850014884
3740,Bilzen,Litsebeek,40,50.8853833086,5.573545158
3740,Bilzen,Begeveldstraat,34,50.9085004502,5.46362574091
3740,Bilzen,Munsterbilzenstraat,28,50.8864585358,5.52898323906
3740,Bilzen,Plankenbergstraat,20,50.8986044009,5.51412452395
3740,Bilzen,Stationlaan,6,50.8698651384,5.51340682817
3740,Bilzen,Spurk,46,50.8883340935,5.49951574449
3740,Bilzen,Meershoven,46,50.8747846074,5.52665481621
3740,Bilzen,Palsbosstraat,25,50.9099831505,5.46981278482
3740,Bilzen,Akkerstraat,24,50.8896189,5.49463833779
3740,Bilzen,Alden Biesenstraat,5,50.8362325492,5.52055988299
3740,Bilzen,Borreberg,5,50.8684724602,5.5194007408
3740,Bilzen,Echellaan,7,50.8986143254,5.51898276589
3740,Bilzen,Tipstraat,44,50.8954641085,5.46256317299
3740,Bilzen,Schoonbeekstraat,12,50.9017394894,5.47731387102
3740,Bilzen,Pleinstraat,1A,50.8361627074,5.51902068479
3740,Bilzen,Keistraat,31,50.8467988334,5.54874218542
3740,Bilzen,Langheidestraat,16,50.9045236808,5.48766185091
3740,Bilzen,Acacialaan,4,50.867601496,5.50017975508
3740,Bilzen,Mathijsestraat,11,50.8628164034,5.57926091242
3740,Bilzen,Demerwal,21,50.8694700903,5.51452118491
3740,Bilzen,Noppenstraat,29A,50.8418595054,5.60743522624
3740,Bilzen,Palsbosstraat,1,50.9091556652,5.47273316325
3740,Bilzen,Tielemanstraat,5,50.8712317964,5.52603750614
3740,Bilzen,Winkelomstraat,50,50.8744641409,5.58214169687
3740,Bilzen,Winkelomstraat,24,50.8746435759,5.5792637599
3740,Bilzen,Paardskerkhofstraat,34,50.8780157451,5.51194236989
3740,Bilzen,Pijpenpoort,10,50.8730143523,5.52042086136
3740,Bilzen,Pasweg,9,50.865349339,5.50507351566
3740,Bilzen,Kann. Nulensstraat,7,50.8287487913,5.53641384983
3740,Bilzen,Langstraat,38,50.8666828474,5.54682933803
3740,Bilzen,Kleehofkensstraat,9,50.8621577641,5.57641710507
3740,Bilzen,Laarstraat,20,50.8884226367,5.48423899498
3740,Bilzen,Rooierweg,33,50.8784878612,5.50591932758
3740,Bilzen,Biestertstraat,37,50.8298113927,5.54205704166
3740,Bilzen,Pannenovenstraat,11,50.8866193907,5.47921135466
3740,Bilzen,Korte Heidestraat,2,50.8995342019,5.51208632372
3740,Bilzen,Kann. Nulensstraat,16,50.8279231541,5.53427637326
3740,Bilzen,Beekomstraat,25,50.8718365488,5.57186973214
3740,Bilzen,Rooierweg,15,50.877167152,5.50449118268
3740,Bilzen,Schoonbeekstraat,60,50.9018180513,5.47091141858
3740,Bilzen,Leten,15,50.8557102356,5.51774624959
3740,Bilzen,Tipstraat,97,50.8987564375,5.45414379133
3740,Bilzen,Genkerbaan,3,50.8998782007,5.52564973653
3740,Bilzen,Tongersestraat,90,50.861664971,5.50338936879
3740,Bilzen,Kerkhoflaan,12B,50.8787828942,5.5719649061
3740,Bilzen,Nieuwstraat,19,50.8709687301,5.5089674799
3740,Bilzen,Spoorwegstraat,34,50.8928198996,5.47612916806
3740,Bilzen,Natveld,2B,50.8635945221,5.50545865602
3740,Bilzen,Veldstraat,11,50.8791491628,5.57490687866
3740,Bilzen,Hoefsmidstraat,40,50.8975924885,5.51318855226
3740,Bilzen,Hospitaalstraat,18,50.8712729797,5.51330389714
3740,Bilzen,Laarstraat,37,50.8895792263,5.48549868827
3740,Bilzen,Heesstraat,5,50.8465399376,5.60988125402
3740,Bilzen,Overslagstraat,7,50.8356846065,5.54569095829
3740,Bilzen,Riemsterweg,427,50.833269297,5.56200808198
3740,Bilzen,Zonnelaan,34,50.9001663595,5.51567507699
3740,Bilzen,Speelbosweg,3,50.8861816754,5.48099238793
3740,Bilzen,Riemsterweg,17,50.8635547548,5.52522750107
3740,Bilzen,Taunusweg,16,50.9065622519,5.52288256722
3740,Bilzen,Omstraat,34,50.8724751666,5.5170586143
3740,Bilzen,Hoogveld,1,50.9016124408,5.483824491
3740,Bilzen,Achter de Hoven,20,50.8320336739,5.51609562387
3740,Bilzen,Zonnelaan,16,50.8990735486,5.5171296217
3740,Bilzen,Kerktorenstraat,3,50.8650739593,5.54572134304
3740,Bilzen,Stationlaan,56,50.8682075772,5.50994567608
3740,Bilzen,Groenstraat,6,50.8477288299,5.57571597995
3740,Bilzen,Omstraat,16,50.872181566,5.51615543069
3740,Bilzen,Gansbeekstraat,138,50.8754699211,5.51389432077
3740,Bilzen,Tabaartstraat,23,50.8723188117,5.52522043924
3740,Bilzen,Daalstraat,51,50.8438768111,5.5829532129
3740,Bilzen,Haenenstraat,19,50.8827776538,5.57244164917
3740,Bilzen,Herkebamstraat,10,50.9006657526,5.52992896785
3740,Bilzen,Spurkerweg,15A,50.8761715565,5.51269506533
3740,Bilzen,Lochtstraat,101,50.8838792152,5.5670380469
3740,Bilzen,Grote Mereweg,111,50.8685149251,5.57867995418
3740,Bilzen,Riemsterweg,409,50.8357560196,5.55739204424
3740,Bilzen,Grensstraat,6,50.9123193761,5.46290102412
3740,Bilzen,Rooi,94,50.8840566727,5.50314114907
3740,Bilzen,Schoonbeekstraat,30,50.9015752293,5.47466581738
3740,Bilzen,Litsebeek,75,50.8857974431,5.57297333822
3740,Bilzen,Spurkerweg,34,50.8770367116,5.51109945379
3740,Bilzen,Oude Tongersestraat,15,50.8760328402,5.50697462459
3740,Bilzen,Fietenstraat,18,50.8829436633,5.56623604959
3740,Bilzen,Spurkerweg,16,50.8758571147,5.5123769185
3740,Bilzen,Hasseltsestraat,61,50.8787484497,5.49877098975
3740,Bilzen,Sint Antoniusstraat,6,50.8818535207,5.52281197002
3740,Bilzen,Holt,109,50.8891733306,5.4782766771
3740,Bilzen,Dennenstraat,24,50.9023425285,5.46330659635
3740,Bilzen,Groenkloosterstraat,1E,50.8876767024,5.52718678084
3740,Bilzen,Beverststraat,59,50.8937674215,5.46963061669
3740,Bilzen,Oude Beekstraat,1C,50.8938996597,5.52592881172
3740,Bilzen,Rosmeerstraat,17,50.8463304581,5.57655853266
3740,Bilzen,Leenveldstraat,42,50.9027035331,5.4651991636
3740,Bilzen,Waltwilderstraat,11,50.8653533758,5.54450372416
3740,Bilzen,Zutendaalweg,5,50.8996808778,5.52620402935
3740,Bilzen,Begeveldstraat,48,50.9080314421,5.46177209929
3740,Bilzen,Spoorwegstraat,16,50.8917085395,5.47972963904
3740,Bilzen,Grote Spouwenstraat,5,50.8327742428,5.55450945829
3740,Bilzen,Nieuwe Heidestraat,30,50.9020737282,5.5182154998
3740,Bilzen,Blookstraat,23,50.8666174235,5.58090208983
3740,Bilzen,Hoogbrugstraat,20,50.8860063334,5.50326317175
3740,Bilzen,Bandstraat,7,50.8479063676,5.56987233625
3740,Bilzen,Leterweg,18,50.8632252849,5.51884428371
3740,Bilzen,Winterstraat,41,50.8763186687,5.51791570269
3740,Bilzen,Hospitaalstraat,36,50.870796915,5.51306609581
3740,Bilzen,Grote Spouwenstraat,42,50.8318803614,5.5583349119
3740,Bilzen,Kapelstraat,22,50.874586486,5.51063316005
3740,Bilzen,Holt,84,50.8877225353,5.47969341861
3740,Bilzen,Diepestraat,11,50.8460409308,5.58044600292
3740,Bilzen,Tipstraat,79,50.8981226226,5.45595920834
3740,Bilzen,Genkerbaan,29,50.9018371407,5.52213279909
3740,Bilzen,Striekestraat,14,50.8461274496,5.60478421884
3740,Bilzen,Maastrichterstraat,366,50.8608405136,5.57710046669
3740,Bilzen,Kerktorenstraat,22,50.8650925499,5.54732545907
3740,Bilzen,Meershoven,64,50.8759990613,5.5273544832
3740,Bilzen,Markt,1,50.869949734,5.51585466484
3740,Bilzen,Kromstraat,28,50.8680014819,5.54500393106
3740,Bilzen,Eigenstraat,10,50.8600347652,5.57991524518
3740,Bilzen,Meershoven,48,50.8747437051,5.52691838904
3740,Bilzen,Genkerbaan,40,50.9010854824,5.52360104636
3740,Bilzen,Spurk,48,50.888583625,5.49945495228
3740,Bilzen,Perronstraat,3,50.8875848353,5.52629262104
3740,Bilzen,Rooi,41,50.8817667801,5.50257604047
3740,Bilzen,Riemsterweg,272,50.842981568,5.54995739554
3740,Bilzen,Oude Siemerstraat,39,50.8984106284,5.51985096118
3740,Bilzen,Amelsdorp,76,50.8537148078,5.55035614037
3740,Bilzen,Jonkherenbos,68,50.9045812067,5.47529005445
3740,Bilzen,Sinckestraat,6,50.8576299075,5.57418718859
3740,Bilzen,Papestraat,3,50.8327344018,5.55729701445
3740,Bilzen,Meershoven,82,50.8770866991,5.52713975146
3740,Bilzen,Sint Jozefstraat,32,50.8979974566,5.50306517721
3740,Bilzen,Kloosterstraat,18,50.8716051119,5.51841172924
3740,Bilzen,Amelsdorp,58,50.8550650206,5.55243259515
3740,Bilzen,Herderenweg,11,50.829636212,5.55443027952
3740,Bilzen,Spelverstraat,11B,50.8732943506,5.52730876686
3740,Bilzen,Hoekstraat,17,50.9008373711,5.48522467489
3740,Bilzen,Eikerweg,3A,50.8970149788,5.51278835465
3740,Bilzen,Jonkherenbos,15,50.9043876551,5.47072210873
3740,Bilzen,Eik,38A,50.8977833045,5.50933443086
3740,Bilzen,Jeugdstraat,4,50.8956292277,5.50060432703
3740,Bilzen,Romeinsestraat,19,50.8608348284,5.54796439032
3740,Bilzen,Steenveldstraat,2,50.8709188448,5.57668279952
3740,Bilzen,Kampveldweg,2,50.8751575014,5.51039937501
3740,Bilzen,Kruisbosstraat,3,50.9119806078,5.52592317584
3740,Bilzen,Reekstraat,141,50.849841972,5.52160369251
3740,Bilzen,Maastrichterpoort,20,50.865710489,5.52364254897
3740,Bilzen,Bosstraat,14,50.845027405,5.57377520741
3740,Bilzen,Wijerstraat,8,50.8731086404,5.5197912989
3740,Bilzen,Zonhoevestraat,8,50.8922503122,5.47152410115
3740,Bilzen,Ribusstraat,1,50.8830037983,5.50894574118
3740,Bilzen,Spoorstraat,9,50.8780918317,5.50982543646
3740,Bilzen,Vrijweide,16,50.8960924786,5.50708417602
3740,Bilzen,Hoefsmidstraat,10,50.897650189,5.51687144782
3740,Bilzen,Molendriesstraat,15,50.8809913506,5.56959588284
3740,Bilzen,Panisstraat,24,50.8895533553,5.53089790426
3740,Bilzen,Heesveld,53,50.9012110152,5.49707641264
3740,Bilzen,Appelveldstraat,80,50.9081747289,5.47031253003
3740,Bilzen,Solveldstraat,14,50.8689630292,5.50759901707
3740,Bilzen,Vlijtingerstraat,4,50.8329855066,5.56400592217
3740,Bilzen,Riemsterweg,35,50.8627248085,5.52620516888
3740,Bilzen,Hoogstraat,54A,50.8480434594,5.57401660367
3740,Bilzen,Waterstraat,27,50.8930524792,5.52460710065
3740,Bilzen,Pater Damiaanstraat,21,50.8684253176,5.50053149469
3740,Bilzen,Leterweg,36,50.8603190888,5.51778983154
3740,Bilzen,Spurk,9,50.8876007033,5.50353253608
3740,Bilzen,Meershoven,9,50.8732705288,5.52282236972
3740,Bilzen,Lochtstraat,27,50.8786769154,5.572646301
3740,Bilzen,Brugstraat,38,50.8677167052,5.51920022408
3740,Bilzen,Sapstraat,3,50.8319600736,5.55312887102
3740,Bilzen,Koekoekstraat,20,50.8921320757,5.53032849151
3740,Bilzen,Maastrichterstraat,384,50.8611197715,5.57991410592
3740,Bilzen,Langstraat,109,50.8729902211,5.54762274841
3740,Bilzen,Rietveldstraat,6,50.8858128603,5.52521166482
3740,Bilzen,Sint Lambertuslaan,50,50.8732206057,5.50951053343
3740,Bilzen,Hennestraat,4,50.831904276,5.55691726824
3740,Bilzen,Schoonbeekstraat,42,50.9012848903,5.47316188002
3740,Bilzen,Kleistraat,6,50.8892500884,5.47474665129
3740,Bilzen,Beverststraat,24,50.8923749789,5.47222525741
3740,Bilzen,Riemsterweg,290,50.8413863995,5.55149514227
3740,Bilzen,Beverststraat,77,50.894387229,5.46719315757
3740,Bilzen,Fietenstraat,36,50.8819941631,5.56516157187
3740,Bilzen,Scapulierstraat,2,50.8885241174,5.52889102683
3740,Bilzen,Pastorijstraat,25,50.834019656,5.55224844536
3740,Bilzen,Hoogveld,25,50.9004988373,5.48277012242
3740,Bilzen,Hasseltsepoort,14,50.873453194,5.51305368312
3740,Bilzen,Oude Beekstraat,38,50.8917335808,5.52886020142
3740,Bilzen,Lindestraat,14,50.8361134577,5.51429231002
3740,Bilzen,Kloosterstraat,36,50.8718306291,5.51882077656
3740,Bilzen,Onze Lieve Vrouwstraat,25,50.8710425597,5.51559449696
3740,Bilzen,Gellikerweg,22,50.8829423774,5.58880011764
3740,Bilzen,Wijngaardstraat,15,50.8866287966,5.52347275204
3740,Bilzen,St.Remigiusstraat,33,50.8600635881,5.54718902629
3740,Bilzen,Bleekaart,22,50.8719936401,5.52601166939
3740,Bilzen,Eikerweg,15,50.8994882368,5.51181195329
3740,Bilzen,Meershoven,107,50.8780149367,5.52747088263
3740,Bilzen,Heesstraat,95,50.8471717087,5.62323413201
3740,Bilzen,Koestraat,6,50.8755513742,5.58240283998
3740,Bilzen,Oude Tramweg,68,50.9029998457,5.52710117003
3740,Bilzen,Oudestraat,31,50.8964686886,5.46352739974
3740,Bilzen,Bosstraat,7,50.8444415886,5.57399207579
3740,Bilzen,Sint Jozefstraat,7,50.8946193453,5.49984787251
3740,Bilzen,Daalstraat,33,50.8441047809,5.58130659873
3740,Bilzen,Overwegstraat,6,50.8841104946,5.52717196123
3740,Bilzen,Cuvelierstraat,22,50.8335009585,5.51750714427
3740,Bilzen,Zeepstraat,1,50.8667778551,5.50937787912
3740,Bilzen,Gansbeekstraat,59,50.876782769,5.51461596197
3740,Bilzen,Klokkestraat,13,50.8713131363,5.51762822876
3740,Bilzen,Papestraat,40,50.8360154988,5.55622074828
3740,Bilzen,Chrysantenlaan,37,50.8852674026,5.53665482748
3740,Bilzen,Langblookstraat,25,50.8989693772,5.52969804678
3740,Bilzen,Laarstraat,73,50.8899681759,5.48879678546
3740,Bilzen,Pleinstraat,13,50.8354503155,5.5177352541
3740,Bilzen,St.Amelbergastraat,1,50.8850900172,5.52838147273
3740,Bilzen,Nijverheidsstraat,11,50.8945134407,5.47134457862
3740,Bilzen,Leterweg,72,50.8560674709,5.51711822971
3740,Bilzen,Grotstraat,2,50.9026254697,5.48378742978
3740,Bilzen,Olmenstraat,1,50.902693909,5.46396739134
3740,Bilzen,Grotstraat,70,50.9044878595,5.48286583456
3740,Bilzen,Tombestraat,14,50.8472934775,5.60655472257
3740,Bilzen,Braamstraat,19,50.8727791072,5.57181900341
3740,Bilzen,Dennenstraat,42,50.9028937867,5.46129355209
3740,Bilzen,Haenenstraat,9A,50.882165366,5.57194487503
3740,Bilzen,Laarstraat,55,50.8908574069,5.48705458148
3740,Bilzen,Rijkhovenstraat,20,50.8336366982,5.51520499789
3740,Bilzen,Toekomststraat,37,50.8442621144,5.6140355291
3740,Bilzen,St-Lodewijkstraat,68,50.9037531009,5.48939686319
3740,Bilzen,Meershoven,125,50.8790952491,5.52794291647
3740,Bilzen,Melkerijwal,2,50.872570627,5.51523198584
3740,Bilzen,Munsterbilzenstraat,56,50.8848473354,5.52945691403
3740,Bilzen,Eikenbeekstraat,8,50.8737390959,5.57713872844
3740,Bilzen,Maastrichterstraat,205,50.8627347214,5.54853658243
3740,Bilzen,Zangerheistraat,2,50.8896020668,5.53152566568
3740,Bilzen,Begijnhof,16,50.8700056035,5.51965853813
3740,Bilzen,Spurkerweg,70,50.8807434538,5.50946838565
3740,Bilzen,Spurkerweg,2,50.8749405239,5.51289398549
3740,Bilzen,Broekem,1,50.8784243344,5.51089334549
3740,Bilzen,Molenstraat,50A,50.9027928349,5.46644630772
3740,Bilzen,Maastrichterstraat,158,50.8637768513,5.54059957799
3740,Bilzen,Holt,31,50.8842574672,5.48589167378
3740,Bilzen,Schietboomstraat,17,50.8831206541,5.52978927416
3740,Bilzen,Pijpenpoort,7A,50.8724671606,5.52158577756
3740,Bilzen,Biesenweg,17,50.8639392276,5.52167261841
3740,Bilzen,Sint Lambertuslaan,32,50.8728326688,5.51106181449
3740,Bilzen,Eikenbeekstraat,55,50.8739266081,5.58039211927
3740,Bilzen,Groenkloosterstraat,68,50.8888890686,5.53363325414
3740,Bilzen,Kapittelstraat,20,50.8728418937,5.5324987966
3740,Bilzen,Hoogveld,43,50.9001603657,5.48122379616
3740,Bilzen,Buissen,17,50.8831917992,5.52473422786
3740,Bilzen,Paardskerkhofstraat,9,50.8781751738,5.51354337441
3740,Bilzen,Chrysantenlaan,1,50.8857171975,5.53329998214
3740,Bilzen,Spurkerweg,52,50.8789227974,5.51018839843
3740,Bilzen,Zeepstraat,37,50.8630853729,5.50987503874
3740,Bilzen,Keistraat,6,50.8443507129,5.54608372346
3740,Bilzen,St.Rochusstraat,17,50.8834166636,5.53228926943
3740,Bilzen,Annastraat,16,50.8600944108,5.57096676048
3740,Bilzen,Spurk,11,50.8877620645,5.50329267751
3740,Bilzen,Bloemendaalstraat,17,50.8814139453,5.53175330798
3740,Bilzen,Meershoven,11,50.87323877,5.52297078431
3740,Bilzen,Maastrichterstraat,223,50.8624930655,5.55090076648
3740,Bilzen,Winkelstraat,17,50.8454413242,5.61098745319
3740,Bilzen,Heesstraat,77,50.8468845929,5.62053004257
3740,Bilzen,Romeinsestraat,30,50.860173847,5.5486337626
3740,Bilzen,Op De Steeg,21,50.8274575791,5.53635692674
3740,Bilzen,Hoogstraat,47,50.8476603055,5.57327908853
3740,Bilzen,Vogelzangstraat,10,50.8911996771,5.47735431045
3740,Bilzen,Akkerhof,9,50.8336574936,5.55508628932
3740,Bilzen,Waterkasteelstraat,3A,50.9011862946,5.47862813735
3740,Bilzen,Echellaan,26,50.9005749338,5.52050729817
3740,Bilzen,Molenstraat,33,50.9013524087,5.46672411248
3740,Bilzen,Tipstraat,16,50.8946478109,5.46492024655
3740,Bilzen,Leterweg,54,50.8588801895,5.51702422045
3740,Bilzen,Ridderstraat,10,50.8726819435,5.51833465677
3740,Bilzen,Laarstraat,91,50.8893209795,5.49312679667
3740,Bilzen,Striekestraat,7,50.8456927987,5.60678960925
3740,Bilzen,Molendriesstraat,3A,50.8811930275,5.57078785458
3740,Bilzen,Grotstraat,52,50.9051507102,5.47938607238
3740,Bilzen,Buissen,3,50.8821154558,5.52668472006
3740,Bilzen,St.Rochusstraat,3,50.8844103847,5.5301847312
3740,Bilzen,Zangerheistraat,100,50.8931385179,5.56004617252
3740,Bilzen,Eendepoelstraat,9A,50.8764429107,5.57895504168
3740,Bilzen,Keistraat,38,50.8473404501,5.54841865086
3740,Bilzen,Zonhoevestraat,14B,50.8931355042,5.46832507653
3740,Bilzen,Mooi Uitzichtlaan,32,50.8681081639,5.52255724795
3740,Bilzen,Pijpenhof,10,50.8734852774,5.52051226856
3740,Bilzen,Caetsbeekstraat,15,50.9106745749,5.5097701583
3740,Bilzen,Hasseltsepoort,39,50.8741648165,5.51338292258
3740,Bilzen,Biesenweg,71,50.8587333386,5.5225860227
3740,Bilzen,Meremweg,46,50.8673384905,5.50442393607
3740,Bilzen,Rooi,58,50.8817342086,5.50200195851
3740,Bilzen,Leeuwerikstraat,19,50.8664435625,5.49475833028
3740,Bilzen,Tipstraat,2,50.8943689599,5.46618642864
3740,Bilzen,Holt,127,50.8900471657,5.47652967949
3740,Bilzen,Parklaan,10,50.8680777703,5.51420391273
3740,Bilzen,Kasteelstraat,15,50.8402892729,5.51801631433
3740,Bilzen,Waltwilderstraat,4,50.8639315277,5.54471744538
3740,Bilzen,Heesstraat,59,50.8471288927,5.61664122923
3740,Bilzen,Rooi,23,50.8805843755,5.50383786108
3740,Bilzen,Spoorstraat,11,50.8779473182,5.50957039869
3740,Bilzen,Langstraat,31,50.8663497454,5.54776859209
3740,Bilzen,Demerwal,28,50.8690403566,5.51474981539
3740,Bilzen,Markt,43,50.8703901127,5.51827612808
3740,Bilzen,Rode Kruislaan,15,50.8579155288,5.57319991371
3740,Bilzen,Holt,66,50.8866964177,5.48127250145
3740,Bilzen,Riemsterweg,254,50.8439089447,5.54573141988
3740,Bilzen,Bloemendaalstraat,35,50.8803223714,5.53277178538
3740,Bilzen,Cornelstraat,41,50.8874596491,5.5342415028
3740,Bilzen,Genutstraat,3,50.8711385385,5.51545148926
3740,Bilzen,Processiestraat,2A,50.8974649154,5.51821007898
3740,Bilzen,Bunderstraat,14,50.8854071287,5.53055135435
3740,Bilzen,St-Lodewijkstraat,86,50.9038705198,5.49192596614
3740,Bilzen,Grammestraat,2,50.8292779637,5.55021755743
3740,Bilzen,Rooi,76,50.883146966,5.50170464266
3740,Bilzen,Meremweg,4,50.8674579005,5.50798120027
3740,Bilzen,Korenwal,5,50.8706893351,5.51355053348
3740,Bilzen,Grittelbergstraat,30,50.866127743,5.54900428348
3740,Bilzen,Klokkestraat,31,50.8718705129,5.51663120696
3740,Bilzen,Redemptiestraat,23,50.8635171496,5.58174760601
3740,Bilzen,Asbroekstraat,9,50.8637222748,5.52776516136
3740,Bilzen,Litsebeek,22,50.8859995056,5.57086532128
3740,Bilzen,Maastrichterstraat,7,50.8651451491,5.52472965861
3740,Bilzen,Mooi Uitzichtlaan,14,50.8679126575,5.5207154195
3740,Bilzen,Vlasstraat,6,50.8846349957,5.57569906921
3740,Bilzen,Cuvelierstraat,57,50.8342378169,5.51999094118
3740,Bilzen,Haenenstraat,30,50.8834740882,5.57401547296
3740,Bilzen,Tongersestraat,36,50.866653051,5.50814963238
3740,Bilzen,Litsebeek,57,50.886210942,5.57139378008
3740,Bilzen,Schoonbeekstraat,19,50.9022619008,5.47650670456
3740,Bilzen,Sapstraat,40,50.8307202945,5.54949076801
3740,Bilzen,Grotstraat,34,50.9046146356,5.47964978873
3740,Bilzen,Berkenstraat,2,50.9021153632,5.4653938494
3740,Bilzen,Rode Kruislaan,1,50.860182543,5.57513940191
3740,Bilzen,Betonweg,20,50.8634715078,5.57943946681
3740,Bilzen,Zutendaalweg,24,50.8994288459,5.52664436871
3740,Bilzen,Oude Tramweg,33,50.8996429966,5.52407252489
3740,Bilzen,Weerterveldweg,1,50.8321407825,5.5187153892
3740,Bilzen,Winkelomstraat,14,50.8748387948,5.57800569078
3740,Bilzen,Holt,13,50.8834809661,5.48837124785
3740,Bilzen,Langheidestraat,9,50.9044664771,5.4892944678
3740,Bilzen,Bergweidelaan,9,50.8726542307,5.52312351066
3740,Bilzen,Riemsterweg,314,50.8380236994,5.55437869566
3740,Bilzen,Maastrichterstraat,341,50.8604040072,5.57470884454
3740,Bilzen,Merem,18,50.8659132271,5.49987553991
3740,Bilzen,Eik,28,50.897609319,5.50865193712
3740,Bilzen,Pater Damiaanstraat,4A,50.8674602484,5.50157718744
3740,Bilzen,St-Lodewijkstraat,33,50.9021686769,5.48368245289
3740,Bilzen,Gansbeekstraat,77,50.8766593289,5.51385199916
3740,Bilzen,Kogelstraat,31,50.8366616295,5.51874254957
3740,Bilzen,Hoveweg,20,50.8977760457,5.5270079025
3740,Bilzen,Tombestraat,32,50.8483035874,5.6053112724
3740,Bilzen,Groene Grachtlaan,7,50.8708101713,5.52380024003
3740,Bilzen,Cuvelierstraat,75,50.8346573744,5.52271817869
3740,Bilzen,Schoonbeekstraat,37,50.9018404477,5.47359665046
3740,Bilzen,Rentfortstraat,1,50.8935911425,5.49847279208
3740,Bilzen,Maastrichterstraat,241,50.8623975736,5.55372519135
3740,Bilzen,St-Lodewijkstraat,15,50.9020762234,5.48146954863
3740,Bilzen,Nieuwstraat,30,50.8680744901,5.50891339437
3740,Bilzen,Jonkherenbos,8,50.9048225832,5.46999694456
3740,Bilzen,Genutstraat,10,50.8713227149,5.51494973963
3740,Bilzen,Asbornestraat,7,50.8876611314,5.47647051957
3740,Bilzen,Tuinweg,23,50.883103652,5.50982717995
3740,Bilzen,Hoogstraat,20,50.8495264228,5.56744601351
3740,Bilzen,Meershoven,143,50.8800253767,5.52710895308
3740,Bilzen,Riemsterweg,10,50.8642633053,5.52511766188
3740,Bilzen,Tombestraat,50,50.8495445634,5.60381209453
3740,Bilzen,Schaaienbosstraat,16,50.8774759597,5.58057211441
3740,Bilzen,Riemsterweg,420,50.8338658539,5.56177619794
3740,Bilzen,Herkebamstraat,27,50.8998754734,5.53036663482
3740,Bilzen,Blookstraat,2A,50.8674642881,5.57853950648
3740,Bilzen,Gansbeekstraat,24,50.8745795261,5.51491330284
3740,Bilzen,Munieckstraat,30,50.8350163587,5.55847251395
3740,Bilzen,Scapulierstraat,9,50.8886216542,5.52942830102
3740,Bilzen,Herderenweg,4,50.8306477939,5.55324429065
3740,Bilzen,Appelveldstraat,26,50.9041135264,5.46856729078
3740,Bilzen,Perronstraat,22,50.8882314064,5.52693282956
3740,Bilzen,Reekstraat,113,50.8533002914,5.5223711737
3740,Bilzen,Leterweg,17A,50.8642766048,5.51876533147
3740,Bilzen,Schildstraat,1,50.8472244505,5.55198835675
3740,Bilzen,Tongersestraat,72,50.8645144797,5.50599150274
3740,Bilzen,Vijverstraat,16,50.8912874689,5.47804379275
3740,Bilzen,Chrysantenlaan,55,50.8852200984,5.53947018966
3740,Bilzen,Koofstraat,2,50.8823193963,5.53042717963
3740,Bilzen,Kann. Nulensstraat,12A,50.8281270252,5.53481319199
3740,Bilzen,Lochtstraat,45,50.8796567118,5.57284778884
3740,Bilzen,Waterstraat,45,50.8941028417,5.52452450783
3740,Bilzen,Papestraat,22,50.8339435127,5.55747013815
3740,Bilzen,Spelverstraat,25,50.8716017782,5.52726458592
3740,Bilzen,Grensstraat,74,50.9169099681,5.47085275309
3740,Bilzen,Eikerweg,68,50.9022904555,5.5083468065
3740,Bilzen,Op De Steeg,6,50.8287933006,5.53743221854
3740,Bilzen,Kromstraat,21,50.867587384,5.54511062702
3740,Bilzen,Pijpenhof,3,50.8733122712,5.52109173374
3740,Bilzen,Heesveld,35,50.8997546849,5.4974101822
3740,Bilzen,Betonweg,1,50.8636734066,5.5761118629
3740,Bilzen,Betonweg,37,50.8634256864,5.58016763584
3740,Bilzen,Grotstraat,48,50.9052729727,5.47875012318
3740,Bilzen,Grensstraat,56,50.9158458862,5.46875250374
3740,Bilzen,Achter de Hoven,27,50.8323355652,5.51609703234
3740,Bilzen,Beverststraat,42,50.892918014,5.47116210215
3740,Bilzen,Veldstraat,4,50.8786303496,5.57435254133
3740,Bilzen,Mopertingenstraat,48,50.8646505775,5.5760530256
3740,Bilzen,Parklaan,3,50.868521747,5.51408176027
3740,Bilzen,Chrysantenlaan,47,50.8852591121,5.53823593204
3740,Bilzen,Groenkloosterstraat,15,50.8880828834,5.52918898144
3740,Bilzen,Bovenstraat,24,50.8293917101,5.5471093853
3740,Bilzen,Laarstraat,106,50.8898920995,5.49350634825
3740,Bilzen,Torenstraat,4,50.8455712907,5.60861378812
3740,Bilzen,Nieuwstraat,12,50.872082807,5.50884079789
3740,Bilzen,Hoveweg,1,50.8968955057,5.52586109495
3740,Bilzen,Demerplein,4A,50.8344465675,5.51370677949
3740,Bilzen,Toekomststraat,47,50.8446638353,5.6152522445
3740,Bilzen,Gansbeekstraat,5,50.8741799839,5.5147849008
3740,Bilzen,Tongersestraat,23A,50.8669363036,5.50789452627
3740,Bilzen,Schoolstraat,25,50.9031731748,5.47273741919
3740,Bilzen,Blindestraat,25,50.8894753279,5.48311297611
3740,Bilzen,Rosmeerstraat,10,50.8460590281,5.57634918964
3740,Bilzen,Kuilenweg,3,50.8951610219,5.50528064376
3740,Bilzen,Grittelbergstraat,12,50.8645801735,5.54944357906
3740,Bilzen,Waltwilderstraat,18,50.8659676261,5.54371314466
3740,Bilzen,Cornelstraat,23,50.8867912528,5.53276975767
3740,Bilzen,Reekstraat,135A,50.8502805472,5.52175761392
3740,Bilzen,Baanhofstraat,3,50.8429503333,5.54526862475
3740,Bilzen,Haenenstraat,12,50.8822145398,5.57273390318
3740,Bilzen,Bammestraat,98,50.8236754102,5.51944464647
3740,Bilzen,Hasseltsestraat,5A,50.8753728063,5.50508763518
3740,Bilzen,St-Maertensgrachtstraat,1,50.8936336114,5.47349810564
3740,Bilzen,Korenstraat,20A,50.870251769,5.51432358584
3740,Bilzen,Munsterbilzenstraat,21,50.8869105667,5.52760194342
3740,Bilzen,Lethenstraat,2,50.8485142029,5.52023573055
3740,Bilzen,Lochtstraat,81,50.8828346313,5.56983021162
3740,Bilzen,Reekstraat,131,50.8510032867,5.52210626946
3740,Bilzen,Kleehofkensstraat,11,50.8619974961,5.57637874756
3740,Bilzen,Rode Kruislaan,116,50.83836802,5.5553757509
3740,Bilzen,Romeinsestraat,12,50.8617129768,5.54854174014
3740,Bilzen,Ons Verlangenstraat,10,50.8929752051,5.47423727521
3740,Bilzen,Omstraat,9,50.8717089316,5.51590759145
3740,Bilzen,Sint-Aldegondisstraat,23,50.8399952308,5.54479932323
3740,Bilzen,Brugstraat,31,50.8687360016,5.51729778227
3740,Bilzen,Winterstraat,23,50.8751330451,5.5179844437
3740,Bilzen,Spoorwegstraat,9,50.8912660074,5.4804914315
3740,Bilzen,Hoekstraat,10,50.9016528794,5.48516901137
3740,Bilzen,Kerkstraat,41,50.8456564704,5.57484291937
3740,Bilzen,Kleehofkensstraat,64,50.8624192315,5.57868257784
3740,Bilzen,Koekoekstraat,27,50.8929877057,5.5294559682
3740,Bilzen,Hoefsmidstraat,3,50.8980407199,5.518140164
3740,Bilzen,Withofsstraat,8,50.8761727187,5.57640176408
3740,Bilzen,Schuurhoven,2,50.8731311461,5.51784478756
3740,Bilzen,Winterstraat,58,50.8776611597,5.51534081649
3740,Bilzen,Schietboomstraat,53,50.8823509824,5.53462870226
3740,Bilzen,Populierenstraat,4,50.9022922437,5.45985379531
3740,Bilzen,Biesenweg,53,50.8608011507,5.52210356036
3740,Bilzen,St.Remigiusstraat,8,50.8623756252,5.54571991466
3740,Bilzen,Genkerbaan,22,50.900225959,5.52507440841
3740,Bilzen,Jonkherenbos,51,50.9042746612,5.47401853116
3740,Bilzen,Mopertingenstraat,26,50.8623900557,5.57503984506
3740,Bilzen,Schaaienbosstraat,2,50.8773185941,5.57452106975
3740,Bilzen,Gansbeekstraat,103,50.876849666,5.51501078941
3740,Bilzen,Korenstraat,24,50.8701711764,5.51419857719
3740,Bilzen,Nieuwe Heidestraat,19,50.9012522736,5.51782970093
3740,Bilzen,Grote Spouwenstraat,24,50.8320722717,5.5562916068
3740,Bilzen,St. Jorisstraat,1,50.8840338744,5.5284024234
3740,Bilzen,Eendepoelstraat,12,50.8765568647,5.57826238764
3740,Bilzen,Zonhoevestraat,1,50.8901296908,5.4742144539
3740,Bilzen,Lochtstraat,63,50.8810835928,5.57154395135
3740,Bilzen,Waterstraat,10,50.8900944092,5.52625956627
3740,Bilzen,Oude Kluisweg,26,50.8894078755,5.53864206907
3740,Bilzen,Bergstraat,11,50.8686536319,5.57485053457
3740,Bilzen,Zonhoevestraat,15,50.893367727,5.4679411688
3740,Bilzen,Heesveld,17,50.8978427392,5.49896510834
3740,Bilzen,Toekomststraat,55,50.845027279,5.61612771245
3740,Bilzen,Nieuwe Heidestraat,5,50.9003555294,5.5170803853
3740,Bilzen,Kerkhoflaan,35,50.8796119231,5.56999090988
3740,Bilzen,Spurkerweg,48,50.878791635,5.51015977203
3740,Bilzen,Romboutstraat,24,50.8699587958,5.51492795249
3740,Bilzen,Rooi,102,50.8844207611,5.5029950332
3740,Bilzen,Broekem,20,50.8798862693,5.51163264639
3740,Bilzen,Populierenstraat,18,50.90294431,5.46036644302
3740,Bilzen,Beekomstraat,43,50.8712542989,5.57017009653
3740,Bilzen,Muggenstraat,5,50.8876186699,5.5257792135
3740,Bilzen,Molendriesstraat,8,50.8815027272,5.57018496542
3740,Bilzen,Hoefsmidstraat,17,50.8980247019,5.51593691638
3740,Bilzen,Spoorwegstraat,25A,50.8921077338,5.479651527
3740,Bilzen,Sint Lambertuslaan,14,50.8725313136,5.51261986877
3740,Bilzen,Brabantsestraat,29,50.8775087456,5.5229600957
3740,Bilzen,Vrijweide,9,50.8958539814,5.506285003
3740,Bilzen,Toekomststraat,20,50.8444800874,5.61291462646
3740,Bilzen,Winterstraat,76,50.8790872685,5.51481290062
3740,Bilzen,Maastrichterstraat,123,50.8633668159,5.5368038371
3740,Bilzen,Wijngaardstraat,8,50.8878877535,5.52553327279
3740,Bilzen,Omstraat,48,50.8728741266,5.51758586195
3740,Bilzen,Hasseltsepoort,7,50.872522741,5.5143269927
3740,Bilzen,Noppenstraat,15,50.8439577347,5.60754081762
3740,Bilzen,Vereveldstraat,9,50.8865469587,5.49171181259
3740,Bilzen,Lochtstraat,10,50.8779351963,5.57430868375
3740,Bilzen,Wijngaardstraat,51,50.8847226035,5.52360337244
3740,Bilzen,Spurkerweg,25A,50.8773515972,5.51174146313
3740,Bilzen,Kleehofkensstraat,46,50.8617123601,5.57780477573
3740,Bilzen,Solveldstraat,7,50.8698582015,5.5085811909
3740,Bilzen,Batterijstraat,1,50.9004401351,5.52558283711
3740,Bilzen,Appelveldstraat,79,50.9088058032,5.47165774228
3740,Bilzen,Zagerijstraat,10,50.8680696575,5.50805088379
3740,Bilzen,Reekstraat,107,50.8540746773,5.52308075704
3740,Bilzen,Oude Tramweg,28,50.8989004573,5.52258493223
3740,Bilzen,Zangerheistraat,11,50.8895607175,5.53232290161
3740,Bilzen,Keistraat,23,50.8460944429,5.54798022089
3740,Bilzen,Pastorijstraat,45,50.8355281129,5.55297815416
3740,Bilzen,Tipstraat,87A,50.898259888,5.45525256146
3740,Bilzen,Melkerijwal,11,50.8724026226,5.51540378824
3740,Bilzen,Bloemendaalstraat,10,50.8814339545,5.5324915268
3740,Bilzen,St-Lodewijkstraat,28,50.9024860039,5.48326957288
3740,Bilzen,Riemsterweg,5,50.8650706122,5.52358973247
3740,Bilzen,Oude Beekstraat,58,50.8899977143,5.52876740155
3740,Bilzen,Kerkstraat,31,50.8446257623,5.57521989678
3740,Bilzen,Rozenstraat,3,50.9035328995,5.52931133525
3740,Bilzen,Appelveldstraat,90,50.9091579782,5.47140651067
3740,Bilzen,Dennenstraat,30,50.9024617713,5.46292734737
3740,Bilzen,Spoorwegstraat,11,50.8914196454,5.48061560959
3740,Bilzen,Beverststraat,65,50.8938756002,5.46892836679
3740,Bilzen,Hasseltsestraat,73,50.8791378666,5.49734763261
3740,Bilzen,Biesenweg,10,50.8644690873,5.52238998172
3740,Bilzen,Wijsstraat,4,50.8675394178,5.51315421364
3740,Bilzen,Waterstraat,45A,50.8966308354,5.52446451275
3740,Bilzen,Molenstraat,4,50.8975878825,5.46435744166
3740,Bilzen,Lenaarshof,3,50.9010670237,5.47618888686
3740,Bilzen,Merelstraat,18,50.8952501692,5.52535851348
3740,Bilzen,Hasseltsestraat,55,50.8783099543,5.499725472
3740,Bilzen,Caetsbeekstraat,8,50.9126299181,5.50592373883
3740,Bilzen,Spurkerweg,21C,50.8770402249,5.51184614259
3740,Bilzen,Bandstraat,2,50.8486399908,5.57047919015
3740,Bilzen,Appelveldstraat,72,50.9075162437,5.46944405306
3740,Bilzen,Dennenstraat,12,50.9019011524,5.46486151267
3740,Bilzen,Beverststraat,47,50.8932805362,5.47126415292
3740,Bilzen,Kuilenweg,17,50.8943242878,5.5070975779
3740,Bilzen,Kerkstraat,13,50.8431520429,5.5766913846
3740,Bilzen,Gansbeekstraat,19,50.8752053893,5.51673903355
3740,Bilzen,Grotstraat,11,50.9040759098,5.48469305547
3740,Bilzen,Elzenstraat,37,50.9019113807,5.46036956664
3740,Bilzen,Litsebeek,39,50.8866281444,5.5698806654
3740,Bilzen,Eikerweg,74,50.9027464804,5.50891750152
3740,Bilzen,Pleinstraat,2A,50.8362806003,5.51854169444
3740,Bilzen,Begijnhof,7,50.8698835453,5.51919705255
3740,Bilzen,Klokkestraat,2A,50.8708588282,5.51718020584
3740,Bilzen,Maastrichterstraat,22,50.8653088647,5.52617893467
3740,Bilzen,Leterweg,13,50.8645413055,5.51892836889
3740,Bilzen,Althoeseltweg,10,50.8302761047,5.51297827035
3740,Bilzen,Redemptiestraat,38,50.8654045177,5.57936811927
3740,Bilzen,Klokkestraat,6,50.8709847674,5.51711778568
3740,Bilzen,Eikenbeekstraat,15,50.8739129669,5.57670313712
3740,Bilzen,Meershoven,70,50.8766142959,5.52730771074
3740,Bilzen,Raafstraat,79,50.8879524074,5.46354351151
3740,Bilzen,Groenkloosterstraat,28,50.8883014761,5.5295945003
3740,Bilzen,Rode Kruislaan,104,50.8399393537,5.55531036314
3740,Bilzen,Appelveldstraat,54,50.9063893152,5.4681960638
3740,Bilzen,Holt,41,50.8848460522,5.48492090023
3740,Bilzen,Romeinsestraat,3,50.86250454,5.54805618042
3740,Bilzen,Grote Mereweg,30,50.8720265088,5.58059387186
3740,Bilzen,Rooi,38,50.8806065134,5.50284119343
3740,Bilzen,Tongersestraat,18A,50.8671001229,5.50867037625
3740,Bilzen,Kastanjestraat,1,50.9019800784,5.46136326844
3740,Bilzen,Heesstraat,37,50.847476766,5.61332460434
3740,Bilzen,Leten,21,50.8556675797,5.5165022365
3740,Bilzen,Eikerweg,56,50.9015218383,5.50909901625
3740,Bilzen,Ribusstraat,20,50.8851131182,5.50628151739
3740,Bilzen,Brugstraat,76,50.8667877952,5.52067532119
3740,Bilzen,Chrysantenlaan,12,50.8855490022,5.5343482691
3740,Bilzen,Rooierweg,21,50.8776389411,5.5049399913
3740,Bilzen,Molenstraat,26A,50.9009532189,5.46623593262
3740,Bilzen,Omstraat,11,50.8717670652,5.51597550811
3740,Bilzen,Tabaartstraat,48,50.8708671605,5.52442183688
3740,Bilzen,Stationlaan,51,50.8689854207,5.51038143669
3740,Bilzen,Reekstraat,125,50.8518533977,5.52233862031
3740,Bilzen,Pijpenpoort,5,50.8723147677,5.52108302301
3740,Bilzen,Cuvelierstraat,39,50.8337301482,5.51723008269
3740,Bilzen,Heseputterstraat,9A,50.8794558601,5.5801384821
3740,Bilzen,Hasseltsestraat,91,50.8799857544,5.49559007503
3740,Bilzen,Winterstraat,84,50.879635434,5.5148205991
3740,Bilzen,Maastrichterstraat,115,50.8635343275,5.53589028458
3740,Bilzen,Daalstraat,56,50.8433960272,5.58324438826
3740,Bilzen,Mooi Uitzichtlaan,29,50.8670346926,5.52119511011
3740,Bilzen,Kellerstraat,19,50.832825977,5.56209520972
3740,Bilzen,Oudestraat,6,50.8948356852,5.46764262786
3740,Bilzen,Tipstraat,54,50.8957846756,5.46159189304
3740,Bilzen,Maastrichterstraat,376,50.8609760755,5.57906332384
3740,Bilzen,Demerplein,4,50.8346190365,5.51404419439
3740,Bilzen,Wijngaardstraat,21,50.8863678113,5.52340791569
3740,Bilzen,Maastrichterstraat,323,50.8608888277,5.57153628104
3740,Bilzen,Toekomststraat,8,50.8437423201,5.61120111904
3740,Bilzen,Scapulierstraat,7,50.888822304,5.5294392329
3740,Bilzen,Riemsterweg,232,50.8456742483,5.54237029476
3740,Bilzen,Souwveld,29,50.8372655403,5.51537432914
3740,Bilzen,Camille Huysmansplein,10,50.8707211665,5.51893397875
3740,Bilzen,Processiestraat,31,50.8951154102,5.52029412148
3740,Bilzen,Sint Antoniusstraat,4A,50.8816558204,5.52267479933
3740,Bilzen,Molenstraat,28,50.9008454318,5.46564865548
3740,Bilzen,Oude Heidestraat,41,50.9028385535,5.51562352549
3740,Bilzen,Jeugdstraat,16,50.8964957061,5.49911420352
3740,Bilzen,Hoogstraat,43,50.8477971695,5.57245393839
3740,Bilzen,Molendriesstraat,21,50.8804624845,5.56967870726
3740,Bilzen,Tombestraat,29,50.8489023658,5.60535444415
3740,Bilzen,Lochtstraat,88,50.8839691389,5.56796884212
3740,Bilzen,Striekestraat,2,50.8463641693,5.60568824719
3740,Bilzen,Maastrichterstraat,412,50.8619159572,5.5843387311
3740,Bilzen,Pleinstraat,6,50.8357932389,5.51741212237
3740,Bilzen,St.Landradastraat,1A,50.8848822111,5.52724771541
3740,Bilzen,Eikerweg,4,50.8972710025,5.51208065326
3740,Bilzen,Pater Damiaanstraat,15,50.8681166534,5.50143674187
3740,Bilzen,Kapelstraat,42,50.8748657104,5.51239752836
3740,Bilzen,Panisstraat,12,50.8895424184,5.52991416487
3740,Bilzen,Onze Lieve Vrouwstraat,20,50.8705947948,5.51555230179
3740,Bilzen,Parklaan,17,50.8680416453,5.51189900576
3740,Bilzen,Leenveldstraat,19,50.9028466199,5.46353759566
3740,Bilzen,Cuvelierstraat,1B,50.8310457749,5.51390940721
3740,Bilzen,Holt,6,50.8828820236,5.48766455836
3740,Bilzen,Maastrichterstraat,305,50.8614614531,5.56849914618
3740,Bilzen,Processiestraat,13,50.8966477417,5.51823157323
3740,Bilzen,Jonkherenbos,21,50.9043945208,5.47122588397
3740,Bilzen,Molenstraat,56,50.9025485357,5.46795748722
3740,Bilzen,Pijpenhof,17,50.8739574649,5.5209144656
3740,Bilzen,Dorpsstraat,23,50.8756257495,5.57530787978
3740,Bilzen,Maastrichterstraat,143,50.863289253,5.54033354705
3740,Bilzen,Daalstraat,74,50.8433660401,5.58603083463
3740,Bilzen,Bremstraat,14,50.9081619356,5.48765889977
3740,Bilzen,Populierenstraat,34,50.9038402051,5.46116743771
3740,Bilzen,Winkelomstraat,40,50.874593574,5.58132770228
3740,Bilzen,Begeveldstraat,52,50.9079199423,5.46119489587
3740,Bilzen,Veldstraat,4B,50.878798845,5.57491109407
3740,Bilzen,Zeepstraat,8,50.8677912415,5.50988867304
3740,Bilzen,Beverststraat,30,50.8923311897,5.47178613068
3740,Bilzen,Maastrichterstraat,358,50.8610625772,5.57650770034
3740,Bilzen,Berenbroekstraat,19,50.8867301431,5.587726399
3740,Bilzen,Noppenstraat,4,50.8449362309,5.60877070349
3740,Bilzen,Paardskerkhofstraat,24,50.8781904274,5.51247752949
3740,Bilzen,Waterkasteelstraat,21,50.9033868057,5.48060062645
3740,Bilzen,Heseputterstraat,12,50.8794652837,5.58036638759
3740,Bilzen,Melkerijwal,7,50.8722616109,5.51502168106
3740,Bilzen,Bammestraat,53,50.8266362602,5.51709377481
3740,Bilzen,Rode Kruislaan,122,50.8378696228,5.55524687838
3740,Bilzen,Leterweg,31,50.8627680621,5.51803372032
3740,Bilzen,Spurkerweg,7,50.8749434117,5.51339039578
3740,Bilzen,Blookstraat,47,50.8658538304,5.58514036565
3740,Bilzen,Herderenweg,16,50.8290280632,5.55400552882
3740,Bilzen,Sapstraat,14,50.8318348697,5.55233340029
3740,Bilzen,Kuilenweg,35,50.8950378629,5.50910621234
3740,Bilzen,Groenstraat,33,50.8477641827,5.57939295655
3740,Bilzen,Cuvelierstraat,50,50.8340348153,5.522175179
3740,Bilzen,Kerkhoflaan,45,50.8797137876,5.56923563462
3740,Bilzen,Korenstraat,19,50.8705187944,5.51403755358
3740,Bilzen,Spurkerweg,21A,50.8767644563,5.51220889061
3740,Bilzen,Olmenstraat,8,50.9018248889,5.46293766013
3740,Bilzen,Brugstraat,58,50.8671897152,5.51918745449
3740,Bilzen,Tongersestraat,102,50.8593394118,5.50096012761
3740,Bilzen,Vrankrijk,23,50.8616764723,5.50839553211
3740,Bilzen,Zangerheistraat,7,50.889474518,5.53195830723
3740,Bilzen,Rosmeerstraat,5,50.8462615036,5.57579884817
3740,Bilzen,Markt,37,50.8701723212,5.51785833393
3740,Bilzen,Schutterijstraat,1,50.8639322761,5.54224684296
3740,Bilzen,Langblookstraat,10,50.8989444551,5.52765361315
3740,Bilzen,Demerlaan,21,50.8689655011,5.51539912991
3740,Bilzen,Grote Mereweg,101,50.8694771814,5.57891645059
3740,Bilzen,Braamstraat,24,50.8727449799,5.57070186437
3740,Bilzen,Korte Heidestraat,18,50.9001340069,5.51297557992
3740,Bilzen,Kapelstraat,14,50.8743901302,5.51000544487
3740,Bilzen,Groenkloosterstraat,56,50.8889744135,5.53198173156
3740,Bilzen,Nieuwstraat,3,50.8730336529,5.50842355164
3740,Bilzen,Gansbeekstraat,83,50.876525377,5.51347372889
3740,Bilzen,Bosselaar,24,50.8382781976,5.52711649805
3740,Bilzen,Violierenstraat,17,50.8861874873,5.53460375646
3740,Bilzen,Munieckstraat,3,50.8352798103,5.55476293553
3740,Bilzen,Markt,20,50.87073984,5.51724890526
3740,Bilzen,Brugstraat,6,50.8692236291,5.51791453816
3740,Bilzen,Leterweg,66,50.8579072519,5.5167926219
3740,Bilzen,Hoogbrugstraat,5A,50.8841089466,5.5052454073
3740,Bilzen,Cuvelierstraat,8C,50.83287522,5.51559727653
3740,Bilzen,Maastrichterstraat,268,50.8620536523,5.56657489597
3740,Bilzen,Batterijstraat,8,50.8994201185,5.52875680099
3740,Bilzen,Mopertingenstraat,41,50.8654788053,5.57797164968
3740,Bilzen,Broekemveldweg,35,50.8805535008,5.51337953785
3740,Bilzen,Hasseltsepoort,2,50.8720759494,5.51402864926
3740,Bilzen,Groenstraat,15,50.8476426354,5.57737988519
3740,Bilzen,Schoonhofstraat,13,50.9037752962,5.47963062614
3740,Bilzen,Solveldstraat,2,50.869390623,5.50842207821
3740,Bilzen,Herreweg,25,50.8426970446,5.54512752464
3740,Bilzen,Eikenlaan,21,50.866763456,5.51223158938
3740,Bilzen,Blookstraat,13,50.8667675536,5.57992026343
3740,Bilzen,Kerkhoflaan,10,50.8779411705,5.57270303385
3740,Bilzen,Oude Tramweg,74,50.9034655922,5.52772533221
3740,Bilzen,Wijerstraat,38,50.8730087561,5.51562519044
3740,Bilzen,Tongersestraat,80,50.8621081217,5.50415936802
3740,Bilzen,Molendriesstraat,1,50.881212948,5.57116881003
3740,Bilzen,Dorpsstraat,6,50.8765760163,5.57532945995
3740,Bilzen,St-Lodewijkstraat,56,50.9032944033,5.48750386162
3740,Bilzen,Hoogveld,37,50.900063223,5.48206285916
3740,Bilzen,Zangerheistraat,131,50.8848029075,5.56656276176
3740,Bilzen,Oude Tramweg,56,50.9022887679,5.52628343315
3740,Bilzen,Hoogstraat,61,50.8476082592,5.5738029247
3740,Bilzen,Pastorijstraat,17,50.8335066664,5.55303851634
3740,Bilzen,Kraailingenveld,6,50.894642785,5.47018934712
3740,Bilzen,Bammestraat,71,50.8253363441,5.51796067192
3740,Bilzen,Genutstraat,17,50.8715663364,5.51537498119
3740,Bilzen,Gansbeekstraat,65,50.8765742161,5.51463161827
3740,Bilzen,Kampveldweg,18,50.8762330255,5.5093377589
3740,Bilzen,Natveld,9A,50.8608966904,5.50526849058
3740,Bilzen,Hospitaalstraat,26,50.8710564835,5.51310169135
3740,Bilzen,Sint Lambertuslaan,9,50.8729122437,5.51289613569
3740,Bilzen,Haenenstraat,42,50.8844568995,5.57459684876
3740,Bilzen,Eikenbeekstraat,61,50.8739807002,5.58115201693
3740,Bilzen,Maastrichterstraat,9,50.865094328,5.52486891095
3740,Bilzen,Bruulstraat,21,50.8752141493,5.57184317775
3740,Bilzen,St.Remigiusstraat,21,50.8612451639,5.54585253141
3740,Bilzen,Heesstraat,108,50.8473118281,5.61996654864
3740,Bilzen,Oude Beekstraat,6,50.8944783192,5.5254697042
3740,Bilzen,Holt,119,50.8896492261,5.47691301671
3740,Bilzen,Rode Kruislaan,150,50.8351292086,5.5494666785
3740,Bilzen,Wijerstraat,1A,50.8730584847,5.51891962545
3740,Bilzen,Gellikerweg,14,50.8821474634,5.58717037834
3740,Bilzen,Lochtstraat,5,50.8775112541,5.57339329749
3740,Bilzen,Genkerbaan,39,50.9028543441,5.52212126376
3740,Bilzen,Tipstraat,89,50.8983142215,5.45515202967
3740,Bilzen,Korte Heidestraat,36,50.9002925821,5.51431330761
3740,Bilzen,Kapelstraat,32,50.874825492,5.51139534586
3740,Bilzen,Holt,94,50.8884466842,5.47892725114
3740,Bilzen,Rehagestraat,5A,50.8836576107,5.493860207
3740,Bilzen,Redemptiestraat,1,50.8619160597,5.58408601193
3740,Bilzen,Reekstraat,171,50.8458855374,5.51986924692
3740,Bilzen,Heesveld,45,50.9006522223,5.49745437732
3740,Bilzen,Waterstraat,5,50.8912706291,5.52521182523
3740,Bilzen,Eendepoelstraat,3,50.875634733,5.57852027251
3740,Bilzen,Beverststraat,12,50.8913545198,5.47327189246
3740,Bilzen,Waterstraat,35,50.8933855551,5.52449063717
3740,Bilzen,Groenkloosterstraat,74,50.8887103287,5.53421343093
3740,Bilzen,Pastorijstraat,35,50.834933344,5.55260794099
3740,Bilzen,Demerwal,15,50.8692564962,5.51487784651
3740,Bilzen,Hoveweg,8,50.8972030389,5.52628351088
3740,Bilzen,Heesveld,10,50.8951345006,5.49853183903
3740,Bilzen,Sapstraat,46A,50.8304485131,5.54913315067
3740,Bilzen,Munsterbilzenstraat,51,50.8855820785,5.52914406673
3740,Bilzen,Kann. Nulensstraat,2,50.8290082823,5.53688080745
3740,Bilzen,Solveldstraat,22,50.8686454162,5.50713382757
3740,Bilzen,Laakstraat,5,50.8812176368,5.51114705383
3740,Bilzen,Hoekstraat,5,50.9016491364,5.48453226002
3740,Bilzen,Oudestraat,41,50.8971959049,5.46215985561
3740,Bilzen,Langheidestraat,11,50.904525934,5.48901820165
3740,Bilzen,Kerktorenstraat,14,50.864791767,5.54640854611
3740,Bilzen,Grote Mereweg,65,50.8720526795,5.58124545663
3740,Bilzen,Waterstraat,17,50.8923563687,5.52482379045
3740,Bilzen,Zangerheistraat,113,50.8860023273,5.56534844788
3740,Bilzen,Tabaartstraat,31,50.8734858179,5.52442349137
3740,Bilzen,Bammestraat,5,50.8301090945,5.51456614479
3740,Bilzen,Leterweg,2,50.8652244542,5.52007779724
3740,Bilzen,Lochtstraat,17,50.8781833415,5.57321443563
3740,Bilzen,Cornelstraat,38,50.8872312292,5.53307971783
3740,Bilzen,Genutstraat,35,50.8720366225,5.51479637975
3740,Bilzen,Verbindingsstraat,13,50.8661861572,5.54542856788
3740,Bilzen,Echellaan,39,50.9007155277,5.52128730262
3740,Bilzen,Vrijweide,24,50.8959354705,5.50768994488
3740,Bilzen,Spelverstraat,10,50.8741470701,5.52771246759
3740,Bilzen,Grote Mereweg,47,50.8714562084,5.58197871046
3740,Bilzen,Mathijsestraat,16,50.8626297713,5.57973839661
3740,Bilzen,Heesstraat,19,50.8470834466,5.61130524804
3740,Bilzen,Veldhof,11,50.8969756482,5.50886727323
3740,Bilzen,Rooierweg,4,50.8767019124,5.50316094919
3740,Bilzen,Akkerstraat,12,50.889881335,5.49624797578
3740,Bilzen,Meremweg,34,50.8675527787,5.50533795992
3740,Bilzen,Hoogstraat,8,50.850107013,5.56574193547
3740,Bilzen,Riemsterweg,25,50.8631862675,5.52576152328
3740,Bilzen,Winterbergstraat,3,50.8364661393,5.52089684735
3740,Bilzen,Faurenweg,3,50.8799933735,5.53440473071
3740,Bilzen,Bergweidelaan,11,50.8726179632,5.52281655956
3740,Bilzen,Leten,4,50.8546588173,5.5223752822
3740,Bilzen,Bosstraat,22,50.8445357489,5.57353467758
3740,Bilzen,Sint Jozefstraat,22,50.8963565654,5.50333044614
3740,Bilzen,Eik,15,50.8969564066,5.50702481201
3740,Bilzen,Zutendaalweg,19,50.9012962673,5.52720797156
3740,Bilzen,Tabaartstraat,13,50.8665860979,5.52278225226
3740,Bilzen,Amelsdorp,66,50.8544822467,5.55163998335
3740,Bilzen,Riemsterweg,415,50.8352525844,5.55825601706
3740,Bilzen,Chrysantenlaan,19,50.8852637385,5.53450150493
3740,Bilzen,Betonweg,2C,50.8644393426,5.57754951405
3740,Bilzen,Winkelomstraat,30,50.874501348,5.58014279485
3740,Bilzen,Ons Verlangenstraat,17,50.8931121411,5.4732718948
3740,Bilzen,Groene Grachtlaan,2,50.8704615228,5.52290492724
3740,Bilzen,Heesveld,47,50.9006702298,5.49777868058
3740,Bilzen,Heesstraat,126,50.847390066,5.62185843446
3740,Bilzen,Papestraat,39,50.8353335335,5.55603654884
3740,Bilzen,Elzenstraat,20,50.9014175386,5.46379513932
3740,Bilzen,Tabaartstraat,66,50.8731047759,5.52431635381
3740,Bilzen,Sint Lambertuslaan,40,50.8730353246,5.5103129591
3740,Bilzen,Langstraat,119,50.8738306474,5.54754353319
3740,Bilzen,Jonkherenbos,1,50.9044681193,5.4694767632
3740,Bilzen,Meremweg,16,50.8676353586,5.50718662746
3740,Bilzen,Genkerbaan,50,50.9010958992,5.52213974346
3740,Bilzen,Rosmeerstraat,25,50.8464412899,5.57765089346
3740,Bilzen,Betonweg,8,50.864198583,5.57767060689
3740,Bilzen,Broekemveldweg,17,50.8793215627,5.51400277358
3740,Bilzen,Spurk,52,50.8888491303,5.49878136414
3740,Bilzen,Kloosterstraat,26,50.8716377975,5.51867254653
3740,Bilzen,Sint Martinusstraat,12,50.8703352803,5.51131136126
3740,Bilzen,Riemsterweg,6A,50.8650453291,5.52436734813
3740,Bilzen,Waterkasteelstraat,8,50.9018639879,5.47905590995
3740,Bilzen,Plankenbergstraat,25,50.898784273,5.5135468797
3740,Bilzen,Bosselaar,3,50.8377759958,5.52674205857
3740,Bilzen,Vogelzangstraat,5,50.8908365514,5.47628861798
3740,Bilzen,Zavelstraat,16,50.8855911856,5.52708556417
3740,Bilzen,Bovenstraat,12,50.8299594031,5.54784009567
3740,Bilzen,Op De Meer,4,50.829652785,5.53865073714
3740,Bilzen,Lethenstraat,7,50.8493698707,5.51746519114
3740,Bilzen,Klein-Wilder,1,50.8578871587,5.53798359962
3740,Bilzen,Veldhof,8,50.8964134977,5.50959569267
3740,Bilzen,Pater Damiaanstraat,16A,50.8679985396,5.49961818407
3740,Bilzen,Akkerstraat,9,50.8902555349,5.49607772527
3740,Bilzen,Leten,28,50.8553063366,5.51797072879
3740,Bilzen,Tongersestraat,26,50.8669245772,5.50842587221
3740,Bilzen,Palsbosstraat,8,50.9082334876,5.47395026671
3740,Bilzen,Terfakkerstraat,11,50.8648964868,5.49653468838
3740,Bilzen,Mopertingenstraat,6,50.8610054798,5.57465667142
3740,Bilzen,Driesstraat,18A,50.8462425067,5.55116723215
3740,Bilzen,Brugstraat,41,50.8683371909,5.51774650543
3740,Bilzen,Borreberg,12,50.8691439324,5.51904651383
3740,Bilzen,Dennebosstraat,22,50.8460645906,5.54252603196
3740,Bilzen,St.Ursulastraat,4,50.8765357389,5.57414030766
3740,Bilzen,Groenkloosterstraat,21,50.8881489863,5.52993171309
3740,Bilzen,Zonnelaan,42,50.9007199876,5.51472765778
3740,Bilzen,Langstraat,23,50.8656178785,5.54777181072
3740,Bilzen,Plankenbergstraat,5,50.8995260034,5.51569923252
3740,Bilzen,Riemsterweg,264,50.8434450169,5.54865624428
3740,Bilzen,Gansbeekstraat,30,50.8748308428,5.51540668319
3740,Bilzen,Processiestraat,45,50.8941820346,5.52166574909
3740,Bilzen,St.Bertiliastraat,16,50.848442689,5.57830654097
3740,Bilzen,Roelants du Vivierlaan,4,50.8459230411,5.50678598609
3740,Bilzen,Riemsterweg,246,50.84435774,5.54429095577
3740,Bilzen,Dorpsstraat,41,50.8749352909,5.57509603024
3740,Bilzen,Schoolstraat,20,50.9026618153,5.4736531006
3740,Bilzen,Demerwal,4,50.8683199418,5.51645077937
3740,Bilzen,Kattestraat,15,50.8801030819,5.56405932494
3740,Bilzen,Nieuwstraat,24,50.8686657467,5.50870582813
3740,Bilzen,Bosstraat,14A,50.8451865301,5.57344386737
3740,Bilzen,Meershoven,69,50.8754097723,5.52775074397
3740,Bilzen,Sint Jozefstraat,14A,50.8957895822,5.5017629468
3740,Bilzen,Kapittelstraat,12,50.8724395755,5.5301581458
3740,Bilzen,Biesenweg,27,50.8632941822,5.52181617369
3740,Bilzen,Hospitaalstraat,44,50.8705397071,5.51308341281
3740,Bilzen,Hoogstraat,25,50.8487243122,5.56856708614
3740,Bilzen,Bammestraat,35,50.8283805079,5.51597676594
3740,Bilzen,Laarstraat,5,50.8868362628,5.48344600958
3740,Bilzen,Gansbeekstraat,12,50.8747447715,5.51434284682
3740,Bilzen,Cuvelierstraat,32,50.8338817448,5.51964759011
3740,Bilzen,Kuilenweg,67,50.8970310355,5.51186042559
3740,Bilzen,Tipstraat,26,50.8948306749,5.46411167945
3740,Bilzen,Kloosterstraat,44,50.8720382136,5.51878479827
3740,Bilzen,Tuinweg,8,50.8819218473,5.51144387782
3740,Bilzen,Kromstraat,15,50.8669092809,5.54432502822
3740,Bilzen,Winkelomstraat,9,50.8752072944,5.57655995318
3740,Bilzen,Oude Tramweg,21,50.898652057,5.52303219674
3740,Bilzen,Rehagestraat,5,50.8827601628,5.49284031212
3740,Bilzen,Grote Mereweg,37,50.872098148,5.5821257359
3740,Bilzen,St-Lodewijkstraat,21,50.9020098118,5.48211118056
3740,Bilzen,Kogelstraat,23,50.8371791074,5.51846074505
3740,Bilzen,Jonkherenbos,28,50.9047109547,5.47170707839
3740,Bilzen,Koekoekstraat,5,50.8904425596,5.52966764311
3740,Bilzen,Wijerstraat,47,50.8724052493,5.51473959112
3740,Bilzen,Vijverstraat,11,50.8911635889,5.47855627752
3740,Bilzen,St.Landradastraat,13,50.8848143152,5.52501708008
3740,Bilzen,Pleinstraat,23,50.8346941194,5.51536680862
3740,Bilzen,Sint Lambertuslaan,22,50.872711419,5.5119442197
3740,Bilzen,Redemptiestraat,31,50.8642104946,5.58057529326
3740,Bilzen,Bovenstraat,30,50.8291025835,5.54684874046
3740,Bilzen,Jaak Vandersandenstraat,28,50.8385900484,5.55162708177
3740,Bilzen,Biestertstraat,5,50.8306338411,5.54651248885
3740,Bilzen,Amelsdorp,84,50.8530510364,5.55029299834
3740,Bilzen,Klokkestraat,23,50.8716590704,5.51714394015
3740,Bilzen,Litsebeek,49,50.886384775,5.57076659968
3740,Bilzen,Riemsterweg,282,50.8421554535,5.55135333562
3740,Bilzen,St.Catarinastraat,4,50.862678278,5.57470076336
3740,Bilzen,Dennenstraat,19,50.9020752579,5.46314140826
3740,Bilzen,Hospitaalstraat,6,50.8716732833,5.51357551955
3740,Bilzen,Haakstraat,2,50.8677906821,5.4990397691
3740,Bilzen,Haagstraat,7,50.895387182,5.52376162013
3740,Bilzen,Vossenkuilstraat,15,50.8779407571,5.5768002386
3740,Bilzen,Hartenberg,14,50.8765720057,5.57334063417
3740,Bilzen,Schutterijstraat,8,50.8644777355,5.54195034646
3740,Bilzen,Haakstraat,18,50.8667302889,5.49862553954
3740,Bilzen,Berenbroekstraat,12,50.8859656038,5.58859770664
3740,Bilzen,Litsebeek,67,50.8859516191,5.57222115843
3740,Bilzen,Cuvelierstraat,49,50.8339929881,5.51874723074
3740,Bilzen,Beverststraat,8A,50.8913177013,5.47363022378
3740,Bilzen,Schoonbeekstraat,47,50.9016509885,5.47165050185
3740,Bilzen,Vinkenstraat,5,50.8956494525,5.52664209594
3740,Bilzen,Fietenstraat,34,50.8821838298,5.56518260756
3740,Bilzen,Korenstraat,30,50.869956414,5.51409516024
3740,Bilzen,Noppenstraat,21,50.8435726533,5.60652882805
3740,Bilzen,Lochtstraat,35,50.8791547925,5.57292401796
3740,Bilzen,Schureveld,1,50.8747599788,5.51940152099
3740,Bilzen,Holt,76,50.8874819782,5.48017467075
3740,Bilzen,Grote Spouwenstraat,30,50.8322749061,5.55695829834
3740,Bilzen,Kleehofkensstraat,34,50.8622685264,5.57694969217
3740,Bilzen,Lanakerdij,6,50.8702959283,5.52204481379
3740,Bilzen,Processiestraat,38,50.8934247263,5.52323327383
3740,Bilzen,Sinckestraat,15,50.8571339444,5.57488141035
3740,Bilzen,Winterstraat,1,50.8735463064,5.51825067358
3740,Bilzen,Achter de Hoven,5,50.8318895944,5.51468593716
3740,Bilzen,Mooi Uitzichtlaan,22,50.8681157215,5.52168835959
3740,Bilzen,Gansbeekstraat,126,50.8756866267,5.5142406416
3740,Bilzen,Kastanjestraat,13,50.9027136512,5.46201418168
3740,Bilzen,Korenstraat,12,50.8704240911,5.51472192564
3740,Bilzen,Biestertstraat,43,50.8296607549,5.54132502784
3740,Bilzen,Meershoven,151,50.8806902508,5.52715193493
3740,Bilzen,Toekomststraat,61,50.8453088538,5.6168218032
3740,Bilzen,Merelstraat,7,50.8951737859,5.52589284775
3740,Bilzen,Holt,58,50.8861210209,5.48255251638
3740,Bilzen,Vrankrijk,2A,50.8617838221,5.51082515886
3740,Bilzen,Romboutstraat,12,50.869516591,5.51544810793
3740,Bilzen,Winterstraat,47,50.8767046862,5.51731354888
3740,Bilzen,Schaaienbosstraat,7,50.8773679714,5.57535848259
3740,Bilzen,Stationlaan,33,50.869558189,5.5118874794
3740,Bilzen,Riemsterweg,304,50.8386274539,5.55318434313
3740,Bilzen,Litsebeek,85,50.8857398853,5.57375428762
3740,Bilzen,Tombestraat,22,50.8476529249,5.60597596365
3740,Bilzen,Kleehofkensstraat,16,50.86304303,5.57819205819
3740,Bilzen,Kleehofkensstraat,52,50.8620417169,5.5781942562
3740,Bilzen,Zavelstraat,5,50.8869895575,5.52721416651
3740,Bilzen,Wijngaardstraat,28,50.8864610073,5.52387725
3740,Bilzen,Molenstraat,21,50.90017081,5.46648349109
3740,Bilzen,Alden Biesenstraat,12,50.8349829667,5.52050256105
3740,Bilzen,Bandstraat,9,50.8478659631,5.56947223974
3740,Bilzen,Terfakkerstraat,7,50.8651617674,5.49681808747
3740,Bilzen,Maastrichterstraat,351,50.8604566658,5.57607419613
3740,Bilzen,Gansbeekstraat,108,50.8758984299,5.51463771727
3740,Bilzen,Buissen,25,50.8831354315,5.52327340225
3740,Bilzen,Litsebeek,32,50.8855024183,5.57247826554
3740,Bilzen,Sapstraat,50,50.8303389433,5.54883596955
3740,Bilzen,Beverststraat,37,50.8929722517,5.47224953634
3740,Bilzen,Cuvelierstraat,14,50.8332969114,5.51664991091
3740,Bilzen,Cuvelierstraat,67,50.8345222332,5.52179699981
3740,Bilzen,Kloosterstraat,6,50.8711528335,5.51816053228
3740,Bilzen,Bammestraat,17,50.8291936703,5.51518178136
3740,Bilzen,Eik,4,50.8966455691,5.50482102594
3740,Bilzen,Elzenstraat,8,50.9010953827,5.46465558885
3740,Bilzen,Dulgaardstraat,26,50.8862536548,5.53901016681
3740,Bilzen,Waterstraat,54A,50.8963569082,5.52496513804
3740,Bilzen,Cornelstraat,1,50.8860745306,5.53048415977
3740,Bilzen,Smisstraat,2,50.8446039868,5.61029418791
3740,Bilzen,Riemsterweg,211,50.8475574786,5.54033414603
3740,Bilzen,Grittelbergstraat,20,50.8652762723,5.54940326
3740,Bilzen,Schoonbeekstraat,65,50.9023786541,5.47013010027
3740,Bilzen,Rooi,66,50.8823626472,5.50127541836
3740,Bilzen,Zeepstraat,25,50.865447631,5.50915462921
3740,Bilzen,Holt,23,50.8838472778,5.48667026048
3740,Bilzen,Jonkherenbos,56,50.9046302005,5.47416482574
3740,Bilzen,Grotstraat,64,50.9046882097,5.48181899399
3740,Bilzen,Cornelstraat,13,50.8866044103,5.53205574593
3740,Bilzen,Schietboomstraat,45,50.8824825984,5.53375154389
3740,Bilzen,Amelsdorp,38,50.8565902643,5.55341333698
3740,Bilzen,Tongersestraat,62,50.8648207898,5.50675101203
3740,Bilzen,Tongersestraat,79,50.8613839198,5.50223762069
3740,Bilzen,St.Remigiusstraat,28,50.8609704222,5.54675550308
3740,Bilzen,Redemptiestraat,8,50.8622429599,5.58294933162
3740,Bilzen,Meershoven,131,50.8790766803,5.52720164621
3740,Bilzen,Sint Jozefstraat,29,50.8958250063,5.50340942854
3740,Bilzen,Cornelstraat,47,50.8877176389,5.53473386834
3740,Bilzen,Spurk,16,50.8873991736,5.5029152125
3740,Bilzen,Jaak Vandersandenstraat,56,50.8376936444,5.54776753615
3740,Bilzen,Frans-Ceulemansstraat,4,50.8309554781,5.55451311134
3740,Bilzen,Omstraat,46,50.8728235583,5.5175350354
3740,Bilzen,Annastraat,11,50.8604175973,5.57102205342
3740,Bilzen,Meershoven,16,50.8739104782,5.52352526122
3740,Bilzen,Hasseltsestraat,37,50.8775372405,5.50102813038
3740,Bilzen,Echellaan,14,50.8998913497,5.51958588301
3740,Bilzen,St.Landradastraat,1,50.8848869425,5.52857941175
3740,Bilzen,Maastrichterpoort,5,50.8656230479,5.52257034446
3740,Bilzen,Meershoven,113,50.8784800156,5.52747099357
3740,Bilzen,Tipstraat,90,50.8970479175,5.45783002308
3740,Bilzen,Mopertingenstraat,58,50.8661179859,5.57716594534
3740,Bilzen,Troffelstraat,21A,50.8360664001,5.5459992454
3740,Bilzen,Pater Damiaanstraat,4,50.8673276892,5.50174873819
3740,Bilzen,Papestraat,14,50.8333394328,5.55759370459
3740,Bilzen,Spurkerweg,64,50.8800355403,5.50972744668
3740,Bilzen,Brugstraat,23,50.8689403367,5.51734568797
3740,Bilzen,Vossenkuilstraat,5,50.8775219776,5.57627603578
3740,Bilzen,Tipstraat,107,50.8993282879,5.45308663892
3740,Bilzen,Panisstraat,9,50.8891000361,5.52890142507
3740,Bilzen,Beverststraat,19,50.8920813325,5.4732305764
3740,Bilzen,Dell,13,50.883753803,5.52030048627
3740,Bilzen,Beukenstraat,8,50.8669498235,5.51436904615
3740,Bilzen,Haenenstraat,59,50.8855850571,5.57450772165
3740,Bilzen,Tombestraat,40,50.8487863898,5.60479140889
3740,Bilzen,Amelsdorp,1A,50.8580927162,5.54962324288
3740,Bilzen,Koekoekstraat,15,50.891309629,5.52975589978
3740,Bilzen,Daalstraat,21,50.8443027551,5.58042872117
3740,Bilzen,Solveldstraat,29,50.8683482159,5.50601005109
3740,Bilzen,Rode Kruislaan,157,50.8351668719,5.54770839474
3740,Bilzen,Spurk,34,50.8880140559,5.50130276963
3740,Bilzen,Sapstraat,32,50.8309737995,5.55028773412
3740,Bilzen,Heesstraat,83,50.8469609027,5.62119698704
3740,Bilzen,Jaak Vandersandenstraat,74,50.8366762824,5.54583364216
3740,Bilzen,Holt,120,50.8894136253,5.4766425079
3740,Bilzen,Tweevoetjesweg,6,50.8697994925,5.52156716494
3740,Bilzen,Tipstraat,72,50.8964194254,5.45977253953
3740,Bilzen,Bleekaart,27,50.8719428618,5.52739377605
3740,Bilzen,Kievitstraat,20,50.8957051373,5.5271214079
3740,Bilzen,Jonkherenbos,74,50.9045299842,5.47585957313
3740,Bilzen,Grote Spouwenstraat,12,50.8324064826,5.55501978239
3740,Bilzen,Lindestraat,29,50.8375831307,5.5133284415
3740,Bilzen,Winterstraat,31,50.8757400319,5.51793478982
3740,Bilzen,Perronstraat,14,50.8887309672,5.52712823053
3740,Bilzen,Jachtstraat,6,50.8819568062,5.48679833454
3740,Bilzen,Hasseltsepoort,29,50.8736991327,5.51349092618
3740,Bilzen,Steegstraat,14,50.8447448989,5.58126518181
3740,Bilzen,Herkebamstraat,17,50.9000339823,5.52982092181
3740,Bilzen,Kampveldweg,7,50.8760514284,5.5102329747
3740,Bilzen,Kann. Nulensstraat,9,50.8286118031,5.53623044558
3740,Bilzen,Ribusstraat,8,50.882723328,5.50841507776
3740,Bilzen,Pastorijstraat,10,50.8331006863,5.55378157931
3740,Bilzen,Stationlaan,15,50.869947182,5.51268308121
3740,Bilzen,Grotstraat,46,50.905495563,5.47804772455
3740,Bilzen,Romeinsestraat,24,50.8607469602,5.54851250009
3740,Bilzen,Hoogveld,11B,50.9007511496,5.48497936547
3740,Bilzen,Eik,16A,50.8973253585,5.50690595715
3740,Bilzen,Jachtstraat,16,50.8809742306,5.4864220647
3740,Bilzen,Oude Siemerstraat,22,50.8980178432,5.52109579536
3740,Bilzen,Beekomstraat,8,50.872482849,5.57350214048
3740,Bilzen,Meershoven,34,50.8744582279,5.52559128858
3740,Bilzen,Spurkerweg,46,50.8785573692,5.51016629717
3740,Bilzen,Bammestraat,88,50.8243474323,5.51911802382
3740,Bilzen,Begijnhof,11,50.8698848585,5.51940224893
3740,Bilzen,Merem,26,50.8644220327,5.50010215321
3740,Bilzen,Roelants du Vivierlaan,14,50.845563436,5.50797794052
3740,Bilzen,Kempenstraat,1,50.9188484787,5.48373134648
3740,Bilzen,Boomstraat,22,50.8874942555,5.4980453264
3740,Bilzen,Heesstraat,65,50.8470673151,5.61750985856
3740,Bilzen,Populierenstraat,26,50.9034106007,5.46073771889
3740,Bilzen,Paardskerkhofstraat,4,50.8785310821,5.51325121435
3740,Bilzen,St.Gertrudisplein,2A,50.8915769615,5.47537816995
3740,Bilzen,Dennenstraat,9,50.9016741205,5.46462361043
3740,Bilzen,Waterkasteelstraat,1,50.9001075255,5.47840144864
3740,Bilzen,Toekomststraat,43,50.8445837702,5.61489311466
3740,Bilzen,Betonweg,25,50.8633173531,5.57875671822
3740,Bilzen,Maastrichterstraat,168,50.8636968636,5.54178351904
3740,Bilzen,Zutendaalweg,12,50.8990231894,5.52643546441
3740,Bilzen,Heesstraat,12,50.8468892343,5.60911636534
3740,Bilzen,Troffelstraat,16,50.8373827936,5.54399491332
3740,Bilzen,Waterstraat,53,50.8971972757,5.52478894808
3740,Bilzen,Zonhoevestraat,5A,50.891564577,5.47206363115
3740,Bilzen,Mopertingenstraat,16,50.8616442152,5.57508986899
3740,Bilzen,Brabantsestraat,3,50.8747931205,5.5238861533
3740,Bilzen,Maastrichterstraat,2,50.865587175,5.52460600218
3740,Bilzen,Markt,8,50.8707301712,5.51663870659
3740,Bilzen,Tabaartstraat,38,50.8695975844,5.52398608747
3740,Bilzen,Appelveldstraat,2,50.9028354789,5.46896784926
3740,Bilzen,Schutterijstraat,13,50.8644537059,5.54263549263
3740,Bilzen,Hoveweg,25,50.8975989553,5.52757019933
3740,Bilzen,Lochtstraat,53,50.8803200556,5.5724344835
3740,Bilzen,St-Lodewijkstraat,4,50.9025737159,5.48055320721
3740,Bilzen,Kapelstraat,3,50.8739124098,5.50938269288
3740,Bilzen,Willesteeg,2,50.8301697336,5.55606252828
3740,Bilzen,Hoogbrugstraat,5,50.8840050383,5.50543802599
3740,Bilzen,Spurkerweg,12A,50.8755071981,5.51240519776
3740,Bilzen,Genkerbaan,32,50.9008078123,5.52462824515
3740,Bilzen,Laarstraat,61,50.8905323679,5.48775598277
3740,Bilzen,Oude Tramweg,4,50.8950014751,5.52188035125
3740,Bilzen,Oude Kluisweg,18,50.8890242245,5.53781492284
3740,Bilzen,Natveld,12,50.8623366321,5.50480272987
3740,Bilzen,Zutendaalweg,30,50.8996320245,5.52675430443
3740,Bilzen,Winterstraat,66,50.8784358684,5.51511119462
3740,Bilzen,Hoogveld,8,50.9016407279,5.48327906705
3740,Bilzen,Overslagstraat,18,50.8344707646,5.54763286195
3740,Bilzen,Winkelomstraat,19,50.875036681,5.57961748832
3740,Bilzen,Pater Damiaanstraat,3A,50.8675884882,5.50203875096
3740,Bilzen,Rooi,1,50.8796028376,5.50647796895
3740,Bilzen,Chrysantenlaan,30,50.88563892,5.53758165433
3740,Bilzen,Kerkstraat,47,50.846270833,5.57476155695
3740,Bilzen,Schoolstraat,37,50.9031331434,5.47158311537
3740,Bilzen,Blindestraat,37,50.8899100438,5.48432068562
3740,Bilzen,Meremweg,52,50.8672613383,5.50367320804
3740,Bilzen,Oude Kluisweg,2,50.8881788478,5.53610841313
3740,Bilzen,Keistraat,41,50.8480579178,5.54953331107
3740,Bilzen,Onze Lieve Vrouwstraat,8,50.8703658298,5.51591754293
3740,Bilzen,Troffelstraat,21C,50.8364375109,5.54626112623
3740,Bilzen,Heesstraat,47,50.847274903,5.61462977133
3740,Bilzen,Tuinweg,13,50.882761574,5.51090692854
3740,Bilzen,Kasteelstraat,21,50.8399442156,5.51771352864
3740,Bilzen,Munsterbilzenstraat,33,50.8863745149,5.52814259139
3740,Bilzen,Blookstraat,1A,50.867211655,5.57828635685
3740,Bilzen,Kloosterstraat,62,50.8727155308,5.51909025604
3740,Bilzen,Kanaaldijkstraat,2,50.8913153151,5.5753282909
3740,Bilzen,Cornelstraat,31,50.8870805296,5.53338952465
3740,Bilzen,Haenenstraat,24,50.8831239876,5.57344723285
3740,Bilzen,Achter de Hoven,15,50.8320289938,5.51529709289
3740,Bilzen,Akkerstraat,19,50.890025928,5.49469131306
3740,Bilzen,Winterstraat,13,50.8741591543,5.51798831244
3740,Bilzen,Genkerbaan,67,50.9058646231,5.52253211366
3740,Bilzen,Merodestraat,8,50.8936374738,5.46573775258
3740,Bilzen,Mooi Uitzichtlaan,19,50.8676122982,5.51992664571
