PKANCODE,COMMUNE_NL,STREET_NL,HUISNR,LAT,LON
3800,Sint-Truiden,Tulpstraat,24,50.8253165647,5.17961575909
3800,Sint-Truiden,Haardstraat,41,50.8212031057,5.18638371595
3800,Sint-Truiden,Tiensesteenweg,195,50.8146120147,5.16740095181
3800,Sint-Truiden,Zepperenweg,10,50.8167721074,5.19458831053
3800,Sint-Truiden,Breendonkstraat,39,50.8174511808,5.18397033782
3800,Sint-Truiden,Koekestraat,61,50.8098473785,5.18652814045
3800,Sint-Truiden,Rijschoolstraat,90,50.8159937806,5.18025712225
3800,Sint-Truiden,Sint-Trudostraat,50,50.8195607378,5.18528307733
3800,Sint-Truiden,Landenseweg,20,50.8061438636,5.15141274078
3800,Sint-Truiden,Drie-Gezustersstraat,12,50.8183819304,5.2441537848
3800,Sint-Truiden,Stokstraat,107,50.8411084217,5.25381820857
3800,Sint-Truiden,Luikersteenweg,206,50.8034930284,5.20424151836
3800,Sint-Truiden,Zoutstraat,35,50.8167626122,5.18421780806
3800,Sint-Truiden,Zepperenweg,270,50.8208763861,5.22811332657
3800,Sint-Truiden,Aalsterweg,63,50.8055183561,5.19064843899
3800,Sint-Truiden,Slagmolenstraat,71,50.8109321818,5.18387756298
3800,Sint-Truiden,Naamsesteenweg,12,50.8126048876,5.18449715576
3800,Sint-Truiden,Rummenweg,35,50.8239566297,5.18246785788
3800,Sint-Truiden,de Pitteurslaan,20,50.8138514312,5.23210094502
3800,Sint-Truiden,Halmaalweg,2,50.810372138,5.17407558957
3800,Sint-Truiden,Hasseltsesteenweg,386,50.8522917707,5.23028448888
3800,Sint-Truiden,Diestersteenweg,9,50.8214623301,5.18498614178
3800,Sint-Truiden,Perestraat,21,50.8110239156,5.1700274541
3800,Sint-Truiden,Tiensesteenweg,53,50.815278905,5.17801996145
3800,Sint-Truiden,Engelmanshoven-Dorp,59,50.7719353597,5.26281970296
3800,Sint-Truiden,Houtmarkt,14,50.8173472754,5.18975831663
3800,Sint-Truiden,Tongersesteenweg,241,50.8092741152,5.22968917061
3800,Sint-Truiden,Kattenstraat,17,50.8141473738,5.19458419498
3800,Sint-Truiden,Stapelstraat,56,50.8152392843,5.18244010363
3800,Sint-Truiden,Luikersteenweg,45,50.8109474875,5.19019069499
3800,Sint-Truiden,Hasseltsesteenweg,125,50.8330113096,5.20786134476
3800,Sint-Truiden,Startelstraat,19,50.8433023823,5.25989127845
3800,Sint-Truiden,De Brede Akker,11,50.8292073775,5.17274416015
3800,Sint-Truiden,Brandhoutstraat,14,50.8040264997,5.21503197938
3800,Sint-Truiden,Leeuwerik,7,50.7835610831,5.25914466482
3800,Sint-Truiden,d'Oyestraat,27,50.8250952041,5.25009703007
3800,Sint-Truiden,Zonnestraat,3,50.7663356118,5.2484613409
3800,Sint-Truiden,Nonnentaplaan,21,50.8300996523,5.18367096947
3800,Sint-Truiden,Startelstraat,37,50.8449521994,5.26113936222
3800,Sint-Truiden,Rodestraat,7,50.8068585577,5.18199140676
3800,Sint-Truiden,Luikersteenweg,578,50.7656531117,5.26812900151
3800,Sint-Truiden,Vliegveldlaan,40,50.801336407,5.21292125504
3800,Sint-Truiden,Terbeek,23,50.845273076,5.18517288025
3800,Sint-Truiden,Hamelstraat,34,50.8167012967,5.18935322757
3800,Sint-Truiden,Gazometerstraat,48,50.8153117814,5.17593988696
3800,Sint-Truiden,Gelinden-Dorp,7,50.7673577981,5.26258911065
3800,Sint-Truiden,Trudobron,9,50.8084537826,5.17895511088
3800,Sint-Truiden,Naamsesteenweg,30,50.8121621216,5.18409726612
3800,Sint-Truiden,Halmaal-Dorp,84,50.799866125,5.15043494
3800,Sint-Truiden,Hovenierstraat,22,50.8223321822,5.18038545843
3800,Sint-Truiden,Melveren-Centrum,95,50.8354997802,5.19763124907
3800,Sint-Truiden,Koekestraat,43,50.8103806608,5.18665873654
3800,Sint-Truiden,Borgwormsesteenweg,94,50.7782558654,5.20620448215
3800,Sint-Truiden,Vissegatstraat,57,50.8191718089,5.19109286545
3800,Sint-Truiden,Hasseltsesteenweg,368,50.8504164754,5.22863865384
3800,Sint-Truiden,Wildebamp,14,50.8126883549,5.18190653123
3800,Sint-Truiden,Hasseltsesteenweg,261,50.8433466461,5.22093562613
3800,Sint-Truiden,Raamstraat,14,50.7835821189,5.21248955992
3800,Sint-Truiden,Toekomststraat,9,50.8178789976,5.18067383896
3800,Sint-Truiden,Schoenmakersstraat,12,50.7771312534,5.21424565444
3800,Sint-Truiden,Minderbroedersstraat,30,50.814100757,5.18726696558
3800,Sint-Truiden,Wijngaardenweg,7,50.8078106271,5.18608223455
3800,Sint-Truiden,Aalsterweg,45,50.8072589378,5.19041837515
3800,Sint-Truiden,Houtmarkt,32,50.8170514011,5.19050301373
3800,Sint-Truiden,Hasseltsesteenweg,107,50.831498117,5.20588511483
3800,Sint-Truiden,Middenlaan,56,50.8250831843,5.17240221043
3800,Sint-Truiden,Grote Markt,12,50.8147548112,5.18604108193
3800,Sint-Truiden,Anemoonstraat,19,50.8246055698,5.18022119141
3800,Sint-Truiden,Barettestraat,10,50.7604717257,5.25586893659
3800,Sint-Truiden,Lepelstraat,37,50.8101557823,5.18583965592
3800,Sint-Truiden,Eynestraat,10,50.8244400819,5.2575813889
3800,Sint-Truiden,Melveren-Centrum,77,50.8347126628,5.19806796168
3800,Sint-Truiden,Hamelstraat,16,50.8162650624,5.18908846954
3800,Sint-Truiden,Heide,12,50.8629306603,5.22665367694
3800,Sint-Truiden,Vliegveldlaan,164,50.8091280245,5.22719122683
3800,Sint-Truiden,Rozenstraat,10,50.8193480192,5.18523325754
3800,Sint-Truiden,Bemmelken,4,50.7720500395,5.25086202664
3800,Sint-Truiden,Kortenbosstraat,10,50.8396459362,5.21693631762
3800,Sint-Truiden,Kruiskapelstraat,27,50.8109739427,5.24198118465
3800,Sint-Truiden,Sint-Jorisstraat,16,50.8201167576,5.20627887223
3800,Sint-Truiden,Luikersteenweg,453,50.7740404185,5.25199264683
3800,Sint-Truiden,Straeten,2,50.7870732333,5.17664705626
3800,Sint-Truiden,Engelmanshoven-Dorp,77,50.7711765242,5.26495318685
3800,Sint-Truiden,Zoutleeuwsesteenweg,10,50.8147612521,5.15850660813
3800,Sint-Truiden,Geelstraat,29,50.8068757822,5.22010123035
3800,Sint-Truiden,Staaien,2,50.8141500962,5.16970527535
3800,Sint-Truiden,Tiensesteenweg,177,50.8148864196,5.16805582599
3800,Sint-Truiden,Kleinveldstraat,7,50.7609762435,5.2613787235
3800,Sint-Truiden,Kwadensteenweg,35,50.809464195,5.18763771924
3800,Sint-Truiden,Schurhoven,107,50.8206111288,5.19507785527
3800,Sint-Truiden,Halmaal-Dorp,102,50.7991067148,5.14968280978
3800,Sint-Truiden,Grevensmolenweg,103,50.8241498641,5.17199138868
3800,Sint-Truiden,Luikersteenweg,63,50.8098868037,5.19203759887
3800,Sint-Truiden,Schepen Dejonghstraat,78,50.8165517272,5.19042644346
3800,Sint-Truiden,Lepelstraat,19,50.8112064172,5.18505961983
3800,Sint-Truiden,Spoorwegstraat,18,50.8188963444,5.17961922587
3800,Sint-Truiden,Tichelrijstraat,38,50.8168094396,5.19393461079
3800,Sint-Truiden,Zepperenweg,116,50.8191996434,5.20599373267
3800,Sint-Truiden,Brustem-Dorp,154,50.8028471547,5.22098221225
3800,Sint-Truiden,Kortenbosstraat,134,50.8451037561,5.22790495806
3800,Sint-Truiden,Halmaalweg,143,50.8099375782,5.16419553545
3800,Sint-Truiden,Luciëndallaan,18,50.8258816152,5.18294305027
3800,Sint-Truiden,Gorsemweg,278,50.8275159943,5.16989536417
3800,Sint-Truiden,Driewilgenstraat,66,50.770272583,5.25014351165
3800,Sint-Truiden,Brukskensweg,30,50.8084171014,5.19330118069
3800,Sint-Truiden,Stationsstraat,11,50.8161804543,5.17975841096
3800,Sint-Truiden,Notestraat,4,50.8103793977,5.17187993449
3800,Sint-Truiden,Driewilgenstraat,31,50.7717879147,5.25101264158
3800,Sint-Truiden,Nonnentap,27,50.83014124,5.18496742788
3800,Sint-Truiden,Duifhuisstraat,2,50.8261022542,5.20698965568
3800,Sint-Truiden,Schoolstraat,14,50.8329581388,5.20257874119
3800,Sint-Truiden,Schabroek,18,50.7676607679,5.26790440373
3800,Sint-Truiden,Zepperenweg,169,50.8198612739,5.21973301908
3800,Sint-Truiden,Halmaal-Dorp,120,50.7983653904,5.14818541245
3800,Sint-Truiden,Margrietstraat,18,50.8268594656,5.17534211469
3800,Sint-Truiden,Klein-Eikhoutstraat,3,50.8338021383,5.25399260912
3800,Sint-Truiden,Koningin Astridstraat,19,50.8174608898,5.17884018816
3800,Sint-Truiden,Windmolenstraat,22,50.8041073126,5.21311572319
3800,Sint-Truiden,Gorsemweg,18,50.8192881694,5.18096329012
3800,Sint-Truiden,Gorsemweg,82,50.820781656,5.17781313764
3800,Sint-Truiden,Erberstraat,37,50.7781014876,5.21177784263
3800,Sint-Truiden,Festraetsstraat,25,50.8110443971,5.1946643345
3800,Sint-Truiden,Beukenlaan,11,50.8138646551,5.23565318371
3800,Sint-Truiden,Zonnebloemlaan,20,50.8276850397,5.17519645783
3800,Sint-Truiden,Tongersesteenweg,348,50.8092466214,5.24088747508
3800,Sint-Truiden,Hogeweg,9,50.810767533,5.23584679216
3800,Sint-Truiden,Zerkingen,40,50.8091090415,5.17866091979
3800,Sint-Truiden,Leopold II straat,12,50.8189909172,5.18082631068
3800,Sint-Truiden,Schoolstraat,60,50.8343977786,5.2062891413
3800,Sint-Truiden,Hyacintstraat,5,50.8221026771,5.1794101422
3800,Sint-Truiden,Steenovenstraat,42,50.8134522228,5.16931975643
3800,Sint-Truiden,Prins-bisschoppenstraat,3,50.8149218468,5.19183006532
3800,Sint-Truiden,Gippershovenstraat,19,50.8355012723,5.27301720866
3800,Sint-Truiden,Bentincklaan,11,50.8151873466,5.23429695818
3800,Sint-Truiden,Kersenstraat,3,50.8101211371,5.17234787765
3800,Sint-Truiden,Gorsemweg,36,50.8195013054,5.1800322905
3800,Sint-Truiden,Terbiest,38,50.8247651368,5.20289904935
3800,Sint-Truiden,Rode-Kruisstraat,24,50.8358992702,5.25146756441
3800,Sint-Truiden,Houtstraat,103,50.8267646134,5.17996437543
3800,Sint-Truiden,Gorsemweg,64,50.8201112421,5.17832358277
3800,Sint-Truiden,Rijschoolstraat,54,50.8171865668,5.18092186049
3800,Sint-Truiden,Hyacintstraat,29,50.8232014454,5.17991691414
3800,Sint-Truiden,Pipelstraat,26,50.8048560131,5.22520852548
3800,Sint-Truiden,Boterdelstraat,5,50.7714755397,5.25305573784
3800,Sint-Truiden,Begijnhof,53,50.8214607881,5.19445299366
3800,Sint-Truiden,Gelinden-Dorp,77,50.7626462308,5.2604557158
3800,Sint-Truiden,Vissegatstraat,22,50.8199011179,5.19011501791
3800,Sint-Truiden,Schoolstraat,32,50.8336842653,5.2038037089
3800,Sint-Truiden,Luikersteenweg,342,50.7944591772,5.21979755283
3800,Sint-Truiden,Tongersesteenweg,87,50.8111988548,5.19673828984
3800,Sint-Truiden,Engelmanshoven-Dorp,95,50.7706556844,5.26710220552
3800,Sint-Truiden,Luikersteenweg,81,50.8095031524,5.19254196633
3800,Sint-Truiden,Grote Markt,65,50.815951267,5.18692242521
3800,Sint-Truiden,Brukskensweg,12,50.8094226219,5.192244999
3800,Sint-Truiden,Kasteelzicht,10,50.7730401899,5.18569148337
3800,Sint-Truiden,Binnenhof,13,50.813200963,5.17101218093
3800,Sint-Truiden,Grevensmolenweg,121,50.8246662626,5.17147888848
3800,Sint-Truiden,Leopold II straat,65,50.8158754285,5.17869195365
3800,Sint-Truiden,Krokusstraat,20,50.8245577971,5.18062842948
3800,Sint-Truiden,Sint-Quintinusstraat,12,50.7661138251,5.2642202508
3800,Sint-Truiden,Dekkenstraat,107,50.8389795344,5.26043654497
3800,Sint-Truiden,Naamsesteenweg,290,50.7950916416,5.17808173051
3800,Sint-Truiden,Schurhoven,125,50.8212474433,5.19632663299
3800,Sint-Truiden,Slachthuisstraat,35,50.8193694853,5.19245123058
3800,Sint-Truiden,Kasteelstraat,3,50.8289458925,5.24568762199
3800,Sint-Truiden,Gorsemweg,207,50.828811926,5.17167931543
3800,Sint-Truiden,Ordingen-Dorp,33,50.8115126796,5.23272802451
3800,Sint-Truiden,Kleindekkenstraat,4,50.8306069773,5.25719353981
3800,Sint-Truiden,Kampveld,10,50.8277933981,5.2109112573
3800,Sint-Truiden,Luikersteenweg,224,50.8024002902,5.20591260557
3800,Sint-Truiden,Luciëndallaan,36,50.8274265997,5.18161766678
3800,Sint-Truiden,Tiensesteenweg,214,50.8134017421,5.16183588853
3800,Sint-Truiden,Kleine d'Oyestraat,11,50.8242259468,5.2538519543
3800,Sint-Truiden,Sportlaan,48,50.825515165,5.1704728591
3800,Sint-Truiden,Gudderstraat,31,50.7871529804,5.26331818822
3800,Sint-Truiden,Spoorwegstraat,36,50.8185015147,5.17917530997
3800,Sint-Truiden,Brustem-Dorp,108,50.8005528271,5.22183734229
3800,Sint-Truiden,Grote Markt,30,50.8150885562,5.18442489421
3800,Sint-Truiden,Overbroekstraat,10,50.7569062103,5.26415489173
3800,Sint-Truiden,Tiensesteenweg,260,50.8125913802,5.15468841329
3800,Sint-Truiden,Borgwormsesteenweg,76,50.7797983485,5.20664033134
3800,Sint-Truiden,Klaproosstraat,10,50.8280600748,5.17431261311
3800,Sint-Truiden,Terbiest,210,50.8328355633,5.21966280411
3800,Sint-Truiden,Diesterstraat,51,50.8181636817,5.18384929655
3800,Sint-Truiden,Leopold II straat,30,50.8185873941,5.18053479427
3800,Sint-Truiden,Kortenbosstraat,116,50.8439752505,5.22588844035
3800,Sint-Truiden,Tiensesteenweg,71,50.8153366536,5.17720839578
3800,Sint-Truiden,Tramstraat,24,50.8124934772,5.1703242428
3800,Sint-Truiden,Drie-Gezustersstraat,30,50.8195024068,5.2453040641
3800,Sint-Truiden,Kleindekkenstraat,28,50.8301762243,5.25413424456
3800,Sint-Truiden,Kleinveldstraat,42,50.7584750614,5.2602197743
3800,Sint-Truiden,Hasseltsesteenweg,243,50.8426212148,5.22006015763
3800,Sint-Truiden,Waterkuilstraat,11,50.8357497514,5.25675130598
3800,Sint-Truiden,Nonnentap,73,50.8286906983,5.18262734904
3800,Sint-Truiden,Terwouwenstraat,94,50.8329352885,5.2685800536
3800,Sint-Truiden,Kortenbosstraat,224,50.8505301163,5.23212278764
3800,Sint-Truiden,Luikersteenweg,10,50.8124193435,5.18953842703
3800,Sint-Truiden,Slachthuisstraat,17,50.8191181747,5.19197054622
3800,Sint-Truiden,Ridderstraat,36,50.8156957197,5.18975515128
3800,Sint-Truiden,Rummenweg,88,50.8281099761,5.17906893097
3800,Sint-Truiden,Akkerhof,7,50.7640120318,5.26036323415
3800,Sint-Truiden,Naamsesteenweg,324B,50.7933085513,5.17744140819
3800,Sint-Truiden,Eynestraat,81,50.8292630227,5.25887650697
3800,Sint-Truiden,Kerkom-Dorp,95,50.7728355751,5.18179354084
3800,Sint-Truiden,Hasseltsesteenweg,33A,50.8248774106,5.19844551769
3800,Sint-Truiden,Gazometerstraat,36,50.8155870934,5.17610440366
3800,Sint-Truiden,Zepperenweg,206,50.8205288789,5.21896623106
3800,Sint-Truiden,Geelstraat,93,50.802263284,5.22797469155
3800,Sint-Truiden,Luikersteenweg,259,50.7981461901,5.21172941189
3800,Sint-Truiden,Tiensevest,8,50.8133606783,5.18395643267
3800,Sint-Truiden,Borgwormsesteenweg,28A,50.7838064808,5.20831932689
3800,Sint-Truiden,Luikerstraat,24,50.8147987519,5.1879868052
3800,Sint-Truiden,Meigaar,10,50.8235059447,5.19893069701
3800,Sint-Truiden,Dekkenstraat,72,50.8363771877,5.25842069274
3800,Sint-Truiden,Gorsemweg,171,50.8267418502,5.17345057111
3800,Sint-Truiden,Okeleistraat,16,50.806891561,5.1922537227
3800,Sint-Truiden,Keelstraat,30,50.841463754,5.22693463475
3800,Sint-Truiden,Nachtegaal,130,50.8565736068,5.23971960216
3800,Sint-Truiden,Schurhoven,54,50.8213417483,5.19519374052
3800,Sint-Truiden,Vliegveldlaan,5,50.8000703532,5.21054404264
3800,Sint-Truiden,Rijschoolstraat,26,50.8179657781,5.18149958114
3800,Sint-Truiden,Terbiest,120,50.828894931,5.21185253199
3800,Sint-Truiden,Koekestraat,15,50.8113150045,5.18700646243
3800,Sint-Truiden,Houtstraat,67,50.8255944267,5.17882641054
3800,Sint-Truiden,Montenakenweg,50,50.8090528132,5.17723581957
3800,Sint-Truiden,Zepperenweg,45,50.8177017302,5.20053994275
3800,Sint-Truiden,Begijnhof,25,50.8217959317,5.19335681984
3800,Sint-Truiden,Prins Albertlaan,33A,50.8183654851,5.17996868873
3800,Sint-Truiden,Sint-Martenplein,1,50.8155587286,5.18301851632
3800,Sint-Truiden,Plankstraat,16,50.8162414308,5.1877380667
3800,Sint-Truiden,Guvelingen,38,50.8296925909,5.18524452865
3800,Sint-Truiden,Kommanderijstraat,23,50.8265951003,5.21052385456
3800,Sint-Truiden,Brandhoutstraat,85,50.8093987224,5.21604545078
3800,Sint-Truiden,Wellensestraat,36,50.823347575,5.26133117699
3800,Sint-Truiden,Pipelstraat,2,50.8031253909,5.22099605207
3800,Sint-Truiden,Hameistraat,44,50.8011923742,5.22483237682
3800,Sint-Truiden,Spaansebrugstraat,38,50.8133570813,5.18267713054
3800,Sint-Truiden,Leopold II straat,83,50.8153455376,5.17838183675
3800,Sint-Truiden,Terwouwenstraat,76,50.8324838887,5.26665862838
3800,Sint-Truiden,Tongersesteenweg,156B,50.8113624578,5.20458615372
3800,Sint-Truiden,Zoutleeuwsesteenweg,45,50.8178796005,5.15455773778
3800,Sint-Truiden,Populierenstraat,16,50.7649029676,5.25872326199
3800,Sint-Truiden,Tramstraat,59,50.8120582664,5.1689571631
3800,Sint-Truiden,Brustem-Dorp,126,50.8015193124,5.22158547526
3800,Sint-Truiden,Kortenbosstraat,206,50.8496379163,5.231429842
3800,Sint-Truiden,Dekkenstraat,90,50.8374107606,5.2587913715
3800,Sint-Truiden,Tongersesteenweg,52,50.8126927341,5.19263632452
3800,Sint-Truiden,Vliegveldlaan,29,50.8015218124,5.21183207273
3800,Sint-Truiden,Augustijnenstraat,4B,50.8231419933,5.17510387118
3800,Sint-Truiden,Aalst-Dorp,13,50.7816299119,5.21337089122
3800,Sint-Truiden,Terwouwenstraat,112,50.8335890634,5.26978393831
3800,Sint-Truiden,Naamsesteenweg,201,50.8074910931,5.18095695229
3800,Sint-Truiden,Gippershovenstraat,101,50.8370612451,5.28143582009
3800,Sint-Truiden,Trudobron,44,50.8081480009,5.17942657543
3800,Sint-Truiden,Kortenbosstraat,45,50.8401831604,5.22043468145
3800,Sint-Truiden,Haardstraat,13,50.8209334828,5.18718302523
3800,Sint-Truiden,Festraetsstraat,8,50.8113674615,5.19556196631
3800,Sint-Truiden,Rummenweg,106,50.8295955244,5.17831112895
3800,Sint-Truiden,Populierenstraat,34,50.7646672964,5.25498565654
3800,Sint-Truiden,Hasseltsesteenweg,48,50.826799721,5.19892175308
3800,Sint-Truiden,Luciëndallaan,46,50.8281048927,5.18099703339
3800,Sint-Truiden,Lenaertsstraat,50,50.8043340394,5.22648596376
3800,Sint-Truiden,Schoolstraat,49,50.8334107892,5.20508871674
3800,Sint-Truiden,Spoorwegstraat,46,50.8182909835,5.17893893709
3800,Sint-Truiden,Diestersteenweg,44,50.820410816,5.18278170308
3800,Sint-Truiden,Nonnentap,55,50.8290050807,5.18183788356
3800,Sint-Truiden,Eynestraat,45,50.8258993749,5.25988841789
3800,Sint-Truiden,Grevensmolenweg,67,50.8231938186,5.17335915439
3800,Sint-Truiden,Brandhoutstraat,49,50.8062340199,5.21518437339
3800,Sint-Truiden,Tereykenstraat,21,50.8334367416,5.28318908245
3800,Sint-Truiden,Tongersesteenweg,70,50.8121420265,5.19483970944
3800,Sint-Truiden,Spiegelstraat,28,50.8115383694,5.18633010233
3800,Sint-Truiden,Engelbamp,57,50.8564858124,5.20877381281
3800,Sint-Truiden,Steenkuilstraat,5,50.7852589501,5.21162023852
3800,Sint-Truiden,Brustem-Dorp,19,50.7981645685,5.21776983251
3800,Sint-Truiden,Luciëndal,28,50.8259483449,5.18447729235
3800,Sint-Truiden,Groot-Gelmenlaan,141,50.7840584817,5.26178048788
3800,Sint-Truiden,Melveren-Centrum,7,50.8302378805,5.20221646566
3800,Sint-Truiden,Boomgaardenstraat,23,50.8196567313,5.17709594926
3800,Sint-Truiden,Remaclusstraat,34,50.832801632,5.25418144771
3800,Sint-Truiden,Geelstraat,75,50.8031272915,5.22659517788
3800,Sint-Truiden,Aalsterweg,10,50.808889056,5.19179750138
3800,Sint-Truiden,Drie-Gezustersstraat,47,50.8197830875,5.24647958799
3800,Sint-Truiden,Ridderstraat,18,50.8157152934,5.18846256502
3800,Sint-Truiden,Erberstraat,65,50.7766540481,5.21099246793
3800,Sint-Truiden,Frederic de Renesselaan,9,50.8259295396,5.20940011745
3800,Sint-Truiden,Kerkveldstraat,37,50.8231474498,5.24530861075
3800,Sint-Truiden,Begaardenbosstraat,40,50.8538276319,5.24031701695
3800,Sint-Truiden,Prins Albertlaan,48,50.8176499165,5.1786633575
3800,Sint-Truiden,Schurhoven,72,50.8216884275,5.19573859098
3800,Sint-Truiden,Nachtegaal,112,50.8552711319,5.24062488322
3800,Sint-Truiden,Maasrode,28,50.800164555,5.14712234646
3800,Sint-Truiden,Gazometerstraat,18,50.816429089,5.17644611345
3800,Sint-Truiden,Dekkenstraat,54,50.8348340837,5.25751240772
3800,Sint-Truiden,Schurhoven,48,50.8205068045,5.19416544253
3800,Sint-Truiden,Keelstraat,12,50.8425723665,5.2266222055
3800,Sint-Truiden,Klein-Eikhoutstraat,20,50.8345095752,5.25584682034
3800,Sint-Truiden,Schepen Dejonghstraat,8,50.8143718188,5.18896162583
3800,Sint-Truiden,Slagmolenstraat,25,50.812174776,5.18455212588
3800,Sint-Truiden,Kleistraat,12,50.8125718621,5.16700926806
3800,Sint-Truiden,Stippelstraat,46,50.8434028222,5.2564301025
3800,Sint-Truiden,Stapelstraat,92,50.8155447744,5.18115743731
3800,Sint-Truiden,Gierstraat,16,50.7797174265,5.20951190715
3800,Sint-Truiden,Naamsesteenweg,118,50.810062361,5.18269215929
3800,Sint-Truiden,Vliegveldlaan,111,50.8052243472,5.22031478484
3800,Sint-Truiden,Tereykenstraat,109,50.8281502273,5.28445344818
3800,Sint-Truiden,Belingstraat,15,50.7936573768,5.21703044361
3800,Sint-Truiden,Naamsevest,6,50.8124513547,5.18849801765
3800,Sint-Truiden,Bornedries,38,50.8449362406,5.20063586956
3800,Sint-Truiden,Parkstraat,19,50.8205737955,5.18656422087
3800,Sint-Truiden,Vliegveldlaan,146,50.8080956521,5.2253413312
3800,Sint-Truiden,Diestersteenweg,80,50.8209094132,5.18397001257
3800,Sint-Truiden,Ziekerenweg,65,50.8092113481,5.17246399617
3800,Sint-Truiden,Trudobron,62,50.8079175049,5.17820352649
3800,Sint-Truiden,Begoniastraat,8,50.8290505457,5.17737396343
3800,Sint-Truiden,Engelbamp,22,50.837001819,5.19962762596
3800,Sint-Truiden,Dreef,10,50.8099973842,5.24009190859
3800,Sint-Truiden,Heide,118,50.8692627272,5.22523886053
3800,Sint-Truiden,Ziekerenweg,30,50.8138513592,5.17958000793
3800,Sint-Truiden,Nerumstraat,24,50.7849635644,5.21027889389
3800,Sint-Truiden,Fabiolalaan,17,50.8255224309,5.20350962757
3800,Sint-Truiden,Horionlaan,31,50.8146553405,5.23107525548
3800,Sint-Truiden,Leopold II straat,40,50.8176170167,5.18013032335
3800,Sint-Truiden,Halmaalweg,79,50.8120823308,5.17022329508
3800,Sint-Truiden,Groot-Gelmenlaan,52,50.7783326493,5.25603519788
3800,Sint-Truiden,Steenovenstraat,77,50.8133933502,5.16998824289
3800,Sint-Truiden,Zerkingen,29,50.8082367969,5.17780578569
3800,Sint-Truiden,Grevensmolenweg,85,50.8236306513,5.17263852302
3800,Sint-Truiden,Halmaalweg,97,50.8117343312,5.16885501685
3800,Sint-Truiden,Luikersteenweg,400,50.7896945489,5.22737770401
3800,Sint-Truiden,Sint-Harlindislaan,15,50.8127994842,5.22819056723
3800,Sint-Truiden,Bevingen-Centrum,7,50.7986726022,5.17713236038
3800,Sint-Truiden,Luikersteenweg,152,50.8056472632,5.19998415331
3800,Sint-Truiden,Halmaalweg,26,50.8135905521,5.1735076453
3800,Sint-Truiden,Grote Markt,40,50.8155138495,5.18494527197
3800,Sint-Truiden,Naamsesteenweg,189,50.8078027359,5.18102831337
3800,Sint-Truiden,Zerkingen,5,50.8103662954,5.1784813804
3800,Sint-Truiden,Nieuwdekkenstraat,12,50.8360873048,5.25654146373
3800,Sint-Truiden,Diestersteenweg,62,50.820817922,5.18306139066
3800,Sint-Truiden,Hasseltsesteenweg,90,50.8284466353,5.20125053715
3800,Sint-Truiden,Senselberg,2,50.8440054142,5.22210057399
3800,Sint-Truiden,Minderbroedersstraat,40,50.8140690705,5.18768431951
3800,Sint-Truiden,Terbiest,155,50.8295441331,5.21542643504
3800,Sint-Truiden,Romeinseweg-Brustem,12,50.792130971,5.22109564382
3800,Sint-Truiden,Gorsemweg,100,50.8212073712,5.17776923228
3800,Sint-Truiden,Stapelstraat,21,50.8153647235,5.18335431355
3800,Sint-Truiden,Guvelingenlaan,21,50.8329046117,5.18054312218
3800,Sint-Truiden,Rummenweg,17,50.8233545929,5.18245047795
3800,Sint-Truiden,Dekkenstraat,48,50.8343457355,5.25733479771
3800,Sint-Truiden,Nachtegaal,58,50.8517300221,5.24807262791
3800,Sint-Truiden,Gorsemweg,153,50.826027031,5.17430316518
3800,Sint-Truiden,Halmaal-Dorp,38,50.8029298578,5.15288304741
3800,Sint-Truiden,Stapelstraat,74,50.8154531228,5.18170758951
3800,Sint-Truiden,Eglantierplein,4,50.8274047567,5.17819006157
3800,Sint-Truiden,Sportpleinstraat,26,50.8371791346,5.25681793509
3800,Sint-Truiden,Middenlaan,21,50.8241344344,5.17410735415
3800,Sint-Truiden,Terwouwenstraat,23,50.828451057,5.26203779059
3800,Sint-Truiden,Luikerstraat,59,50.8138572184,5.18852580159
3800,Sint-Truiden,Beemdenstraat,2,50.7602368408,5.26157178419
3800,Sint-Truiden,Terbeek,230,50.856696011,5.16968007836
3800,Sint-Truiden,Melveren-Centrum,42,50.831505307,5.20043298026
3800,Sint-Truiden,Sportlaan,38,50.8257435707,5.17100277983
3800,Sint-Truiden,Bermenstraat,21,50.779815305,5.2034627401
3800,Sint-Truiden,Leemstraat,7,50.8122970793,5.16684439865
3800,Sint-Truiden,Hameistraat,9,50.8015843628,5.22897577953
3800,Sint-Truiden,Basiliekstraat,47,50.8636432679,5.2373287141
3800,Sint-Truiden,Terbiest,102,50.828437065,5.20704223887
3800,Sint-Truiden,Nieuwdekkenstraat,30,50.8358841936,5.25446584547
3800,Sint-Truiden,Naamsesteenweg,136,50.8095904353,5.18236062025
3800,Sint-Truiden,Hasseltsesteenweg,351,50.8511709061,5.23052608947
3800,Sint-Truiden,Sint-Anneke,15,50.8145859709,5.18073061677
3800,Sint-Truiden,Kwadensteenweg,17,50.810394081,5.18959713621
3800,Sint-Truiden,Casinostraat,1,50.812802349,5.19057303702
3800,Sint-Truiden,Middenlaan,74,50.8257060205,5.1721528322
3800,Sint-Truiden,Begaardenbosstraat,5,50.8555264352,5.23982900127
3800,Sint-Truiden,Eglantierplein,28,50.8281720336,5.17756934975
3800,Sint-Truiden,Steenovenstraat,32,50.8132843896,5.16896285533
3800,Sint-Truiden,Terwouwenstraat,58,50.8314990666,5.26444357887
3800,Sint-Truiden,Tiensesteenweg,142,50.8145656534,5.17009450643
3800,Sint-Truiden,Heide,40,50.8654775181,5.22233472606
3800,Sint-Truiden,Zepperenweg,224,50.8203966349,5.22052499447
3800,Sint-Truiden,Gootstraat,21,50.8148873803,5.18162897932
3800,Sint-Truiden,Senselberg,26,50.8442993176,5.22463755142
3800,Sint-Truiden,Lupinestraat,21,50.8266088625,5.17506202125
3800,Sint-Truiden,Gasthuisstraat,11,50.818681331,5.18651894127
3800,Sint-Truiden,Sint-Godfriedstraat,8,50.8312566379,5.20016738004
3800,Sint-Truiden,Sleeweg,8,50.7847129084,5.25797577886
3800,Sint-Truiden,Koekestraat,33,50.8106539752,5.18675969607
3800,Sint-Truiden,Houtstraat,85,50.8262031692,5.17925193778
3800,Sint-Truiden,Naamsesteenweg,40,50.8118922564,5.18405583347
3800,Sint-Truiden,Augustijnenstraat,16,50.8227554948,5.17460956941
3800,Sint-Truiden,Zoutstraat,17,50.8163935183,5.18494749322
3800,Sint-Truiden,Luikersteenweg,332,50.7948464267,5.21844312199
3800,Sint-Truiden,Kortenbosstraat,81,50.8418133443,5.22350803481
3800,Sint-Truiden,Ziekerenweg,12,50.8143729321,5.17962391453
3800,Sint-Truiden,Begaardenbosstraat,29,50.852748884,5.24035650385
3800,Sint-Truiden,Driesstraat,11,50.8217251312,5.24482521545
3800,Sint-Truiden,Guvelingen,84,50.8270282436,5.18546962408
3800,Sint-Truiden,Leopold II straat,37,50.8176318236,5.17964097545
3800,Sint-Truiden,Hovenierstraat,29,50.8210184408,5.1805305226
3800,Sint-Truiden,Korenbloemstraat,20,50.8272086469,5.17615022818
3800,Sint-Truiden,Overbroekstraat,3,50.759294295,5.25962566993
3800,Sint-Truiden,Ordingen-Dorp,114,50.816494549,5.24111463779
3800,Sint-Truiden,Sportpleinstraat,9,50.8382618393,5.25816674888
3800,Sint-Truiden,Klaproosstraat,3,50.8276483583,5.1742429569
3800,Sint-Truiden,Trudobron,2,50.8091439751,5.17899127046
3800,Sint-Truiden,Erberstraat,12,50.7796011844,5.21366797543
3800,Sint-Truiden,Luikersteenweg,561,50.7662422809,5.26625200527
3800,Sint-Truiden,Eynestraat,17,50.824102092,5.25810881473
3800,Sint-Truiden,Frederic de Renesselaan,34,50.8265884365,5.21239977956
3800,Sint-Truiden,Spaansebrugstraat,84,50.813864471,5.1801919767
3800,Sint-Truiden,Gorsemweg,135,50.8253071949,5.17493025119
3800,Sint-Truiden,Tongersesteenweg,258,50.8099201064,5.22909597535
3800,Sint-Truiden,Kampveld,3,50.8271753488,5.20889253101
3800,Sint-Truiden,Zepperen-Dorp,75,50.8231885326,5.25665971009
3800,Sint-Truiden,Naamsestraat,26,50.8139129114,5.18478691959
3800,Sint-Truiden,Vliegveldlaan,75,50.8042371529,5.21618608941
3800,Sint-Truiden,Melveren-Centrum,60,50.8326504719,5.19940601468
3800,Sint-Truiden,Prins Albertlaan,24A,50.8181452824,5.18053155677
3800,Sint-Truiden,Tramstraat,7,50.8133490089,5.17026703184
3800,Sint-Truiden,Halmaalweg,9,50.8144961903,5.17494915071
3800,Sint-Truiden,Anemoonstraat,12,50.8247389267,5.17971011364
3800,Sint-Truiden,Luikersteenweg,543,50.7668873861,5.26456854155
3800,Sint-Truiden,Kasteelzicht,3,50.7737244385,5.18477653863
3800,Sint-Truiden,Pannenoven,10,50.8463391487,5.22191648178
3800,Sint-Truiden,Bautershoven,56,50.8172240045,5.22285774805
3800,Sint-Truiden,Guvelingen,66,50.8269090218,5.18645078536
3800,Sint-Truiden,Tulpstraat,7,50.8244726964,5.17919540559
3800,Sint-Truiden,Luikerstraat,87,50.8132022265,5.18897087259
3800,Sint-Truiden,Rijschoolstraat,79,50.8161034501,5.18005097664
3800,Sint-Truiden,Helshovenstraat,27,50.7831795154,5.26831665138
3800,Sint-Truiden,Kleine d'Oyestraat,36,50.8252526527,5.25074991999
3800,Sint-Truiden,Kleinveldstraat,32,50.7590951841,5.260790117
3800,Sint-Truiden,Waterkuilstraat,18,50.8350159647,5.25592168728
3800,Sint-Truiden,Tongersesteenweg,276,50.8097387063,5.23142676784
3800,Sint-Truiden,Wijngaardenweg,14,50.8078594193,5.18669077523
3800,Sint-Truiden,Grote Markt,37,50.8153769446,5.18478835729
3800,Sint-Truiden,Zepperen-Dorp,57,50.822830734,5.25467541939
3800,Sint-Truiden,Kruiskapelstraat,20,50.8104726609,5.24149709559
3800,Sint-Truiden,Jan van Xantenlaan,8,50.8082398905,5.18929788072
3800,Sint-Truiden,Ridderordelaan,19,50.8140627549,5.22690772101
3800,Sint-Truiden,Kortenbosstraat,17,50.8390661661,5.21755666463
3800,Sint-Truiden,Groot-Gelmenlaan,95,50.780968364,5.25994811814
3800,Sint-Truiden,Bernissem,16,50.8273314336,5.21594255923
3800,Sint-Truiden,Luciëndal,4,50.8265839941,5.1839666938
3800,Sint-Truiden,Vissegatstraat,40,50.8197262835,5.19059860793
3800,Sint-Truiden,Geelstraat,22,50.8064118334,5.21871048078
3800,Sint-Truiden,Naamsesteenweg,308,50.7941250676,5.17799658302
3800,Sint-Truiden,Erberstraat,30,50.7780078003,5.21303842543
3800,Sint-Truiden,Waterkuilstraat,36,50.834802458,5.25443508854
3800,Sint-Truiden,Luciëndallaan,11,50.8275804619,5.18216851687
3800,Sint-Truiden,Sint-Gangulfusplein,6,50.818721601,5.18319139368
3800,Sint-Truiden,Boudewijnlaan,37,50.8262632883,5.20308334096
3800,Sint-Truiden,Slagmolenstraat,47,50.81138752,5.18409887011
3800,Sint-Truiden,Borgwormsesteenweg,41,50.7832638541,5.20944299456
3800,Sint-Truiden,Zepperenweg,17,50.8168577581,5.19650193875
3800,Sint-Truiden,Groot-Gelmenlaan,105,50.7818389913,5.26019533573
3800,Sint-Truiden,Hasseltsesteenweg,490,50.8591991746,5.24343707765
3800,Sint-Truiden,Klein-Gelmenstraat,7,50.7817004635,5.26594626892
3800,Sint-Truiden,Minderbroedersstraat,5,50.8141996179,5.1860485979
3800,Sint-Truiden,Luikersteenweg,359,50.7907926436,5.22431725855
3800,Sint-Truiden,Ridderordelaan,3,50.8149804933,5.22848616509
3800,Sint-Truiden,Diesterstraat,23,50.817703658,5.18508817768
3800,Sint-Truiden,Margrietstraat,11,50.8266760374,5.17612943685
3800,Sint-Truiden,Rusthofplein,4,50.8245270194,5.17221116378
3800,Sint-Truiden,Kazernestraat,18,50.8163303092,5.1811606568
3800,Sint-Truiden,Startelstraat,12,50.8435390649,5.25912630303
3800,Sint-Truiden,Naamsesteenweg,19,50.81265145,5.1840850374
3800,Sint-Truiden,Clement Cartuyvelsstraat,25,50.8185084865,5.19059774741
3800,Sint-Truiden,Kazelstraat,25,50.8175804573,5.19419919483
3800,Sint-Truiden,Beekstraat,24,50.8161302232,5.18419534067
3800,Sint-Truiden,Kommanderijstraat,68,50.8276462176,5.21407058585
3800,Sint-Truiden,Naamsesteenweg,5,50.8132225999,5.18438101744
3800,Sint-Truiden,Zepperenweg,3,50.8162718534,5.19469631234
3800,Sint-Truiden,Spoorwegstraat,11,50.8190681629,5.17905820683
3800,Sint-Truiden,Vliegveldlaan,93,50.8047108935,5.21872200658
3800,Sint-Truiden,Minderbroedersstraat,19,50.8137931548,5.18740265987
3800,Sint-Truiden,Kattenstraat,10,50.8127911337,5.19287232583
3800,Sint-Truiden,Basiliekstraat,29,50.8622914018,5.23778113682
3800,Sint-Truiden,Frederic de Renesselaan,16,50.8259544712,5.21102293574
3800,Sint-Truiden,Naamsevest,51,50.8127470672,5.18697747174
3800,Sint-Truiden,Plantenstraat,18,50.8200286724,5.18137985476
3800,Sint-Truiden,Toekomststraat,2,50.8173505768,5.18113784854
3800,Sint-Truiden,Begijnhof,47,50.8216525508,5.19494969967
3800,Sint-Truiden,Kersenstraat,20,50.8096443393,5.17256490525
3800,Sint-Truiden,Boudewijnlaan,19,50.8259070796,5.20116551668
3800,Sint-Truiden,Fresiastraat,31,50.8285661964,5.17265369808
3800,Sint-Truiden,Tiensesteenweg,78,50.8148643209,5.17636033127
3800,Sint-Truiden,Terbeek,51,50.8458634372,5.18238334053
3800,Sint-Truiden,Halmaalweg,107,50.8116623714,5.1684922413
3800,Sint-Truiden,Groot-Gelmenlaan,59,50.7777237253,5.25715027682
3800,Sint-Truiden,Vissegatstraat,29,50.8195361382,5.19006095371
3800,Sint-Truiden,Kampveld,17,50.8273859201,5.2109800361
3800,Sint-Truiden,Ijzerenkruisstraat,32,50.8219260694,5.25379274216
3800,Sint-Truiden,Hyacintstraat,22,50.8230895193,5.17904665105
3800,Sint-Truiden,Luikersteenweg,88,50.8092496972,5.19402608259
3800,Sint-Truiden,Koningin Astridstraat,12,50.817207645,5.17826717846
3800,Sint-Truiden,Brandhoutstraat,42,50.8056742263,5.21632407954
3800,Sint-Truiden,Pruimenstraat,28,50.8116183328,5.17148577556
3800,Sint-Truiden,Hogeweg,2,50.8111688827,5.23635295954
3800,Sint-Truiden,Weertstraat,11,50.8373704836,5.25076701718
3800,Sint-Truiden,Kasteelzicht,17,50.7727601533,5.18569016464
3800,Sint-Truiden,Tongersesteenweg,313,50.8087958964,5.24031396988
3800,Sint-Truiden,Lepelstraat,30,50.8113101143,5.18558231773
3800,Sint-Truiden,Lepelstraat,65,50.8103499105,5.18806094835
3800,Sint-Truiden,Tiensesteenweg,25,50.8150989882,5.17957002908
3800,Sint-Truiden,Terbiest,84,50.8270112175,5.20484280292
3800,Sint-Truiden,Krokusstraat,27,50.8249110395,5.18116991566
3800,Sint-Truiden,Kasteelstraat,20,50.8283741225,5.24299271644
3800,Sint-Truiden,Halmaal-Dorp,41,50.8030304724,5.15211536756
3800,Sint-Truiden,Engelbamp,40,50.8376022639,5.20090750057
3800,Sint-Truiden,Hasseltsesteenweg,472,50.8582169609,5.24144090287
3800,Sint-Truiden,Tongersesteenweg,24,50.8130244811,5.1911641049
3800,Sint-Truiden,Kortenbosstraat,170,50.8475159589,5.23085848885
3800,Sint-Truiden,Grote Markt,5,50.8150122114,5.18661871756
3800,Sint-Truiden,Leeuwerweg,30,50.807361206,5.15354933003
3800,Sint-Truiden,Kabei,20,50.8233621666,5.22515563795
3800,Sint-Truiden,Brukskensweg,19,50.8085333522,5.19239315734
3800,Sint-Truiden,Naamsesteenweg,344,50.7908861104,5.17627500901
3800,Sint-Truiden,Rijschoolstraat,9,50.8182380476,5.18112977369
3800,Sint-Truiden,Truilingenstraat,24,50.7739492826,5.17813736486
3800,Sint-Truiden,Luikersteenweg,447,50.7744853442,5.25183851419
3800,Sint-Truiden,Gippershovenstraat,65,50.8381633163,5.27777488254
3800,Sint-Truiden,Overbroekstraat,17,50.7580694875,5.25969121024
3800,Sint-Truiden,Zepperenweg,152,50.8198602042,5.21292431228
3800,Sint-Truiden,Gelinden-Dorp,14,50.7666427383,5.2629494952
3800,Sint-Truiden,Luikersteenweg,306,50.7973865126,5.21454676648
3800,Sint-Truiden,Klaproosstraat,17,50.8279474919,5.17508740642
3800,Sint-Truiden,d'Oyestraat,55,50.827200667,5.24802098081
3800,Sint-Truiden,Leopold II straat,5,50.8191809537,5.18042640336
3800,Sint-Truiden,Nachtegaal,94,50.8537127466,5.24188610006
3800,Sint-Truiden,Halmaal-Dorp,109,50.7986159511,5.1476983189
3800,Sint-Truiden,Terbiest,273,50.8357308519,5.22417891109
3800,Sint-Truiden,Fabriekstraat,78,50.8204920755,5.17413633003
3800,Sint-Truiden,Terbiest,66,50.8258541367,5.20559266161
3800,Sint-Truiden,Halmaal-Dorp,127,50.7969054896,5.14637332111
3800,Sint-Truiden,J. Claesstraat,7,50.8357931404,5.25345216311
3800,Sint-Truiden,Bevingen-Centrum,52,50.7963811509,5.17687749283
3800,Sint-Truiden,Luikersteenweg,425,50.7763548548,5.24842851004
3800,Sint-Truiden,Kommanderijstraat,6,50.8266777992,5.20828307837
3800,Sint-Truiden,Leopold II straat,19,50.8186967653,5.18007332358
3800,Sint-Truiden,Abtenstraat,12,50.8158817856,5.19274175517
3800,Sint-Truiden,Herderstraat,26,50.8035642381,5.22137401116
3800,Sint-Truiden,Perestraat,28,50.8102658919,5.17057557139
3800,Sint-Truiden,Groot-Gelmenlaan,77,50.7792076402,5.25821897307
3800,Sint-Truiden,Naamsesteenweg,427,50.7852004596,5.17333651938
3800,Sint-Truiden,Nonnentap,20,50.8296293149,5.18415836035
3800,Sint-Truiden,Lepelstraat,33B,50.8105847192,5.18516701958
3800,Sint-Truiden,Zepperenweg,170,50.8199920383,5.21583253189
3800,Sint-Truiden,Grote Markt,19,50.8144425546,5.1852720635
3800,Sint-Truiden,Terbiest,31,50.8235155864,5.20132129034
3800,Sint-Truiden,Minderbroedersstraat,37,50.8140163326,5.18803929415
3800,Sint-Truiden,Roosbeekstraat,55,50.8328807161,5.26263804164
3800,Sint-Truiden,Naamsesteenweg,226,50.8027833347,5.18088866868
3800,Sint-Truiden,Hasseltsesteenweg,64,50.82741943,5.19961630457
3800,Sint-Truiden,Rode-Kruisstraat,7,50.8370559981,5.25190201796
3800,Sint-Truiden,Nonnentaplaan,28,50.8297269405,5.18181843694
3800,Sint-Truiden,Ijzerenkruisstraat,14,50.8222567991,5.2557919471
3800,Sint-Truiden,Halmaalweg,125,50.8109453142,5.16643705593
3800,Sint-Truiden,Montenakenweg,111,50.8075048378,5.17553624729
3800,Sint-Truiden,Hofstraat,26,50.7685210692,5.24867686212
3800,Sint-Truiden,Lenertstraat,7,50.8100847695,5.24173338152
3800,Sint-Truiden,Gelinden-Dorp,70,50.7631119494,5.26222070147
3800,Sint-Truiden,Kortenbosstraat,152,50.8468158648,5.22970137635
3800,Sint-Truiden,Perzikstraat,21,50.8101165789,5.17012720211
3800,Sint-Truiden,Luikersteenweg,287,50.7955433716,5.215996635
3800,Sint-Truiden,Vliegveldlaan,22,50.8003995604,5.21243174673
3800,Sint-Truiden,Molenstraat,50,50.8156348632,5.17762392351
3800,Sint-Truiden,Tiensesteenweg,47,50.8152403245,5.17838598436
3800,Sint-Truiden,Startelstraat,30,50.8451231183,5.26059406792
3800,Sint-Truiden,Grevensmolenweg,138,50.8255921764,5.16774130139
3800,Sint-Truiden,Lindestraat,18A,50.7702173154,5.26461649271
3800,Sint-Truiden,Lepelstraat,12,50.811622617,5.18426598688
3800,Sint-Truiden,Rijschoolstraat,48,50.8174192193,5.18093652461
3800,Sint-Truiden,Notestraat,21,50.8109401448,5.17178337946
3800,Sint-Truiden,Keelstraat,19,50.8410075246,5.22653910495
3800,Sint-Truiden,Festraetsstraat,1,50.811527963,5.19520153592
3800,Sint-Truiden,Gorsemweg,188,50.8242001249,5.17492147672
3800,Sint-Truiden,Borgwormsesteenweg,13,50.7919492132,5.21823560065
3800,Sint-Truiden,Middenlaan,28,50.8240710367,5.173259635
3800,Sint-Truiden,Stippelstraat,36,50.8426667497,5.25689910515
3800,Sint-Truiden,Tramstraat,87,50.8103904046,5.1674055579
3800,Sint-Truiden,Meester-Robijnsstraat,8,50.767568546,5.26215179993
3800,Sint-Truiden,Clement Cartuyvelsstraat,5A,50.8177041777,5.18993868066
3800,Sint-Truiden,Tramstraat,70,50.8087060121,5.16769590004
3800,Sint-Truiden,Boudewijnlaan,5,50.8248730779,5.20238559441
3800,Sint-Truiden,Rodestraat,49,50.8067729328,5.18460721138
3800,Sint-Truiden,Luikersteenweg,525,50.7680783545,5.26283884097
3800,Sint-Truiden,Lenaertsstraat,85,50.8068397669,5.23112782787
3800,Sint-Truiden,Naamsesteenweg,208,50.8062120525,5.18195596068
3800,Sint-Truiden,Sportpleinstraat,54,50.83696866,5.2541709668
3800,Sint-Truiden,Boomgaardenstraat,6,50.8197806392,5.17800367537
3800,Sint-Truiden,Luikersteenweg,270,50.8000218579,5.20972378172
3800,Sint-Truiden,Krokusstraat,65,50.8264636475,5.18053205215
3800,Sint-Truiden,Eglantierplein,21,50.827494644,5.17873823568
3800,Sint-Truiden,Nieuwdekkenstraat,37,50.8363198794,5.25401094646
3800,Sint-Truiden,Tiensesteenweg,242,50.8131631762,5.1574789332
3800,Sint-Truiden,Melveren-Centrum,14,50.8298332625,5.20153005084
3800,Sint-Truiden,Brustem-Dorp,12,50.7974631896,5.21775220259
3800,Sint-Truiden,Gorsemweg,200,50.8245191243,5.1745904224
3800,Sint-Truiden,René Lambrechtsstraat,26B,50.8229341322,5.17584926879
3800,Sint-Truiden,Zepperen-Dorp,39,50.8225302438,5.25204971839
3800,Sint-Truiden,Sleeweg,15,50.7838390194,5.25786154709
3800,Sint-Truiden,Kerkom-Dorp,123,50.7741033553,5.18445729459
3800,Sint-Truiden,Hasseltsesteenweg,416A,50.8547998083,5.23425301468
3800,Sint-Truiden,Hasseltsesteenweg,46,50.8269312731,5.19833430613
3800,Sint-Truiden,Tiensesteenweg,277,50.813557672,5.15568695456
3800,Sint-Truiden,Slagmolenstraat,8,50.8125165274,5.18505002058
3800,Sint-Truiden,Gasthuisstraat,18,50.8191734969,5.18432066765
3800,Sint-Truiden,Sportpleinstraat,48,50.8370912251,5.2550113519
3800,Sint-Truiden,Lupinestraat,28,50.826370233,5.17462259529
3800,Sint-Truiden,Melveren-Centrum,32,50.8308226878,5.20071147731
3800,Sint-Truiden,Klein-Eikhoutstraat,27,50.8332574435,5.25623572284
3800,Sint-Truiden,Lenaertsstraat,67,50.8064157706,5.22908944431
3800,Sint-Truiden,Driesstraat,18,50.8210208707,5.24401531591
3800,Sint-Truiden,Naamsesteenweg,93,50.8106811491,5.18270557065
3800,Sint-Truiden,Schepen Dejonghstraat,1,50.8139325868,5.18945828432
3800,Sint-Truiden,Driewilgenstraat,109,50.7685545939,5.24425632461
3800,Sint-Truiden,Grevensmolenweg,50,50.8219618169,5.174091408
3800,Sint-Truiden,Meinstraat,2,50.815911374,5.18716354371
3800,Sint-Truiden,Prins Albertlaan,46,50.8176591296,5.1787480971
3800,Sint-Truiden,Zepperenweg,187,50.819892211,5.22205442596
3800,Sint-Truiden,Tril,4,50.783543476,5.26422124023
3800,Sint-Truiden,Aalsterweg,17,50.8091443889,5.19095120748
3800,Sint-Truiden,Metsterenweg,120,50.8429246182,5.17855066048
3800,Sint-Truiden,Tiensesteenweg,124,50.8146879745,5.17084797899
3800,Sint-Truiden,Mentemansstraat,9,50.784366084,5.21022736058
3800,Sint-Truiden,Rodulfusstraat,5,50.8153172256,5.19404095274
3800,Sint-Truiden,Luikerstraat,7,50.8150651795,5.18691239236
3800,Sint-Truiden,Tiensevest,15,50.8140899075,5.18254195801
3800,Sint-Truiden,Frederic de Renesselaan,2,50.826211668,5.20972325373
3800,Sint-Truiden,Breendonkstraat,50,50.817402981,5.18333912214
3800,Sint-Truiden,Bemmelken,11,50.7729288746,5.25066711016
3800,Sint-Truiden,Tramstraat,52,50.8100994673,5.16831694714
3800,Sint-Truiden,Hasseltsesteenweg,143,50.8342178307,5.20986060514
3800,Sint-Truiden,Schepenbank,24,50.7689870185,5.26654735664
3800,Sint-Truiden,Overbroekstraat,35,50.7574686248,5.26298281722
3800,Sint-Truiden,Meigaar,17,50.8243498657,5.199397385
3800,Sint-Truiden,Rummenweg,81,50.8269207618,5.18141828752
3800,Sint-Truiden,Eynestraat,88,50.8306043837,5.25768948125
3800,Sint-Truiden,Plantenstraat,4,50.819796695,5.18116423969
3800,Sint-Truiden,Meigaar,3,50.8238933958,5.19996073982
3800,Sint-Truiden,Melveren-Centrum,148,50.8353539238,5.1922313409
3800,Sint-Truiden,Hogeweg,34,50.8108789608,5.23216724341
3800,Sint-Truiden,Begaardenbosstraat,57,50.8545262916,5.23984027528
3800,Sint-Truiden,Luikersteenweg,17,50.8120740767,5.1891343752
3800,Sint-Truiden,Halmaalweg,72,50.8116276793,5.16968769016
3800,Sint-Truiden,Kampveld,35,50.8277155354,5.2126486902
3800,Sint-Truiden,Nonnentaplaan,66,50.8306005426,5.18499343521
3800,Sint-Truiden,Frederic de Renesselaan,69,50.8263914765,5.21295932402
3800,Sint-Truiden,Zepperen-Dorp,5,50.8210121261,5.24815909989
3800,Sint-Truiden,Gelinden-Dorp,32,50.7661732076,5.2610609656
3800,Sint-Truiden,Veldstraat,5,50.8117966613,5.23541922472
3800,Sint-Truiden,Luikersteenweg,252,50.8010517469,5.20807415913
3800,Sint-Truiden,Ordingen-Dorp,15,50.8106831023,5.23029461517
3800,Sint-Truiden,Terbiest,137,50.8287025454,5.21327480737
3800,Sint-Truiden,Houtstraat,50,50.8255989923,5.17761944784
3800,Sint-Truiden,Kazernestraat,4,50.8161083883,5.18164640842
3800,Sint-Truiden,Kortenbosstraat,187,50.8490577113,5.23209898696
3800,Sint-Truiden,Kerkom-Dorp,105,50.7730176822,5.18333655712
3800,Sint-Truiden,Hasseltsesteenweg,416,50.8546884971,5.23414529499
3800,Sint-Truiden,Schoolstraat,42,50.8338092723,5.20505776423
3800,Sint-Truiden,Montenakenweg,67,50.8084574306,5.17604522667
3800,Sint-Truiden,Rochendaal,24,50.7978209935,5.17416757542
3800,Sint-Truiden,Luikersteenweg,3,50.8125677236,5.18883946958
3800,Sint-Truiden,Smisstraat,26,50.7826744392,5.21442343953
3800,Sint-Truiden,Slachthuisstraat,10,50.8192836483,5.19156613646
3800,Sint-Truiden,Schepen Dejonghstraat,15,50.8143855813,5.18998670015
3800,Sint-Truiden,Bautershoven,21,50.817711718,5.2176527898
3800,Sint-Truiden,Guvelingen,31,50.8295558303,5.18449918488
3800,Sint-Truiden,Dekkenstraat,97,50.8381605746,5.26035966608
3800,Sint-Truiden,Naamsesteenweg,75,50.8112310658,5.1829915048
3800,Sint-Truiden,Sint-Martenplein,8,50.8160077928,5.1829269602
3800,Sint-Truiden,Molenstraat,39,50.8161339188,5.17700995579
3800,Sint-Truiden,Stippelstraat,18,50.8413596021,5.25797479344
3800,Sint-Truiden,Hasseltsesteenweg,333,50.8501084254,5.22914752746
3800,Sint-Truiden,Stationsstraat,4,50.8158957367,5.17931698624
3800,Sint-Truiden,Naamsesteenweg,190,50.8067214317,5.18165859311
3800,Sint-Truiden,Tiensesteenweg,295,50.8133248796,5.15305307192
3800,Sint-Truiden,Oude Borgwormseweg,4,50.7897180958,5.20830700862
3800,Sint-Truiden,Kleistraat,5,50.8126351398,5.16778879925
3800,Sint-Truiden,Rozenstraat,3,50.8191277921,5.18538355504
3800,Sint-Truiden,Akkerhof,32,50.7630879493,5.25981571542
3800,Sint-Truiden,Gazometerstraat,46,50.8153466386,5.1760477674
3800,Sint-Truiden,Zoutstraat,45,50.8168546974,5.18371036821
3800,Sint-Truiden,Tongersesteenweg,105,50.811184091,5.19788454127
3800,Sint-Truiden,Luikersteenweg,116,50.807442059,5.19701604323
3800,Sint-Truiden,Kwadensteenweg,10,50.809594108,5.18921652236
3800,Sint-Truiden,Keelstraat,5,50.842250102,5.22594229637
3800,Sint-Truiden,Schepen Dejonghstraat,33,50.8152968743,5.19020995015
3800,Sint-Truiden,Driesstraat,4,50.8214812287,5.24600206988
3800,Sint-Truiden,Beekstraat,7,50.8153361516,5.18425606448
3800,Sint-Truiden,Diestersteenweg,16,50.8197057672,5.18265865039
3800,Sint-Truiden,Gippershovenstraat,83,50.838151174,5.27983588707
3800,Sint-Truiden,Fabiolalaan,10,50.8257467982,5.20281924763
3800,Sint-Truiden,Leemstraat,14,50.8120556006,5.16639644452
3800,Sint-Truiden,Rummenweg,45,50.8247719312,5.18232712483
3800,Sint-Truiden,Bautershoven,92,50.8193460659,5.22620149398
3800,Sint-Truiden,Spiegelstraat,21,50.8120285541,5.18591194371
3800,Sint-Truiden,Zepperenweg,88,50.8187527441,5.20281858768
3800,Sint-Truiden,Terwouwenstraat,119,50.8340697194,5.2710753903
3800,Sint-Truiden,Overbroekstraat,23B,50.757651177,5.26172923705
3800,Sint-Truiden,Rummenweg,10,50.8223152081,5.18202883608
3800,Sint-Truiden,Naamsesteenweg,101,50.810524213,5.18253286555
3800,Sint-Truiden,Zerkingen,22,50.8098890853,5.17915905914
3800,Sint-Truiden,Schurhoven,26,50.8191888874,5.19257706957
3800,Sint-Truiden,Stapelstraat,28,50.8150175014,5.18334474769
3800,Sint-Truiden,Grote Markt,57,50.8160443991,5.1860606696
3800,Sint-Truiden,Egovenstraat,4,50.7518511106,5.25572940858
3800,Sint-Truiden,Melveren-Centrum,131,50.8392968226,5.1912933991
3800,Sint-Truiden,Prins Albertlaan,26,50.8181544501,5.18036326124
3800,Sint-Truiden,Tumulusstraat,26,50.7809505391,5.21693527797
3800,Sint-Truiden,Tiensevest,33,50.8147228008,5.18153403625
3800,Sint-Truiden,Capucienessenstraat,31,50.8131368796,5.18836580285
3800,Sint-Truiden,Brukskensweg,37,50.8077488304,5.19326746633
3800,Sint-Truiden,Zoutstraat,10,50.8160360952,5.1850600641
3800,Sint-Truiden,Bevingen-Centrum,87,50.7963380504,5.17779395285
3800,Sint-Truiden,Stationsstraat,18,50.8164670386,5.1777598635
3800,Sint-Truiden,Luikerstraat,52,50.8142153115,5.18860058709
3800,Sint-Truiden,Naamsevest,68,50.812485197,5.18550766722
3800,Sint-Truiden,Sleeweg,1,50.7845633418,5.25911854147
3800,Sint-Truiden,Witte-Brugstraat,38,50.8077120515,5.18905796279
3800,Sint-Truiden,Daalstraat,15,50.7872113451,5.26193864013
3800,Sint-Truiden,Ridderstraat,11,50.815583476,5.18806746444
3800,Sint-Truiden,Sint-Trudostraat,11A,50.8188054566,5.18690910434
3800,Sint-Truiden,Kasteelzicht,35,50.7735395798,5.18413460726
3800,Sint-Truiden,Oude Borgwormseweg,18,50.7866821333,5.20754951832
3800,Sint-Truiden,Tongersesteenweg,158,50.8112938586,5.20477564139
3800,Sint-Truiden,Bevingen-Centrum,14,50.7982818349,5.17564183153
3800,Sint-Truiden,Kwadensteenweg,45,50.8088105391,5.18576916493
3800,Sint-Truiden,Diestersteenweg,34,50.8200943316,5.18295447437
3800,Sint-Truiden,Borloweg,33,50.7739676887,5.18655701052
3800,Sint-Truiden,Luciëndal,21,50.8247962339,5.18467502123
3800,Sint-Truiden,Begaardenbosstraat,22,50.8534109956,5.24101045426
3800,Sint-Truiden,Grevensmolenweg,39,50.8223863658,5.17460891625
3800,Sint-Truiden,Hyacintstraat,40,50.8238675356,5.17934364915
3800,Sint-Truiden,Kommanderijstraat,51,50.8270568888,5.21323898408
3800,Sint-Truiden,Kortenbosstraat,88,50.8428498557,5.22383515902
3800,Sint-Truiden,Drie-Gezustersstraat,40,50.8201000143,5.24590064259
3800,Sint-Truiden,Schurhoven,79,50.8201461452,5.19425121517
3800,Sint-Truiden,Brandhoutstraat,60,50.8069387525,5.2161177389
3800,Sint-Truiden,Maasrode,21,50.8005755578,5.14827454498
3800,Sint-Truiden,Montenakenweg,85,50.8080496506,5.17583476005
3800,Sint-Truiden,Terwouwenstraat,51,50.8303305456,5.26451073478
3800,Sint-Truiden,Naamsesteenweg,379,50.7912164208,5.17585631313
3800,Sint-Truiden,Begoniastraat,15,50.8295536551,5.17763089283
3800,Sint-Truiden,Trudobron,34,50.8085913977,5.17960789192
3800,Sint-Truiden,Nieuwdekkenstraat,19,50.8364937609,5.25618413288
3800,Sint-Truiden,Maasrode,56,50.8022726725,5.14650991231
3800,Sint-Truiden,Gorsemweg,117,50.824424973,5.17580830872
3800,Sint-Truiden,Begijnhof,8,50.8208181855,5.19316240001
3800,Sint-Truiden,Nieuwdekkenstraat,5,50.8367014652,5.25763873967
3800,Sint-Truiden,Vlierboomstraat,14,50.8109550115,5.1965264031
3800,Sint-Truiden,Dreef,17,50.8100467799,5.23879294722
3800,Sint-Truiden,Luikerstraat,70,50.8136501127,5.18886857266
3800,Sint-Truiden,Hameistraat,16,50.8020598361,5.22841544623
3800,Sint-Truiden,Kortenbosstraat,35,50.8399497135,5.21930481332
3800,Sint-Truiden,Naamsesteenweg,57,50.8115621926,5.18337638671
3800,Sint-Truiden,Begoniastraat,1,50.8289849219,5.17807632972
3800,Sint-Truiden,Schurhoven,97,50.8205498823,5.19464788644
3800,Sint-Truiden,Naamsesteenweg,172,50.807737258,5.18184854986
3800,Sint-Truiden,Hasseltsesteenweg,315,50.8485756224,5.22752824197
3800,Sint-Truiden,Melveren-Centrum,49,50.8337289533,5.19961758505
3800,Sint-Truiden,Zoutstraat,63,50.8171780878,5.182531714
3800,Sint-Truiden,Dellingweidestraat,14,50.8067091797,5.18835474973
3800,Sint-Truiden,Tongersesteenweg,123,50.8109122074,5.20038488752
3800,Sint-Truiden,Luikersteenweg,134,50.8064012745,5.19881760714
3800,Sint-Truiden,Rummenweg,63,50.8260177774,5.1822886559
3800,Sint-Truiden,Dekkenstraat,79,50.8370956169,5.26027443022
3800,Sint-Truiden,Parkstraat,12,50.8204090047,5.18720795241
3800,Sint-Truiden,Hoekstraat,11,50.7718315654,5.18247613683
3800,Sint-Truiden,Houtstraat,39,50.8247062928,5.17773409362
3800,Sint-Truiden,Dreef,3,50.8094493278,5.24005734433
3800,Sint-Truiden,Tereykenstraat,99,50.8289736051,5.28515965795
3800,Sint-Truiden,Zepperenweg,35,50.8175913619,5.19985183334
3800,Sint-Truiden,Tiensesteenweg,106,50.8148765452,5.17397170145
3800,Sint-Truiden,Borgwormsesteenweg,112,50.77672077,5.20564047189
3800,Sint-Truiden,Borloweg,15,50.7753778526,5.18633169877
3800,Sint-Truiden,Hasseltsesteenweg,97,50.829852557,5.20432484885
3800,Sint-Truiden,Bevingen-Centrum,32,50.7969302528,5.17637200961
3800,Sint-Truiden,Terbiest,119,50.8282190981,5.21133393941
3800,Sint-Truiden,Kelsbeek,65,50.8552042017,5.18488878325
3800,Sint-Truiden,Oude Borgwormseweg,36,50.7841895478,5.20775621532
3800,Sint-Truiden,Tongersesteenweg,176,50.8109977807,5.20742011527
3800,Sint-Truiden,Naamsevest,86,50.8128020481,5.18468972983
3800,Sint-Truiden,Gasthuisstraat,4,50.8190606567,5.18476149502
3800,Sint-Truiden,Halmaalweg,90,50.8113002389,5.16866486695
3800,Sint-Truiden,Hamelstraat,44,50.8169159088,5.18958162171
3800,Sint-Truiden,Stationsstraat,36,50.8170714229,5.17691666488
3800,Sint-Truiden,Nerumstraat,7,50.7864184544,5.21081633262
3800,Sint-Truiden,Zavelkuil,5,50.8437401619,5.22009208098
3800,Sint-Truiden,Akkerhof,14,50.7642245409,5.25964643743
3800,Sint-Truiden,Leopold II straat,20,50.8188020346,5.1807096546
3800,Sint-Truiden,Luikersteenweg,234,50.8019116606,5.20696975297
3800,Sint-Truiden,Kwadensteenweg,25,50.8097966955,5.18829947219
3800,Sint-Truiden,Festraetsstraat,47,50.8097604497,5.19378064015
3800,Sint-Truiden,Luikerstraat,60,50.8138345734,5.18899936197
3800,Sint-Truiden,Beemdenstraat,9,50.7595672466,5.26244184248
3800,Sint-Truiden,Tiensesteenweg,167,50.8147793127,5.16823209547
3800,Sint-Truiden,Zonnebloemlaan,12,50.8275049506,5.17467654962
3800,Sint-Truiden,Ziekerenweg,5,50.8146385999,5.17944075773
3800,Sint-Truiden,Hofstraat,44,50.7693981655,5.24670238783
3800,Sint-Truiden,Terbiest,145,50.8289272741,5.2141880292
3800,Sint-Truiden,Houtmarkt,24,50.8171808375,5.19013445848
3800,Sint-Truiden,Krokusstraat,30,50.8250216492,5.180620831
3800,Sint-Truiden,Grote Markt,20,50.8144756526,5.18512817957
3800,Sint-Truiden,Rijschoolstraat,62,50.8169976766,5.18081925767
3800,Sint-Truiden,Nonnentap,19,50.829555214,5.18405827703
3800,Sint-Truiden,Romeinseweg-Brustem,5,50.7915549276,5.22216202407
3800,Sint-Truiden,Kloostermolenlaan,3,50.8140138355,5.23464018386
3800,Sint-Truiden,Borgwormsesteenweg,104,50.7772133354,5.20544080012
3800,Sint-Truiden,Naamsevest,31,50.8125863694,5.18785813745
3800,Sint-Truiden,Tiensesteenweg,63,50.8153201169,5.1775461339
3800,Sint-Truiden,Ordingen-Dorp,1,50.810360145,5.22796164743
3800,Sint-Truiden,Lepelstraat,27,50.8110633945,5.18534177602
3800,Sint-Truiden,Kortenbosstraat,149A,50.8454969848,5.22987671043
3800,Sint-Truiden,Terbiest,41,50.824067096,5.20240053427
3800,Sint-Truiden,Perestraat,11,50.8103216758,5.17134316459
3800,Sint-Truiden,Belingstraat,1,50.7948322577,5.21723603909
3800,Sint-Truiden,Nerumstraat,32,50.7845348814,5.21064533121
3800,Sint-Truiden,Middenlaan,46,50.824780503,5.17262271104
3800,Sint-Truiden,Sint-Gangulfusplein,15,50.8187628583,5.18383854316
3800,Sint-Truiden,Augustijnenstraat,12A,50.8229623248,5.17461425187
3800,Sint-Truiden,Tichelrijstraat,41,50.8163673754,5.19291602029
3800,Sint-Truiden,Nonnentaplaan,11,50.8294600235,5.18206464321
3800,Sint-Truiden,Akkerhof,49,50.7617845765,5.25880546376
3800,Sint-Truiden,Hasseltsesteenweg,271,50.8444275528,5.22240189075
3800,Sint-Truiden,Anemoonstraat,5,50.8240942251,5.18023237353
3800,Sint-Truiden,Schurhoven,9,50.8182794634,5.19205037088
3800,Sint-Truiden,Luciëndal,48,50.8275506371,5.18277353389
3800,Sint-Truiden,Zepperenweg,280,50.8218499305,5.22833408634
3800,Sint-Truiden,Prins Albertlaan,9,50.818782133,5.18132367188
3800,Sint-Truiden,Luikersteenweg,339,50.7924078209,5.22146036545
3800,Sint-Truiden,Aalsterweg,53,50.8063311447,5.19056049623
3800,Sint-Truiden,Daliastraat,13,50.8291913737,5.17676842003
3800,Sint-Truiden,Startelstraat,27,50.844400295,5.25978047685
3800,Sint-Truiden,Borgwormsesteenweg,84,50.7792237915,5.20607381942
3800,Sint-Truiden,Ziekerenweg,73,50.8089968926,5.17199834238
3800,Sint-Truiden,Hasseltsesteenweg,396,50.8531644941,5.23204865372
3800,Sint-Truiden,Geelstraat,39,50.8064059092,5.22068833754
3800,Sint-Truiden,Luikersteenweg,53,50.8107491848,5.190520963
3800,Sint-Truiden,Tiensesteenweg,45,50.8152166519,5.1786891151
3800,Sint-Truiden,Slagmolenstraat,81,50.810743457,5.18379028924
3800,Sint-Truiden,Zonnebloemlaan,30,50.8278746245,5.17573399238
3800,Sint-Truiden,Hasseltsesteenweg,135,50.8339721655,5.20900385497
3800,Sint-Truiden,Melveren-Centrum,87,50.8351894588,5.19792106615
3800,Sint-Truiden,Gelinden-Dorp,85,50.7619929425,5.25969518915
3800,Sint-Truiden,Sint-Kristinastraat,7,50.8012048882,5.22336571567
3800,Sint-Truiden,Relindisstraat,8,50.811275459,5.23478058948
3800,Sint-Truiden,Erberstraat,5,50.7804904425,5.21331483695
3800,Sint-Truiden,Zoutstraat,65A,50.8173317037,5.18262590801
3800,Sint-Truiden,Koekestraat,51,50.8101307151,5.18659720496
3800,Sint-Truiden,Kersenstraat,19,50.8094171997,5.17160241798
3800,Sint-Truiden,Naamsesteenweg,430,50.7768622469,5.16915284748
3800,Sint-Truiden,Hamelstraat,26,50.8165439616,5.18922602447
3800,Sint-Truiden,Naamsesteenweg,264,50.7996650485,5.17971566974
3800,Sint-Truiden,d'Oyestraat,37,50.8258140406,5.24970527293
3800,Sint-Truiden,Berghofstraat,7,50.7961818394,5.21685569437
3800,Sint-Truiden,Bergstraat,14,50.783736113,5.2665127892
3800,Sint-Truiden,Vliegveldlaan,50,50.8020027209,5.21356240239
3800,Sint-Truiden,Middenlaan,82,50.8258113975,5.17175763173
3800,Sint-Truiden,Rijschoolstraat,80,50.8163904414,5.18051415935
3800,Sint-Truiden,Sint-Trudostraat,40,50.8192909989,5.18584237749
3800,Sint-Truiden,Beemdenstraat,11,50.7594808542,5.26274707031
3800,Sint-Truiden,Peetersstraat,4,50.7833273431,5.2100534925
3800,Sint-Truiden,Luikersteenweg,370,50.7923663995,5.22308451954
3800,Sint-Truiden,Krokusstraat,12,50.8242974129,5.18063287243
3800,Sint-Truiden,Hasseltsesteenweg,9,50.8233872743,5.19810596359
3800,Sint-Truiden,Adelardusstraat,5,50.8187679732,5.18414985714
3800,Sint-Truiden,Luikersteenweg,382A,50.7911063705,5.22504703441
3800,Sint-Truiden,Pruimenstraat,11,50.8113202803,5.17187032849
3800,Sint-Truiden,Smisstraat,9,50.7820117833,5.2152792445
3800,Sint-Truiden,Ridderordelaan,10,50.8140474819,5.22805871158
3800,Sint-Truiden,Jodenstraat,44,50.8152690354,5.19252198304
3800,Sint-Truiden,Kapelhof,3,50.8003010072,5.22088740008
3800,Sint-Truiden,Horionlaan,6,50.8156222164,5.23358931868
3800,Sint-Truiden,Tramstraat,32,50.8122656695,5.17006125252
3800,Sint-Truiden,Capucienessenstraat,13,50.8129106589,5.18761177458
3800,Sint-Truiden,Boudewijnlaan,20,50.8258324934,5.20035102535
3800,Sint-Truiden,Kasteelstraat,19,50.8298524425,5.24512565976
3800,Sint-Truiden,Rummenweg,25,50.8235778645,5.18210717839
3800,Sint-Truiden,Halmaal-Dorp,56,50.801474057,5.15212220312
3800,Sint-Truiden,Nieuwpoort,40,50.8185926239,5.19134187151
3800,Sint-Truiden,Kattenstraat,3,50.8128457419,5.19332665354
3800,Sint-Truiden,Tulpstraat,32,50.825785754,5.18003178762
3800,Sint-Truiden,Fresiastraat,4,50.8283686085,5.17369887493
3800,Sint-Truiden,Gelinden-Dorp,67,50.7636557543,5.26159951682
3800,Sint-Truiden,Sportlaan,6,50.8264847051,5.17270850169
3800,Sint-Truiden,Bevingen-Centrum,49,50.7960206553,5.17690207794
3800,Sint-Truiden,Zepperenweg,244,50.8207491035,5.2218762582
3800,Sint-Truiden,Kleine d'Oyestraat,21,50.8245525348,5.2527125357
3800,Sint-Truiden,Halmaalweg,171,50.8092876514,5.16234537725
3800,Sint-Truiden,Beekstraat,42,50.8165913393,5.18544492109
3800,Sint-Truiden,Helshovenstraat,30,50.7853745939,5.27322727591
3800,Sint-Truiden,Kleine d'Oyestraat,56,50.8262212271,5.25013276972
3800,Sint-Truiden,Kortenbosstraat,197,50.849928098,5.2327869911
3800,Sint-Truiden,Kleinveldstraat,52,50.7581800312,5.25986140278
3800,Sint-Truiden,Halmaal-Dorp,6,50.8053059551,5.15561507113
3800,Sint-Truiden,Guvelingen,41,50.8301045601,5.18534154347
3800,Sint-Truiden,Rochendaal,7,50.7980521647,5.17511586374
3800,Sint-Truiden,Terbeek,15,50.8453205304,5.18611614438
3800,Sint-Truiden,Begijnhof,63,50.8208526888,5.19365023065
3800,Sint-Truiden,Luciëndallaan,2,50.8257316576,5.18360273728
3800,Sint-Truiden,Rode-Kruisstraat,14,50.8362395531,5.25289765137
3800,Sint-Truiden,Spoorwegstraat,2,50.8194066647,5.18000269855
3800,Sint-Truiden,Slagmolenstraat,45,50.8114312025,5.18425514528
3800,Sint-Truiden,Erberstraat,73,50.7762564059,5.21095543041
3800,Sint-Truiden,Stapelstraat,102,50.8155778889,5.18060854236
3800,Sint-Truiden,Startelstraat,5,50.8421189397,5.25913133294
3800,Sint-Truiden,Tongersesteenweg,95,50.8111515349,5.19697158283
3800,Sint-Truiden,Kortenbosstraat,244,50.852268624,5.23285462196
3800,Sint-Truiden,Minderbroedersstraat,20,50.8142771765,5.18688916738
3800,Sint-Truiden,Gorsemweg,2,50.8190047206,5.18151911022
3800,Sint-Truiden,Terbiest,4,50.8230731424,5.19850179996
3800,Sint-Truiden,Margrietstraat,2,50.8262129202,5.17592616984
3800,Sint-Truiden,Zepperenweg,197,50.8199696432,5.22300032308
3800,Sint-Truiden,Fabriekstraat,81,50.8200506677,5.17464507456
3800,Sint-Truiden,Zepperenweg,179,50.819845793,5.22140414969
3800,Sint-Truiden,Zepperenweg,126,50.8193939649,5.20891251468
3800,Sint-Truiden,Spaansebrugstraat,41,50.8140349568,5.18105598894
3800,Sint-Truiden,Slachthuisstraat,25,50.8192044478,5.19214136694
3800,Sint-Truiden,Spoorwegstraat,28,50.8186541644,5.17942246564
3800,Sint-Truiden,Tiensesteenweg,204,50.8133494302,5.16272316283
3800,Sint-Truiden,Luciëndallaan,28,50.82686532,5.18226912241
3800,Sint-Truiden,Oude Tongersebaan,31,50.8104321871,5.19928793516
3800,Sint-Truiden,Jodenstraat,62,50.8160057176,5.19325863354
3800,Sint-Truiden,Tichelrijstraat,4,50.8175041871,5.19196895452
3800,Sint-Truiden,Sint-Lutgardisstraat,22,50.825304346,5.17183781898
3800,Sint-Truiden,Helshovenstraat,65,50.7852667092,5.27202839455
3800,Sint-Truiden,Haardstraat,1A,50.8208198915,5.18751116178
3800,Sint-Truiden,Begijnhof,17,50.8213800284,5.1923886851
3800,Sint-Truiden,d'Oyestraat,19,50.8246562203,5.25047827136
3800,Sint-Truiden,Groot-Gelmenlaan,60,50.7787081593,5.25676020644
3800,Sint-Truiden,Grevensmolenweg,131,50.8249379848,5.17096106429
3800,Sint-Truiden,Hasseltsesteenweg,401,50.8552515735,5.23603911617
3800,Sint-Truiden,Begijnhof,45,50.8217150838,5.1950443288
3800,Sint-Truiden,Kortenbosstraat,179,50.8484731833,5.2318414317
3800,Sint-Truiden,Tramstraat,14,50.8128286112,5.17055004433
3800,Sint-Truiden,Helshovenstraat,12,50.7824900234,5.26747727911
3800,Sint-Truiden,Halmaal-Dorp,110,50.7987131951,5.14910643601
3800,Sint-Truiden,Steenovenstraat,52,50.8136808373,5.17031909268
3800,Sint-Truiden,Guvelingen,13,50.8287484929,5.18523848452
3800,Sint-Truiden,Gorsemweg,28,50.8194278374,5.18030748137
3800,Sint-Truiden,Stippelstraat,2,50.8399852891,5.25940510128
3800,Sint-Truiden,Heilig-Hartplein,5,50.8152503363,5.18754837909
3800,Sint-Truiden,Abdijstraat,55,50.8190806742,5.18975666762
3800,Sint-Truiden,Slagmolenstraat,17,50.8123710601,5.18459952123
3800,Sint-Truiden,Schoolstraat,24,50.8334663055,5.20311529233
3800,Sint-Truiden,Tongersesteenweg,7,50.812674245,5.19103324708
3800,Sint-Truiden,Roosbeekstraat,19,50.8299120866,5.26015715192
3800,Sint-Truiden,Lindestraat,13,50.7708533154,5.26397927427
3800,Sint-Truiden,Kortenbosstraat,126,50.84482553,5.22752229839
3800,Sint-Truiden,Luikersteenweg,352,50.7934485029,5.2208469056
3800,Sint-Truiden,Naamsesteenweg,20,50.8123987357,5.1843305366
3800,Sint-Truiden,Waterkuilstraat,21,50.8354910367,5.25576327616
3800,Sint-Truiden,Tulpstraat,14,50.8249761811,5.17902084989
3800,Sint-Truiden,Nonnentap,83,50.8277236873,5.18234785932
3800,Sint-Truiden,Festraetsstraat,35,50.8103528904,5.19383318092
3800,Sint-Truiden,Zepperen-Dorp,40,50.8229028465,5.25224591666
3800,Sint-Truiden,Tiensesteenweg,250,50.8130492093,5.15655339502
3800,Sint-Truiden,Alkerweg,40,50.845674336,5.23623033829
3800,Sint-Truiden,Anemoonstraat,27,50.8248957809,5.18021967415
3800,Sint-Truiden,Tiensesteenweg,185,50.8146822406,5.1678734114
3800,Sint-Truiden,Diesterstraat,61,50.818448646,5.18289616002
3800,Sint-Truiden,Luikersteenweg,500,50.7745771151,5.25296020354
3800,Sint-Truiden,Driewilgenstraat,56,50.770667464,5.25085581019
3800,Sint-Truiden,Terwouwenstraat,104,50.8334307737,5.26948803151
3800,Sint-Truiden,Eikhoutstraat,7,50.8344329257,5.25239204039
3800,Sint-Truiden,Tiensesteenweg,81,50.8152569117,5.17685665607
3800,Sint-Truiden,J. Claesstraat,14,50.8368263524,5.25382499252
3800,Sint-Truiden,Nachtegaal,38,50.849839558,5.24920074467
3800,Sint-Truiden,Gorsemweg,196,50.8244313526,5.17468600033
3800,Sint-Truiden,Sint-Trudostraat,29,50.8195891989,5.18751611714
3800,Sint-Truiden,Luikersteenweg,71,50.809683933,5.19232633971
3800,Sint-Truiden,Gorsemweg,92,50.8210176462,5.17774808354
3800,Sint-Truiden,Borgwormsesteenweg,66,50.7809273103,5.2075735191
3800,Sint-Truiden,Koningin Astridstraat,5,50.8174156115,5.17938123305
3800,Sint-Truiden,Kleindekkenstraat,64,50.8303025745,5.2495975082
3800,Sint-Truiden,Slagmolenstraat,63,50.811081985,5.18395110808
3800,Sint-Truiden,Schoenmakersstraat,20,50.7764051418,5.21492524989
3800,Sint-Truiden,Kruiskapelstraat,19,50.8109955508,5.24087920082
3800,Sint-Truiden,Nonnentap,37,50.8297233607,5.18269633952
3800,Sint-Truiden,Tramstraat,60,50.8094517155,5.16795021233
3800,Sint-Truiden,Gelinden-Dorp,49,50.7652589079,5.26048070553
3800,Sint-Truiden,Kortenbosstraat,108,50.8433881252,5.22593494964
3800,Sint-Truiden,Remaclusstraat,26,50.8329190458,5.2535624355
3800,Sint-Truiden,Zepperenweg,234,50.8205245807,5.22122713912
3800,Sint-Truiden,Vrijheersstraat,58,50.7661048329,5.24991829111
3800,Sint-Truiden,Eynestraat,53,50.8266145867,5.26013121928
3800,Sint-Truiden,Groot-Gelmenlaan,32,50.7770397451,5.25505143686
3800,Sint-Truiden,Tongersesteenweg,223,50.8096227211,5.22599333702
3800,Sint-Truiden,Luciëndallaan,56,50.8287620797,5.18021717814
3800,Sint-Truiden,Herderstraat,9,50.80248924,5.22107063468
3800,Sint-Truiden,Basiliekstraat,57,50.8651138486,5.23625041896
3800,Sint-Truiden,Luciëndal,36,50.8264865123,5.185738554
3800,Sint-Truiden,Brustem-Dorp,116,50.8011590062,5.22126158673
3800,Sint-Truiden,Nonnentap,65,50.8284987451,5.18156779706
3800,Sint-Truiden,Spiegelstraat,36,50.8113507278,5.18625532322
3800,Sint-Truiden,Lepelstraat,5,50.8115054702,5.18406019212
3800,Sint-Truiden,Diestersteenweg,54,50.8206169138,5.1829951775
3800,Sint-Truiden,Parkstraat,27,50.820928724,5.18563696252
3800,Sint-Truiden,Vliegveldlaan,39,50.8020306792,5.21259025967
3800,Sint-Truiden,Gorsemweg,56,50.8198132406,5.17846363382
3800,Sint-Truiden,Mettekovenstraat,4,50.7842345019,5.27192716893
3800,Sint-Truiden,Kerkom-Dorp,67,50.7735010363,5.17825342711
3800,Sint-Truiden,Duifhuisstraat,16,50.8253590348,5.20765585451
3800,Sint-Truiden,Jodenstraat,9,50.813183406,5.19120548278
3800,Sint-Truiden,Metsterenweg,127,50.8411055747,5.17722212626
3800,Sint-Truiden,Middenlaan,11,50.8238032127,5.1745164043
3800,Sint-Truiden,Populierenstraat,26,50.765138321,5.25602666491
3800,Sint-Truiden,Gippershovenstraat,5,50.8348917381,5.27229450014
3800,Sint-Truiden,Begaardenbosstraat,50,50.8540100105,5.23890554665
3800,Sint-Truiden,Naamsesteenweg,86A,50.8106414179,5.18320902862
3800,Sint-Truiden,Boomgaardenstraat,33,50.8193175202,5.17688958282
3800,Sint-Truiden,Dekkenstraat,44,50.8342049247,5.2572787554
3800,Sint-Truiden,Terwouwenstraat,122,50.834211431,5.27021950089
3800,Sint-Truiden,Gorsemweg,143,50.8255623215,5.17468382419
3800,Sint-Truiden,Tichelrijstraat,13,50.817196107,5.19167306213
3800,Sint-Truiden,Trudobron,54,50.8078456594,5.17879054252
3800,Sint-Truiden,Lindestraat,4,50.7689268854,5.26380014069
3800,Sint-Truiden,Borgwormsesteenweg,31,50.7839745705,5.20932508874
3800,Sint-Truiden,Spaansebrugstraat,4,50.8129397092,5.18400248558
3800,Sint-Truiden,Kwadensteenweg,78,50.8085014704,5.18200961501
3800,Sint-Truiden,Zerkingen,50,50.8085174378,5.17855154762
3800,Sint-Truiden,Lepelstraat,7A,50.811373328,5.18449720777
3800,Sint-Truiden,Nieuwdekkenstraat,20,50.8359752936,5.25575722825
3800,Sint-Truiden,Hasseltsesteenweg,188,50.8336112862,5.20740017609
3800,Sint-Truiden,Leopold II straat,73,50.8155547934,5.17854281731
3800,Sint-Truiden,Houtstraat,57,50.8255170151,5.17808614759
3800,Sint-Truiden,Abtenstraat,5,50.8156597451,5.19222826928
3800,Sint-Truiden,Luikersteenweg,410,50.7887841505,5.22887765001
3800,Sint-Truiden,Luikerstraat,14,50.8149990396,5.18762871916
3800,Sint-Truiden,René Lambrechtsstraat,29,50.8227747358,5.17624081121
3800,Sint-Truiden,Rijschoolstraat,16,50.8182195756,5.18161523241
3800,Sint-Truiden,Festraetsstraat,17,50.8112202445,5.19481726557
3800,Sint-Truiden,Kortenbosstraat,53,50.8406926305,5.22071908463
3800,Sint-Truiden,Okeleistraat,26,50.8071299296,5.19178784139
3800,Sint-Truiden,Tongersesteenweg,42,50.8130055618,5.19244882357
3800,Sint-Truiden,Stationsstraat,21,50.8162795947,5.17929394747
3800,Sint-Truiden,Luikersteenweg,144,50.8060121061,5.1996011456
3800,Sint-Truiden,Rijschoolstraat,34,50.8178939454,5.18130547652
3800,Sint-Truiden,Bornedries,41,50.8451834875,5.19980956225
3800,Sint-Truiden,Begijnhof,35,50.8219834876,5.19468060447
3800,Sint-Truiden,Maasrode,18,50.7992608304,5.14697928618
3800,Sint-Truiden,Luikerstraat,32,50.8146707044,5.18815783961
3800,Sint-Truiden,Terbiest,13,50.8229973721,5.19985618378
3800,Sint-Truiden,Diestersteenweg,72,50.8207581415,5.18381042087
3800,Sint-Truiden,Hasseltsesteenweg,225,50.840966968,5.21797550782
3800,Sint-Truiden,Kommanderijstraat,33,50.8267438416,5.21143040731
3800,Sint-Truiden,Brustem-Dorp,134,50.8015465499,5.22121555606
3800,Sint-Truiden,Molenstraat,22,50.8155081206,5.17892175797
3800,Sint-Truiden,Halmaalweg,100,50.8111618394,5.16818390205
3800,Sint-Truiden,Zepperenweg,108,50.8193443177,5.20508461743
3800,Sint-Truiden,Gildestraat,8,50.819162383,5.18338579775
3800,Sint-Truiden,Montenakenweg,40,50.8096068868,5.1775856016
3800,Sint-Truiden,Kortenbosstraat,216,50.8502664956,5.23178520328
3800,Sint-Truiden,Rummenweg,78,50.8275951104,5.17967992159
3800,Sint-Truiden,Geelstraat,85,50.8026264375,5.22765091377
3800,Sint-Truiden,Drie-Gezustersstraat,57,50.8206480372,5.24736659202
3800,Sint-Truiden,Zepperen-Dorp,12,50.8221372197,5.24849835908
3800,Sint-Truiden,Luikersteenweg,269,50.7976647906,5.2126615602
3800,Sint-Truiden,Tumulusstraat,44,50.7802996686,5.21933474795
3800,Sint-Truiden,Slagmolenstraat,35,50.8119256088,5.18444322309
3800,Sint-Truiden,Gorsemweg,161,50.8264342184,5.17394635256
3800,Sint-Truiden,Heusdenstraat,7,50.7766328537,5.17970963262
3800,Sint-Truiden,Pioenstraat,9,50.8257267167,5.17632021302
3800,Sint-Truiden,Tereykenstraat,11,50.834107784,5.28367119897
3800,Sint-Truiden,Tichelrijlaan,6,50.8153623123,5.19191412531
3800,Sint-Truiden,Houtstraat,93,50.8264794214,5.17955264946
3800,Sint-Truiden,Grevensmolenweg,57,50.8228852501,5.17362495672
3800,Sint-Truiden,Ziekerenweg,20,50.8140809922,5.17943355197
3800,Sint-Truiden,Groot-Gelmenlaan,151,50.78347119,5.26294014421
3800,Sint-Truiden,Diesterstraat,43,50.8180948391,5.18429811676
3800,Sint-Truiden,Zepperenweg,216,50.8204617239,5.21983245227
3800,Sint-Truiden,Kleindekkenstraat,89,50.8312983932,5.24976807104
3800,Sint-Truiden,Brandhoutstraat,59,50.8071548831,5.21537121444
3800,Sint-Truiden,Naamsesteenweg,372,50.7874187763,5.17561031062
3800,Sint-Truiden,Spiegelstraat,18,50.811754876,5.18628803579
3800,Sint-Truiden,Engelmanshoven-Dorp,14,50.7745311264,5.25521217329
3800,Sint-Truiden,Erberstraat,55,50.7771485497,5.21116211513
3800,Sint-Truiden,Hoekstraat,2,50.7724799766,5.18323324726
3800,Sint-Truiden,Stapelstraat,82,50.8155299264,5.1814963402
3800,Sint-Truiden,Koekestraat,1,50.8119203442,5.1871560598
3800,Sint-Truiden,Luciëndal,18,50.8242725295,5.18404681065
3800,Sint-Truiden,Fresiastraat,13,50.8278953417,5.17331049656
3800,Sint-Truiden,Bermenstraat,48,50.7781112361,5.19903570854
3800,Sint-Truiden,Tiensesteenweg,10,50.8155115204,5.18035224587
3800,Sint-Truiden,Naamsesteenweg,50,50.8116012211,5.18371066053
3800,Sint-Truiden,Melveren-Centrum,52,50.8322623762,5.19965851147
3800,Sint-Truiden,Capucienessenstraat,4,50.8137095398,5.18685048029
3800,Sint-Truiden,Kommanderijstraat,15,50.8264709787,5.20978098082
3800,Sint-Truiden,Brustem-Dorp,27,50.7986288626,5.21818577343
3800,Sint-Truiden,Grevensmolenweg,75,50.8233466362,5.17300779473
3800,Sint-Truiden,Klein-Eikhoutstraat,30,50.8341941065,5.25658306063
3800,Sint-Truiden,Groot-Gelmenlaan,42,50.7774871266,5.25553487849
3800,Sint-Truiden,Halmaalweg,16,50.8137055574,5.17413213901
3800,Sint-Truiden,Helshovenstraat,83,50.7861721136,5.27326374462
3800,Sint-Truiden,Naamsesteenweg,199,50.8074724523,5.1812464981
3800,Sint-Truiden,Naamsesteenweg,246,50.8012938422,5.18020198968
3800,Sint-Truiden,Halmaalweg,69,50.8122448323,5.17055739704
3800,Sint-Truiden,Terwouwenstraat,33,50.8289606933,5.26317129805
3800,Sint-Truiden,Daliastraat,4,50.8285715855,5.17669189785
3800,Sint-Truiden,Kattenstraat,25,50.8147571969,5.19521830205
3800,Sint-Truiden,Grevensmolenweg,22,50.8208464451,5.17630645559
3800,Sint-Truiden,Bevingen-Centrum,60,50.7970993372,5.17693508791
3800,Sint-Truiden,Terwouwenstraat,68,50.8319485838,5.26585257525
3800,Sint-Truiden,Stapelstraat,64,50.8153491345,5.18216968549
3800,Sint-Truiden,Koekestraat,23,50.8111028093,5.18689464478
3800,Sint-Truiden,Schurhoven,117,50.8210079148,5.19569468227
3800,Sint-Truiden,Senselberg,34,50.8442950775,5.22539005046
3800,Sint-Truiden,Schurhoven,62,50.8214905328,5.19543607021
3800,Sint-Truiden,Kazelstraat,10,50.8174471983,5.19278580537
3800,Sint-Truiden,Windmolenstraat,40,50.8055906845,5.21427569208
3800,Sint-Truiden,Hasseltsesteenweg,343,50.8504075605,5.23061106641
3800,Sint-Truiden,Clement Cartuyvelsstraat,10,50.81871632,5.18997240334
3800,Sint-Truiden,Leliestraat,22,50.8296361779,5.17579405806
3800,Sint-Truiden,Tereykenstraat,103B,50.8286302966,5.28474216039
3800,Sint-Truiden,Dekkenstraat,80,50.8368585513,5.25819186037
3800,Sint-Truiden,Kapelstraat,10,50.8010725945,5.1780591438
3800,Sint-Truiden,Ziekerenweg,55,50.8094772359,5.17292812207
3800,Sint-Truiden,Hasseltsesteenweg,117,50.8321455039,5.2075178154
3800,Sint-Truiden,Staaien,16,50.8136619503,5.16866376895
3800,Sint-Truiden,Bloesemlaan,4,50.8233628794,5.18120503144
3800,Sint-Truiden,Bautershoven,102,50.8197294087,5.2270972
3800,Sint-Truiden,Gippershovenstraat,111,50.8362429499,5.28209415078
3800,Sint-Truiden,Terwouwenstraat,86,50.8329629704,5.26749187502
3800,Sint-Truiden,Zerkingen,39,50.8083943851,5.17728649893
3800,Sint-Truiden,Sportpleinstraat,34,50.8370931599,5.25627595498
3800,Sint-Truiden,Terwouwenstraat,15,50.8276930326,5.26136162683
3800,Sint-Truiden,Startelstraat,98,50.8523654118,5.26533037287
3800,Sint-Truiden,Brandhoutstraat,24,50.8045583029,5.21552478043
3800,Sint-Truiden,Lenaertsstraat,29,50.8036487535,5.2245273905
3800,Sint-Truiden,Gasthuisstraat,21,50.818772762,5.18619681812
3800,Sint-Truiden,Hovenierstraat,40,50.8231239092,5.1809865844
3800,Sint-Truiden,Grote Markt,50,50.8158679017,5.18569005628
3800,Sint-Truiden,Boomgaardenstraat,15,50.8198589536,5.17720813901
3800,Sint-Truiden,Sint-Nikolaasstraat,1,50.8253412384,5.17154449766
3800,Sint-Truiden,Stapelstraat,46,50.8151341075,5.18268477445
3800,Sint-Truiden,Zoutstraat,3,50.8159711174,5.18557278861
3800,Sint-Truiden,Heide,128,50.8710348585,5.22666354138
3800,Sint-Truiden,Nerumstraat,14,50.7858593891,5.21003610393
3800,Sint-Truiden,Houtstraat,75,50.8260187956,5.17874316946
3800,Sint-Truiden,Naamsestraat,44,50.8133613967,5.18491158266
3800,Sint-Truiden,Koekestraat,68,50.8094530186,5.18710174957
3800,Sint-Truiden,Begaardenbosstraat,39,50.853740686,5.24019766509
3800,Sint-Truiden,Hasseltsesteenweg,80,50.8287187549,5.19931450416
3800,Sint-Truiden,Halmaalweg,34,50.8126823628,5.17235676122
3800,Sint-Truiden,Driesstraat,21,50.8214072583,5.24288525249
3800,Sint-Truiden,Tomstraat,26,50.8051164468,5.22745635058
3800,Sint-Truiden,Augustijnenstraat,26,50.8224436372,5.17433384753
3800,Sint-Truiden,Kelsbeek,5,50.846181815,5.18358080664
3800,Sint-Truiden,Grevensmolenweg,93,50.8239445373,5.17252764984
3800,Sint-Truiden,Kwadensteenweg,3,50.8106489417,5.19041889192
3800,Sint-Truiden,Diestersteenweg,90,50.8210964481,5.18417081627
3800,Sint-Truiden,Grevensmolenweg,141,50.8250825349,5.17055560704
3800,Sint-Truiden,Dekkenstraat,62,50.8357939926,5.25794725057
3800,Sint-Truiden,Fabiolalaan,3,50.8250825941,5.2025433131
3800,Sint-Truiden,Sportpleinstraat,16,50.8372759132,5.25751160897
3800,Sint-Truiden,Dekkenstraat,9,50.8317749368,5.25833695482
3800,Sint-Truiden,Weertstraat,2,50.8372563345,5.25161104422
3800,Sint-Truiden,Sint-Anneke,1,50.8141081843,5.18119163713
3800,Sint-Truiden,Luikersteenweg,180,50.8047357727,5.20204225782
3800,Sint-Truiden,Houtstraat,22,50.8240233138,5.1769008253
3800,Sint-Truiden,Kerkveldstraat,5,50.8247777354,5.24879703484
3800,Sint-Truiden,Klein-Eikhoutstraat,12,50.8343877571,5.25497980353
3800,Sint-Truiden,Middenlaan,64,50.8254743897,5.17243473403
3800,Sint-Truiden,Stippelstraat,56,50.8445421193,5.2559111926
3800,Sint-Truiden,Gootstraat,11,50.8150720322,5.1817851481
3800,Sint-Truiden,Heide,50,50.8645781801,5.22176279157
3800,Sint-Truiden,Sint-Harlindislaan,1,50.8137879239,5.22693236099
3800,Sint-Truiden,Eglantierplein,18,50.8277921991,5.1776739539
3800,Sint-Truiden,Lupinestraat,11,50.8262157796,5.17540671898
3800,Sint-Truiden,Kortenbosstraat,234,50.8512659922,5.23250839962
3800,Sint-Truiden,Senselberg,16,50.8439272129,5.2237637533
3800,Sint-Truiden,Stapelstraat,11,50.8151495281,5.18368619293
3800,Sint-Truiden,Luikersteenweg,445,50.774731887,5.2518228669
3800,Sint-Truiden,Parkstraat,5,50.8204181469,5.1890494161
3800,Sint-Truiden,Sint-Lutgardisstraat,3,50.8248116232,5.17199163012
3800,Sint-Truiden,Zepperen-Dorp,47,50.8225573742,5.25330319098
3800,Sint-Truiden,Breendonkstraat,22,50.8162443729,5.18242827174
3800,Sint-Truiden,Luikerstraat,77,50.8133907206,5.18874399787
3800,Sint-Truiden,Kleindekkenstraat,11,50.8308949247,5.25662548319
3800,Sint-Truiden,Naamsevest,43,50.8126195883,5.1874531687
3800,Sint-Truiden,Beekstraat,32,50.8163404812,5.18514027967
3800,Sint-Truiden,Clement Cartuyvelsstraat,35,50.8187539686,5.19112827115
3800,Sint-Truiden,Hasseltsesteenweg,480,50.8586979502,5.24248829224
3800,Sint-Truiden,Diesterstraat,33,50.817960627,5.1845289543
3800,Sint-Truiden,Kasteelstraat,12,50.828552522,5.24431218138
3800,Sint-Truiden,Akkerhof,42,50.7619400135,5.25813254955
3800,Sint-Truiden,Krokusstraat,19,50.8245656154,5.18118636917
3800,Sint-Truiden,Gorsemweg,21,50.8196003912,5.18088623081
3800,Sint-Truiden,Berghofstraat,14,50.79677369,5.21703843638
3800,Sint-Truiden,Kelsbeek,73,50.8555437087,5.18559232872
3800,Sint-Truiden,Engelmanshoven-Dorp,60,50.7717689706,5.26443890278
3800,Sint-Truiden,Groot-Gelmenlaan,85,50.7800276201,5.25892009356
3800,Sint-Truiden,Terbiest,58,50.8259513073,5.20463757658
3800,Sint-Truiden,Vliegveldlaan,85,50.8045980764,5.21754339266
3800,Sint-Truiden,Lenaertsstraat,39,50.8044594019,5.22558436331
3800,Sint-Truiden,Gorsemweg,107,50.8239401249,5.17630568868
3800,Sint-Truiden,Tongersesteenweg,286,50.8097517512,5.23236462576
3800,Sint-Truiden,Nieuwenhoven,5,50.8497893032,5.21296281756
3800,Sint-Truiden,Waterkuilstraat,28,50.8348947645,5.25510379344
3800,Sint-Truiden,Gelinden-Dorp,10A,50.7670929975,5.26325235363
3800,Sint-Truiden,Schepen Dejonghstraat,43A,50.8158844852,5.19107877032
3800,Sint-Truiden,Drie-Gezustersstraat,39,50.8194197334,5.2459836005
3800,Sint-Truiden,Relindisstraat,1,50.8118529092,5.23396453209
3800,Sint-Truiden,Terbiest,76,50.8263080675,5.20604289153
3800,Sint-Truiden,Nonnentap,30,50.8300237015,5.18403049296
3800,Sint-Truiden,Kersenstraat,12,50.8099245478,5.17298586248
3800,Sint-Truiden,Terwouwenstraat,43,50.8298142779,5.2640939143
3800,Sint-Truiden,Boudewijnlaan,27,50.8263626075,5.20116577981
3800,Sint-Truiden,Ovelingenstraat,12,50.7632918858,5.2554571591
3800,Sint-Truiden,Naamsesteenweg,318,50.7936860808,5.17782704443
3800,Sint-Truiden,Vissegatstraat,50,50.8195676901,5.19095829846
3800,Sint-Truiden,Eynestraat,65A,50.8277706154,5.25970871491
3800,Sint-Truiden,Drie-Gezustersstraat,3,50.8175103703,5.24373933728
3800,Sint-Truiden,Sint-Apolloniastraat,1,50.8185588675,5.18408463706
3800,Sint-Truiden,Kabei,12,50.8221908693,5.22452399843
3800,Sint-Truiden,Olympialaan,7,50.8120304628,5.18304409119
3800,Sint-Truiden,Brukskensweg,27,50.8080797204,5.19282590524
3800,Sint-Truiden,Stippelstraat,48,50.8436039441,5.25628608735
3800,Sint-Truiden,Metsterenweg,145,50.8437229986,5.17959444122
3800,Sint-Truiden,Vliegveldlaan,67,50.8036730918,5.21538058305
3800,Sint-Truiden,Stapelstraat,36,50.8150984126,5.18304743689
3800,Sint-Truiden,Ordingen-Dorp,94,50.8155666581,5.2390258258
3800,Sint-Truiden,Bornedries,4,50.8456992775,5.20499910633
3800,Sint-Truiden,Kleinveldstraat,24,50.7596454368,5.2605016157
3800,Sint-Truiden,Kleine d'Oyestraat,28,50.8247920024,5.25152462547
3800,Sint-Truiden,Grote Markt,27,50.8146489367,5.18460585655
3800,Sint-Truiden,Hasseltsesteenweg,462,50.8580991097,5.24088405583
3800,Sint-Truiden,Terwouwenstraat,61,50.8308860591,5.26521478009
3800,Sint-Truiden,Festraetsstraat,45,50.809962977,5.19375808697
3800,Sint-Truiden,Vrijheersstraat,13,50.768507304,5.24697922249
3800,Sint-Truiden,Poelstraat,16,50.8205342244,5.19479024401
3800,Sint-Truiden,Tiensesteenweg,160,50.8142524688,5.16798530303
3800,Sint-Truiden,Naamsesteenweg,146,50.809224231,5.18230107328
3800,Sint-Truiden,Brustem-Dorp,55,50.8006900396,5.21746815636
3800,Sint-Truiden,Leopold II straat,27,50.8184737213,5.17989150952
3800,Sint-Truiden,Hasseltsesteenweg,2,50.823056855,5.19701790953
3800,Sint-Truiden,Zepperenweg,144,50.8196787298,5.21233279015
3800,Sint-Truiden,Koningin Astridstraat,20,50.8172488718,5.17790842328
3800,Sint-Truiden,Luikersteenweg,108,50.8079905657,5.19623810251
3800,Sint-Truiden,Naamsevest,38,50.8122607222,5.18684569586
3800,Sint-Truiden,Spaansebrugstraat,102,50.8140548904,5.17969760945
3800,Sint-Truiden,Driewilgenstraat,38,50.7713221604,5.25188986569
3800,Sint-Truiden,Hovenierstraat,39,50.8216875452,5.18097566622
3800,Sint-Truiden,Groot-Gelmenlaan,49,50.7771447087,5.25662250344
3800,Sint-Truiden,Zonnebloemlaan,5,50.8271999633,5.17491801499
3800,Sint-Truiden,Groot-Gelmenlaan,115,50.782526908,5.26089430874
3800,Sint-Truiden,Luciëndallaan,21,50.8280042612,5.18170147214
3800,Sint-Truiden,Frederic de Renesselaan,26,50.8262491959,5.21186879179
3800,Sint-Truiden,Plantenstraat,28,50.820200642,5.18153695566
3800,Sint-Truiden,Luikersteenweg,571,50.765302989,5.2673149956
3800,Sint-Truiden,Gippershovenstraat,20,50.83657928,5.27265704345
3800,Sint-Truiden,Tichelrijstraat,58,50.8156559747,5.19564663481
3800,Sint-Truiden,Koekestraat,47,50.8102513555,5.18662399326
3800,Sint-Truiden,Terbeek,38,50.8456545421,5.17792536543
3800,Sint-Truiden,Tongersesteenweg,151,50.8104029465,5.20692408663
3800,Sint-Truiden,Kersenstraat,30,50.8093939756,5.1721309837
3800,Sint-Truiden,Heide,146,50.8714941065,5.23052011187
3800,Sint-Truiden,Viaductstraat,22,50.8209549572,5.17927339768
3800,Sint-Truiden,Basiliekstraat,39,50.8631345403,5.23724088995
3800,Sint-Truiden,Sint-Apolloniastraat,15,50.8188962777,5.18462523787
3800,Sint-Truiden,Lepelstraat,20,50.8115127782,5.18503712895
3800,Sint-Truiden,Margrietstraat,21,50.8270641421,5.17578990813
3800,Sint-Truiden,Schurhoven,2,50.8186294997,5.19171065051
3800,Sint-Truiden,Pruimenstraat,4,50.8108242089,5.17045299314
3800,Sint-Truiden,Gorsemweg,125,50.8247704479,5.17531448749
3800,Sint-Truiden,Spaansebrugstraat,94,50.8140103253,5.17991451994
3800,Sint-Truiden,Adelardusstraat,12,50.81903862,5.18427262921
3800,Sint-Truiden,Hasseltsesteenweg,278,50.8430783405,5.21959277016
3800,Sint-Truiden,Dreef,25,50.810639688,5.23792091371
3800,Sint-Truiden,Schepen Dejonghstraat,45,50.815981804,5.19117470091
3800,Sint-Truiden,Guvelingen,94,50.828225934,5.18531073893
3800,Sint-Truiden,Beekstraat,14,50.8155016994,5.18414711373
3800,Sint-Truiden,Gippershovenstraat,55,50.8380546204,5.27673193956
3800,Sint-Truiden,Naamsesteenweg,27,50.8125360352,5.18369494212
3800,Sint-Truiden,Slachthuisstraat,3,50.8189424235,5.19153475875
3800,Sint-Truiden,Perestraat,36,50.8104683392,5.17018314554
3800,Sint-Truiden,Luikersteenweg,435,50.7757043641,5.24964097901
3800,Sint-Truiden,Nachtegaal,104,50.8545660565,5.24112976502
3800,Sint-Truiden,Spoorwegstraat,48,50.818244448,5.17889513431
3800,Sint-Truiden,Krokusstraat,5,50.8238763756,5.18110405372
3800,Sint-Truiden,Tiensevest,45,50.8153405217,5.18124770728
3800,Sint-Truiden,Naamsesteenweg,437,50.7841503077,5.17316766428
3800,Sint-Truiden,Guvelingen,58,50.8275759379,5.18823456546
3800,Sint-Truiden,Luciëndallaan,48,50.8282413698,5.18085333016
3800,Sint-Truiden,Gorsemweg,9,50.8193400876,5.18165646956
3800,Sint-Truiden,Spaansebrugstraat,58,50.8134458069,5.18184996233
3800,Sint-Truiden,Horionlaan,13,50.8153715557,5.23242176705
3800,Sint-Truiden,Nonnentaplaan,36,50.8299372233,5.1823874678
3800,Sint-Truiden,Margrietstraat,9,50.8265884806,5.17620670962
3800,Sint-Truiden,Kerkom-Dorp,42,50.7752757766,5.17498814584
3800,Sint-Truiden,Slagmolenstraat,10,50.8124643818,5.18507621757
3800,Sint-Truiden,Stokstraat,2,50.8340095192,5.23971015708
3800,Sint-Truiden,Haardstraat,31,50.8210954071,5.18670514646
3800,Sint-Truiden,Eikhoutstraat,14,50.8331881582,5.25304564896
3800,Sint-Truiden,Filipslaan,12,50.8261168733,5.20165111999
3800,Sint-Truiden,Gorsemweg,48,50.8198101419,5.17892468051
3800,Sint-Truiden,d'Oyestraat,65,50.8283056085,5.24685213507
3800,Sint-Truiden,Kloostermolenlaan,10,50.8147722743,5.23433273787
3800,Sint-Truiden,Aalsterweg,25,50.8089106744,5.19111341216
3800,Sint-Truiden,Korenbloemstraat,12,50.8269271746,5.17639691275
3800,Sint-Truiden,Spaansebrugstraat,76,50.8139141554,5.18053368517
3800,Sint-Truiden,Ordingen-Dorp,106,50.8159698814,5.24039009694
3800,Sint-Truiden,Binnenhof,6,50.8128037419,5.17147679024
3800,Sint-Truiden,Roosbeekstraat,12,50.8305947309,5.2593628051
3800,Sint-Truiden,Guvelingen,76,50.8277937404,5.18553559164
3800,Sint-Truiden,Luciëndallaan,9,50.8275126441,5.18228969849
3800,Sint-Truiden,Voordstraat,5,50.7799385916,5.21318184459
3800,Sint-Truiden,Spoorwegstraat,9,50.8191115998,5.1791080596
3800,Sint-Truiden,Tereykenstraat,137,50.8262099462,5.28227813021
3800,Sint-Truiden,Grevensmolenweg,40,50.8217086674,5.17463859497
3800,Sint-Truiden,Tiensesteenweg,88,50.8147704447,5.17509774718
3800,Sint-Truiden,Steenovenstraat,59,50.8128845065,5.16937096127
3800,Sint-Truiden,Brandhoutstraat,52,50.8063708086,5.21645766334
3800,Sint-Truiden,Tongersesteenweg,60,50.8125108201,5.19338321336
3800,Sint-Truiden,Kruiskapelstraat,12,50.8104899026,5.24023229016
3800,Sint-Truiden,de Pitteurslaan,5,50.8151249873,5.23344067416
3800,Sint-Truiden,Kortenbosstraat,180,50.8480137802,5.23092655946
3800,Sint-Truiden,Diesterstraat,1,50.817147695,5.18783247934
3800,Sint-Truiden,Lepelstraat,55,50.8106725046,5.18644941428
3800,Sint-Truiden,Herderstraat,34,50.8040278234,5.2217620736
3800,Sint-Truiden,Tongersesteenweg,14,50.8131242622,5.19070453166
3800,Sint-Truiden,Tiensesteenweg,267,50.8138592439,5.15677656255
3800,Sint-Truiden,Bevingen-Centrum,42,50.7960597013,5.17592072883
3800,Sint-Truiden,Erberstraat,20,50.7789252146,5.21355487275
3800,Sint-Truiden,Terbeek,61,50.8457665418,5.18112397645
3800,Sint-Truiden,Nonnentaplaan,4,50.8291242405,5.18019845003
3800,Sint-Truiden,Nachtegaal,84,50.8534905965,5.24365882837
3800,Sint-Truiden,Sint-Trudostraat,22,50.8189176892,5.18633756724
3800,Sint-Truiden,Pruimenstraat,36,50.8118327897,5.17179423174
3800,Sint-Truiden,Aalst-Dorp,31,50.7818199666,5.21045109902
3800,Sint-Truiden,Roosbeekstraat,65,50.8336805963,5.26376555054
3800,Sint-Truiden,Notestraat,11,50.810689958,5.17224082477
3800,Sint-Truiden,Krokusstraat,37,50.8252601224,5.18115735748
3800,Sint-Truiden,Nieuwpoort,22,50.8179316105,5.19118384505
3800,Sint-Truiden,Gazometerstraat,2,50.8167812914,5.17698476011
3800,Sint-Truiden,Engelbamp,50,50.8380865399,5.20118881564
3800,Sint-Truiden,Tiensesteenweg,35,50.8151984718,5.17913382124
3800,Sint-Truiden,Harduemontlaan,6,50.8143320819,5.22972732722
3800,Sint-Truiden,Terbeek,43,50.8457096233,5.18355983482
3800,Sint-Truiden,Engelbamp,118,50.8445601483,5.20526295911
3800,Sint-Truiden,Gelinden-Dorp,60,50.7634434823,5.26321302767
3800,Sint-Truiden,Gelinden-Dorp,24,50.765783706,5.26187904508
3800,Sint-Truiden,Luikersteenweg,553,50.7662965838,5.26540771877
3800,Sint-Truiden,Vissegatstraat,39,50.8194522677,5.19026498777
3800,Sint-Truiden,Tongersesteenweg,32,50.8130218135,5.19159500976
3800,Sint-Truiden,Roosbeekstraat,134,50.8374401515,5.27304544189
3800,Sint-Truiden,Begijnhof,10,50.821005195,5.19291759669
3800,Sint-Truiden,Fabriekstraat,88,50.8215247413,5.17451934549
3800,Sint-Truiden,Perestraat,18,50.8100068627,5.17093340005
3800,Sint-Truiden,Diesterstraat,15,50.8172523414,5.18577315772
3800,Sint-Truiden,Zepperenweg,180,50.8201547838,5.21657473945
3800,Sint-Truiden,Molenstraat,40,50.8155984413,5.17810706067
3800,Sint-Truiden,Roosbeekstraat,30,50.8328460685,5.26185290158
3800,Sint-Truiden,Bevingen-Centrum,103,50.7979862144,5.17723489368
3800,Sint-Truiden,Startelstraat,20,50.844570014,5.25912014371
3800,Sint-Truiden,Meigaar,25,50.824760215,5.19896066307
3800,Sint-Truiden,Broekstraat,14,50.8127180848,5.1835400228
3800,Sint-Truiden,Hofstraat,16,50.7680153724,5.25014460662
3800,Sint-Truiden,René Lambrechtsstraat,22,50.8228673807,5.175412114
3800,Sint-Truiden,Montenakenweg,101,50.8076807135,5.17564950978
3800,Sint-Truiden,Hamelstraat,7,50.815915904,5.18922698045
3800,Sint-Truiden,Stippelstraat,9,50.8405695822,5.259780655
3800,Sint-Truiden,Luikersteenweg,25,50.8117473777,5.18957011303
3800,Sint-Truiden,Hasseltsesteenweg,408,50.8543177955,5.23329795385
3800,Sint-Truiden,Nonnentaplaan,18,50.8294915405,5.18118921597
3800,Sint-Truiden,Perzikstraat,11,50.80977147,5.17074109448
3800,Sint-Truiden,Bentincklaan,18,50.8156371613,5.23454762283
3800,Sint-Truiden,Hasseltsesteenweg,207,50.8399586028,5.21663954097
3800,Sint-Truiden,Sint-Jorisstraat,7,50.8198945005,5.20736217161
3800,Sint-Truiden,Kleindekkenstraat,119,50.8295197032,5.24656820942
3800,Sint-Truiden,Dellingweidestraat,24,50.8060998643,5.18796403099
3800,Sint-Truiden,Lenaertsstraat,57,50.8060970416,5.22764806607
3800,Sint-Truiden,Stapelstraat,4,50.8147107255,5.18421484465
3800,Sint-Truiden,Hasseltsesteenweg,74,50.8281660168,5.20024314039
3800,Sint-Truiden,Dekkenstraat,100,50.8380335305,5.25884789319
3800,Sint-Truiden,Naamsesteenweg,236,50.8019398926,5.18108093983
3800,Sint-Truiden,Witte-Brugstraat,41,50.8071470011,5.18898368752
3800,Sint-Truiden,Houtstraat,40,50.825057762,5.17708936623
3800,Sint-Truiden,Tramstraat,42,50.811310311,5.16934840361
3800,Sint-Truiden,Tiensesteenweg,114,50.8144284986,5.17077231478
3800,Sint-Truiden,Overbroekstraat,25,50.7574515862,5.2621183379
3800,Sint-Truiden,Halmaal-Dorp,31,50.8038844296,5.15297685799
3800,Sint-Truiden,Rummenweg,71,50.8265190615,5.18192672739
3800,Sint-Truiden,Helshovenstraat,5,50.7825526166,5.26657273318
3800,Sint-Truiden,Gildestraat,1,50.8189058836,5.18374920288
3800,Sint-Truiden,Vrijheersstraat,41,50.7671727638,5.24952845338
3800,Sint-Truiden,Smisstraat,34,50.7833413871,5.21434169438
3800,Sint-Truiden,Klaproosstraat,25,50.8281049047,5.17553184251
3800,Sint-Truiden,Tulpstraat,42,50.8261143288,5.17976110423
3800,Sint-Truiden,Gelinden-Dorp,42,50.7649728461,5.26176385668
3800,Sint-Truiden,Houtmarkt,21A,50.8166468608,5.19028293144
3800,Sint-Truiden,Krokusstraat,55,50.8261868078,5.1808612539
3800,Sint-Truiden,Hogeweg,26,50.8111340809,5.23299889723
3800,Sint-Truiden,Kampveld,25,50.8275577881,5.21183308161
3800,Sint-Truiden,Melveren-Centrum,24,50.8303874867,5.20114027657
3800,Sint-Truiden,Schoolstraat,70,50.8348103546,5.20691490257
3800,Sint-Truiden,Schepenbank,14,50.7684679553,5.26502960967
3800,Sint-Truiden,Breendonkstraat,40,50.8170742394,5.18324472881
3800,Sint-Truiden,Lupinestraat,18,50.8259700589,5.17496589579
3800,Sint-Truiden,Koekestraat,8,50.8119398298,5.18766084312
3800,Sint-Truiden,Halmaal-Dorp,13,50.8048128924,5.15456432101
3800,Sint-Truiden,Luikersteenweg,280,50.7988957017,5.21152992103
3800,Sint-Truiden,Eglantierplein,11,50.8269452481,5.17827171108
3800,Sint-Truiden,Tiensesteenweg,132,50.8145581772,5.17058253078
3800,Sint-Truiden,Groenstraat,57,50.8169875471,5.22172510034
3800,Sint-Truiden,Terwouwenstraat,129,50.834532869,5.27189548537
3800,Sint-Truiden,Smisstraat,16,50.7820251313,5.21421635415
3800,Sint-Truiden,Vliegveldlaan,118,50.806182486,5.22314577219
3800,Sint-Truiden,Hasseltsesteenweg,56,50.8271013994,5.1991669669
3800,Sint-Truiden,Kleindekkenstraat,82,50.8294785069,5.24820115718
3800,Sint-Truiden,Rochendaal,14,50.7981052631,5.17432423013
3800,Sint-Truiden,Naamsesteenweg,111,50.8103365484,5.18233167697
3800,Sint-Truiden,Lepelstraat,73,50.8102503189,5.18835363825
3800,Sint-Truiden,Hasseltsesteenweg,171,50.8364001125,5.21197132358
3800,Sint-Truiden,Gippershovenstraat,73,50.8388610261,5.27865772869
3800,Sint-Truiden,Stokstraat,34,50.8373210313,5.23891331336
3800,Sint-Truiden,Naamsesteenweg,85,50.8109860288,5.18296072578
3800,Sint-Truiden,Naamsesteenweg,389,50.7900267018,5.17530260944
3800,Sint-Truiden,Lupinestraat,36,50.826650495,5.17438141803
3800,Sint-Truiden,Leliestraat,40,50.82994092,5.17693163696
3800,Sint-Truiden,Luikersteenweg,262,50.800617898,5.20903661742
3800,Sint-Truiden,Gorsemweg,178,50.8240070286,5.175376892
3800,Sint-Truiden,Pioenstraat,2,50.8259344869,5.17592763208
3800,Sint-Truiden,Parkstraat,20,50.8206876143,5.18652504384
3800,Sint-Truiden,Molenstraat,29,50.8160289625,5.17740663174
3800,Sint-Truiden,Gladioolstraat,19,50.8290131505,5.17580919099
3800,Sint-Truiden,Tomstraat,54,50.8030818464,5.22961421949
3800,Sint-Truiden,Sportpleinstraat,44,50.8370010933,5.2555764125
3800,Sint-Truiden,Stippelstraat,28,50.8422601107,5.25731596717
3800,Sint-Truiden,Nieuwdekkenstraat,27,50.8365574376,5.25532569009
3800,Sint-Truiden,Festraetsstraat,10,50.8113244599,5.19551509389
3800,Sint-Truiden,Borgwormsesteenweg,38,50.7829097468,5.2077367885
3800,Sint-Truiden,Tongersesteenweg,115,50.8109750754,5.19941856374
3800,Sint-Truiden,Gladioolstraat,5,50.8285213713,5.17624276619
3800,Sint-Truiden,Fabriekstraat,17,50.8163417305,5.17207718805
3800,Sint-Truiden,Luikersteenweg,417,50.7769930915,5.24768483032
3800,Sint-Truiden,Luikersteenweg,535,50.7675558049,5.26406538518
3800,Sint-Truiden,Kerkom-Dorp,115,50.7735442482,5.18380008439
3800,Sint-Truiden,Halmaalweg,117,50.8115309728,5.16802600749
3800,Sint-Truiden,Middenlaan,36,50.8243624466,5.17303114249
3800,Sint-Truiden,Terbiest,127,50.8284435294,5.21224060739
3800,Sint-Truiden,Metsterenweg,110,50.8427039233,5.17791145157
3800,Sint-Truiden,Bautershoven,11,50.8184212043,5.21672455196
3800,Sint-Truiden,Begoniastraat,23,50.829850106,5.17740262933
3800,Sint-Truiden,Montenakenweg,57,50.8087260791,5.17651111569
3800,Sint-Truiden,Naamsesteenweg,218,50.8049425832,5.18161506331
3800,Sint-Truiden,Lupinestraat,4,50.8254273838,5.17542767515
3800,Sint-Truiden,Luciëndal,46,50.82733468,5.1824780988
3800,Sint-Truiden,Naamsesteenweg,67,50.8114268762,5.18314587363
3800,Sint-Truiden,Gootstraat,4,50.8152395073,5.18214919833
3800,Sint-Truiden,Geelstraat,50,50.8041749917,5.22303224977
3800,Sint-Truiden,Bevingen-Centrum,24,50.7973087549,5.17547008661
3800,Sint-Truiden,Kazernestraat,28,50.8164193782,5.18068438404
3800,Sint-Truiden,Zepperenweg,25,50.8172662606,5.19834549222
3800,Sint-Truiden,Maasrode,11,50.799891971,5.14800119501
3800,Sint-Truiden,Montenakenweg,75,50.8083220074,5.17589335309
3800,Sint-Truiden,Tongersesteenweg,133,50.8100926221,5.20198412209
3800,Sint-Truiden,Sint-Nikolaasstraat,8,50.8254495779,5.17082147395
3800,Sint-Truiden,Naamsesteenweg,182,50.8070488904,5.18160140218
3800,Sint-Truiden,Kortenbosstraat,78,50.8425610358,5.22270888832
3800,Sint-Truiden,Rusthofplein,11,50.8241860562,5.17271757239
3800,Sint-Truiden,Jan van Xantenlaan,10,50.8081457626,5.18904141098
3800,Sint-Truiden,Nonnentaplaan,76,50.8304855853,5.18608561162
3800,Sint-Truiden,Tichelrijlaan,13,50.8161698235,5.19256374138
3800,Sint-Truiden,Vlierboomstraat,24,50.8106172047,5.19618955897
3800,Sint-Truiden,Oude Borgwormseweg,28,50.7847687751,5.20783334366
3800,Sint-Truiden,Leopold II straat,98,50.8154818685,5.17880494122
3800,Sint-Truiden,Dekkenstraat,34,50.8335787844,5.257180458
3800,Sint-Truiden,Tongersesteenweg,168,50.8110693348,5.20563692248
3800,Sint-Truiden,Grevensmolenweg,113,50.8244525986,5.17172362371
3800,Sint-Truiden,Hasseltsesteenweg,100,50.8289308762,5.20167587821
3800,Sint-Truiden,Drie-Gezustersstraat,50,50.8207985821,5.24698847963
3800,Sint-Truiden,Gelinden-Dorp,95,50.7610889751,5.25855956074
3800,Sint-Truiden,Melveren-Centrum,103,50.8356944946,5.19720068548
3800,Sint-Truiden,Kloostermolenlaan,7A,50.8147331517,5.23370209446
3800,Sint-Truiden,Trudobron,26,50.8089431307,5.17999166498
3800,Sint-Truiden,Borloweg,23,50.7746778497,5.18664379396
3800,Sint-Truiden,Ridderstraat,21,50.8154638421,5.18843646753
3800,Sint-Truiden,Grevensmolenweg,29,50.8217063651,5.17566496624
3800,Sint-Truiden,Hasseltsesteenweg,35A,50.8251406084,5.19847557175
3800,Sint-Truiden,Naamsesteenweg,164,50.80808272,5.18193043424
3800,Sint-Truiden,Hasseltsesteenweg,153,50.8351048274,5.21041951119
3800,Sint-Truiden,Zepperenweg,78,50.818591859,5.20182798695
3800,Sint-Truiden,Leemstraat,24,50.8123429295,5.16581485703
3800,Sint-Truiden,Schurhoven,69,50.8199129954,5.19397562432
3800,Sint-Truiden,Prins Albertlaan,16,50.8183121479,5.18093223009
3800,Sint-Truiden,Luikersteenweg,126,50.8071209415,5.19841119349
3800,Sint-Truiden,Montenakenweg,93,50.8078163347,5.17574661661
3800,Sint-Truiden,Kommanderijstraat,61,50.8272213807,5.21423980484
3800,Sint-Truiden,Keelstraat,27,50.8406016833,5.22622344588
3800,Sint-Truiden,Montenakenweg,22,50.8106754502,5.17826265715
3800,Sint-Truiden,Sint-Anneke,8,50.8143373892,5.18095166597
3800,Sint-Truiden,Grevensmolenweg,148,50.8267353766,5.16783043444
3800,Sint-Truiden,Brustem-Dorp,91,50.8015625003,5.22041983245
3800,Sint-Truiden,Schurhoven,16,50.8189650296,5.19234749515
3800,Sint-Truiden,Bevingen-Centrum,77,50.7965358462,5.17702441357
3800,Sint-Truiden,Stapelstraat,18,50.8148771464,5.18378676411
3800,Sint-Truiden,Luciëndal,11,50.8253948738,5.18454759485
3800,Sint-Truiden,Eynestraat,25,50.8245890751,5.25896312285
3800,Sint-Truiden,Klein-Eikhoutstraat,19,50.8330159431,5.2550988709
3800,Sint-Truiden,Sint-Harlindislaan,8,50.8130899902,5.22862697561
3800,Sint-Truiden,Spiegelstraat,11,50.8122196768,5.18610626106
3800,Sint-Truiden,Burggracht,5,50.8015922029,5.2192278403
3800,Sint-Truiden,Kapelstraat,3,50.8014893696,5.17863236128
3800,Sint-Truiden,Diestersteenweg,26,50.8199407272,5.18279399679
3800,Sint-Truiden,Populierenstraat,7,50.7649579965,5.26030432718
3800,Sint-Truiden,Kelsbeek,55,50.8541787104,5.18386798337
3800,Sint-Truiden,Dekkenstraat,16,50.8320908441,5.25727185231
3800,Sint-Truiden,Clement Cartuyvelsstraat,3,50.8175900303,5.18952442551
3800,Sint-Truiden,Kasteelzicht,25,50.7728889802,5.18397644687
3800,Sint-Truiden,Rummenweg,53,50.8252698995,5.18241679299
3800,Sint-Truiden,Prins Albertlaan,34,50.8177882159,5.17920459036
3800,Sint-Truiden,Luikerstraat,42,50.814369781,5.18836672696
3800,Sint-Truiden,Schurhoven,34,50.8193175199,5.19274551216
3800,Sint-Truiden,Tiensesteenweg,149,50.8150099608,5.17006589608
3800,Sint-Truiden,Dekkenstraat,69,50.8365404577,5.25912967373
3800,Sint-Truiden,Weertstraat,9,50.8375682155,5.25096495245
3800,Sint-Truiden,Stokstraat,100,50.8412409357,5.25244854356
3800,Sint-Truiden,Houtstraat,29,50.8241233089,5.17750931122
3800,Sint-Truiden,Akkerhof,24,50.7620921836,5.25898832596
3800,Sint-Truiden,Tereykenstraat,89,50.8305637395,5.28609762447
3800,Sint-Truiden,Dekkenstraat,2,50.8311356196,5.25765325412
3800,Sint-Truiden,Middenlaan,18,50.8237954379,5.17354204598
3800,Sint-Truiden,Kommanderijstraat,43,50.8268942082,5.21233500791
3800,Sint-Truiden,Schepen Dejonghstraat,23,50.8147245025,5.18985951486
3800,Sint-Truiden,Guvelingenlaan,18,50.829894391,5.18683334664
3800,Sint-Truiden,Groot-Gelmenlaan,133,50.7838018822,5.2614054816
3800,Sint-Truiden,Terbiest,109,50.827961632,5.21023179674
3800,Sint-Truiden,Kwadensteenweg,53,50.8088802919,5.18516494215
3800,Sint-Truiden,Tienweidestraat,8,50.8464131824,5.2565480561
3800,Sint-Truiden,Tiensevest,23,50.814373249,5.18166578033
3800,Sint-Truiden,Middenlaan,4,50.8232064778,5.17402871663
3800,Sint-Truiden,Regielaan,2013,50.8225909311,5.20851436209
3800,Sint-Truiden,Molenstraat,9A,50.815856194,5.17845733093
3800,Sint-Truiden,Kapelstraat,17,50.8012216832,5.18113066661
3800,Sint-Truiden,Okeleistraat,7,50.8074449619,5.19260351262
3800,Sint-Truiden,Melveren-Centrum,59,50.8343429693,5.19907350341
3800,Sint-Truiden,Kogelstraat,15,50.8213684315,5.25245593309
3800,Sint-Truiden,Tumulusstraat,16,50.7810962451,5.21607020251
3800,Sint-Truiden,Nonnentaplaan,58,50.8306241362,5.18431658553
3800,Sint-Truiden,Kazelstraat,17,50.81737492,5.19385797236
3800,Sint-Truiden,Kerkstraat,24,50.7733876402,5.1813700842
3800,Sint-Truiden,Bautershoven,82,50.8186360685,5.22576519853
3800,Sint-Truiden,Lenaertsstraat,22,50.8027372393,5.22429316946
3800,Sint-Truiden,Gippershovenstraat,91,50.8377097482,5.28068032361
3800,Sint-Truiden,Rijschoolstraat,4,50.818473342,5.18170945499
3800,Sint-Truiden,Viaductstraat,19,50.8208063877,5.18116239366
3800,Sint-Truiden,Bornedries,89,50.8445753753,5.19542817242
3800,Sint-Truiden,Helshovenstraat,57,50.7847166507,5.27170611709
3800,Sint-Truiden,Hasseltsesteenweg,87,50.8296027061,5.203469553
3800,Sint-Truiden,Bevingen-Centrum,79,50.7964123684,5.17723889585
3800,Sint-Truiden,Tichelrijstraat,36,50.816857965,5.19384832882
3800,Sint-Truiden,Rusthofplein,13,50.8243516266,5.17277391444
3800,Sint-Truiden,Tongersesteenweg,103,50.811085056,5.1972570387
3800,Sint-Truiden,Frederic de Renesselaan,7,50.8259659368,5.20925158983
3800,Sint-Truiden,Maasrode,13,50.8000913611,5.14813784888
3800,Sint-Truiden,Naamsesteenweg,116,50.8100934556,5.1827196571
3800,Sint-Truiden,Kleine d'Oyestraat,9,50.8240453056,5.25410545436
3800,Sint-Truiden,Begoniastraat,10,50.8291528464,5.17728374126
3800,Sint-Truiden,Belingstraat,17,50.7934678801,5.21694121067
3800,Sint-Truiden,Tichelrijlaan,11,50.8160598016,5.19233120976
3800,Sint-Truiden,Ridders de Menten de Horneplein,7,50.8190079406,5.18165100797
3800,Sint-Truiden,Vliegveldlaan,144,50.8079354403,5.22517013521
3800,Sint-Truiden,Schoolstraat,16,50.8332990665,5.20257556451
3800,Sint-Truiden,Notestraat,2,50.8102838309,5.17205055813
3800,Sint-Truiden,Terbiest,18,50.8234221099,5.19955854219
3800,Sint-Truiden,Luikersteenweg,101,50.8089298036,5.19336593634
3800,Sint-Truiden,Begaardenbosstraat,14,50.8546353887,5.24031766367
3800,Sint-Truiden,Kommanderijstraat,1,50.8262407612,5.20789799167
3800,Sint-Truiden,Melveren-Centrum,133,50.8391511099,5.19070177568
3800,Sint-Truiden,Erberstraat,39,50.777966929,5.21171190676
3800,Sint-Truiden,Groot-Gelmenlaan,26,50.7765527893,5.25452245301
3800,Sint-Truiden,Hyacintstraat,3,50.8220491751,5.17937274389
3800,Sint-Truiden,Steenovenstraat,5,50.8119117332,5.16806128748
3800,Sint-Truiden,Leemstraat,22,50.8122768383,5.16598855409
3800,Sint-Truiden,Begaardenbosstraat,32,50.8531134562,5.24002696086
3800,Sint-Truiden,Tongersesteenweg,346,50.8095540232,5.23951896402
3800,Sint-Truiden,Grevensmolenweg,83,50.8236420909,5.17288411925
3800,Sint-Truiden,Duifhuisstraat,4,50.8259596527,5.20718057571
3800,Sint-Truiden,Luikersteenweg,329,50.7928097118,5.22076526112
3800,Sint-Truiden,Festraetsstraat,23,50.8110871634,5.19470637731
3800,Sint-Truiden,Schurhoven,87,50.8203958573,5.19442179315
3800,Sint-Truiden,Hasseltsesteenweg,281,50.8452485167,5.22311913522
3800,Sint-Truiden,Driewilgenstraat,11,50.7733825839,5.25199433247
