PKANCODE,COMMUNE_NL,STREET_NL,HUISNR,LAT,LON
3910,Neerpelt,Haagdoornstraat,79,51.222425527,5.44499515347
3910,Neerpelt,Hoekstraat,54,51.2282381631,5.42680208437
3910,Neerpelt,Fierkens-Heikant,39,51.2275381422,5.49441376607
3910,Neerpelt,Zonhoekstraat,41,51.2388268494,5.425930942
3910,Neerpelt,Plataanstraat,17,51.2262698589,5.44927466769
3910,Neerpelt,Roosendijk,20,51.2215278844,5.44346089729
3910,Neerpelt,Broesveldstraat,42,51.2320824039,5.42874030909
3910,Neerpelt,Dennenlaan,3,51.2170016085,5.44772773449
3910,Neerpelt,Heikant,54,51.2212785104,5.48986038528
3910,Neerpelt,Spoorwegstraat,17,51.2203327435,5.43947176624
3910,Neerpelt,Volmolenstraat,23,51.2355037464,5.42597680393
3910,Neerpelt,Weidenstraat,22,51.2459868695,5.43397054419
3910,Neerpelt,Koning Albertlaan,18,51.2277670235,5.43169161207
3910,Neerpelt,Achelsendijk,18,51.2456367561,5.44184083759
3910,Neerpelt,Bosbessenlaan,23,51.223730544,5.44590857433
3910,Neerpelt,Hamonterweg,3,51.2357194849,5.44979772868
3910,Neerpelt,Bettebos,56,51.2004122937,5.44670902941
3910,Neerpelt,Plataanstraat,35,51.2270498262,5.44986828805
3910,Neerpelt,Turfheidestraat,55,51.253202646,5.42975614147
3910,Neerpelt,Zonhoekstraat,202,51.2458598977,5.43710339142
3910,Neerpelt,Kaulillerweg,57,51.2191813269,5.48839552422
3910,Neerpelt,Oude Brugstraat,5,51.2282223897,5.4817557509
3910,Neerpelt,Woudweg,29,51.2578746652,5.44908813544
3910,Neerpelt,Molenbroekstraat,40,51.2147150145,5.43953405453
3910,Neerpelt,Kompenstraat,4,51.2240264056,5.48322582247
3910,Neerpelt,Stationsstraat,30,51.2266905911,5.43568770719
3910,Neerpelt,Voort,13,51.2237921853,5.48811908256
3910,Neerpelt,Elzenstraat,18,51.2300988771,5.45107013987
3910,Neerpelt,Peerderbaan,123,51.216682539,5.47633096054
3910,Neerpelt,Schoolstraat,2,51.2259816476,5.48354446251
3910,Neerpelt,Grote Heide,48,51.2499739007,5.44023282794
3910,Neerpelt,Molenstraat,35,51.2289836279,5.44429993524
3910,Neerpelt,Vlasrootweg,15,51.254681614,5.4359317428
3910,Neerpelt,Ankerweg,8,51.2309235869,5.44030436977
3910,Neerpelt,Hayenhoek,10,51.2351851177,5.43056500857
3910,Neerpelt,Fabriekstraat,14,51.2301518442,5.42811150839
3910,Neerpelt,Korenbloemstraat,11,51.2256884534,5.44728439405
3910,Neerpelt,Zandstraat,76,51.2230038084,5.47354411009
3910,Neerpelt,Geuskens,58,51.2396025188,5.49363873193
3910,Neerpelt,Tisselrietweg,2,51.2492568001,5.45002104627
3910,Neerpelt,Hamonterweg,91,51.2390598076,5.46752199997
3910,Neerpelt,Tuinwijk,1,51.2312543263,5.45315304734
3910,Neerpelt,Broekkant,5,51.2311906956,5.48542279142
3910,Neerpelt,Heerstraat,11,51.228786404,5.43509458259
3910,Neerpelt,Lindestraat,48,51.2244552911,5.48900571264
3910,Neerpelt,Sint Martensstraat,35,51.2338317472,5.42673010719
3910,Neerpelt,Peerderbaan,69,51.2211564329,5.47913166674
3910,Neerpelt,Woudweg,40,51.2601275105,5.44876648327
3910,Neerpelt,Broeseinderdijk,24,51.2379583872,5.42764953158
3910,Neerpelt,Turfheidestraat,73,51.2545415522,5.43011039888
3910,Neerpelt,Boelehoef,75,51.2453874718,5.44248575542
3910,Neerpelt,De Bemmert,52,51.2153618577,5.44368496678
3910,Neerpelt,Bevrijdingsweg,5,51.2375536295,5.44118620975
3910,Neerpelt,Herent,124,51.2021642768,5.44758104266
3910,Neerpelt,De Bemmert,3B,51.2197283193,5.4421249386
3910,Neerpelt,De Roosen,88,51.2150571324,5.45477065752
3910,Neerpelt,Berghei,6,51.2230317237,5.50154715192
3910,Neerpelt,Boseind,183,51.2129440468,5.44132505531
3910,Neerpelt,Molenstraat,17,51.2293977885,5.44282464065
3910,Neerpelt,Clercxhoevestraat,5,51.2298987738,5.43693207033
3910,Neerpelt,Polsstraat,16,51.2477495984,5.44176018848
3910,Neerpelt,Sint Jorisstraat,20,51.229704258,5.4504503303
3910,Neerpelt,Kolonies,21,51.2290148902,5.45698849743
3910,Neerpelt,Anjerstraat,1,51.2248984071,5.45575780143
3910,Neerpelt,Heerstraat,82,51.2297796188,5.44182907122
3910,Neerpelt,Boelehoef,29,51.2360574598,5.44820680602
3910,Neerpelt,Lindestraat,36,51.224573845,5.48736579813
3910,Neerpelt,Overwegstraat,47,51.2416257441,5.44293077464
3910,Neerpelt,Rikkaartstraat,8,51.2208158475,5.48672717786
3910,Neerpelt,Onderwijslaan,3,51.2305621999,5.4298854974
3910,Neerpelt,Energiestraat,3,51.2314487481,5.44301668403
3910,Neerpelt,Zonhoekstraat,37A,51.2386868939,5.4253470815
3910,Neerpelt,Lochterdijk,54,51.2521242755,5.43138072993
3910,Neerpelt,Onderwijslaan,27,51.2311810196,5.43234566385
3910,Neerpelt,Boelehoef,5,51.2344871236,5.44683760647
3910,Neerpelt,Zandstraat,58,51.2232111026,5.47666452474
3910,Neerpelt,Hayenhoek,98,51.2432155043,5.43707695822
3910,Neerpelt,Willebrordusstraat,39,51.1941011839,5.44441211763
3910,Neerpelt,Fabriekstraat,32,51.2300135814,5.42649663955
3910,Neerpelt,Hamonterweg,144,51.2414670852,5.48282756135
3910,Neerpelt,Kloosterstraat,1,51.2292382723,5.43195440116
3910,Neerpelt,Polsstraat,34,51.2498353185,5.44113160002
3910,Neerpelt,Korhoenstraat,18,51.2531089287,5.43396072364
3910,Neerpelt,Meidoornstraat,50,51.2256668418,5.45156431226
3910,Neerpelt,Heidebloemstraat,18,51.2010321237,5.46303229276
3910,Neerpelt,Zonhoekstraat,165,51.2442258894,5.43319111105
3910,Neerpelt,Holenweg,35,51.2401057177,5.4619564307
3910,Neerpelt,De Roosen,47,51.2143000884,5.44887318326
3910,Neerpelt,St. Antoniusweg,82,51.231054412,5.45421951779
3910,Neerpelt,Kanaalstraat,30,51.2281995857,5.48524056938
3910,Neerpelt,Damsheide,12,51.2364163149,5.46118020982
3910,Neerpelt,Lillerheidestraat,38,51.2387239491,5.48239319955
3910,Neerpelt,Turfheidestraat,20,51.2535839588,5.43209862465
3910,Neerpelt,Kievitstraat,31,51.227307545,5.44346308213
3910,Neerpelt,Herent,88,51.2035873239,5.4435751299
3910,Neerpelt,Olmenstraat,26,51.209534534,5.45179129939
3910,Neerpelt,Hayenhoek,45,51.23784331,5.43391404055
3910,Neerpelt,Hoekstraat,2,51.2288829968,5.4299463239
3910,Neerpelt,Jaak Tassetstraat,10,51.2305695049,5.43374027939
3910,Neerpelt,Zonnebloemweg,13,51.2249487642,5.44811664127
3910,Neerpelt,Heerstraat,100,51.2304763054,5.44314316351
3910,Neerpelt,Kapelweg,20,51.1994089636,5.44589372705
3910,Neerpelt,Slagmolenstraat,3,51.2207117245,5.43604494555
3910,Neerpelt,Torbeekstraat,17,51.2227206159,5.47530506407
3910,Neerpelt,Kanaalstraat,12,51.2270276981,5.48462535469
3910,Neerpelt,Peerderbaan,151,51.2141395762,5.47509758943
3910,Neerpelt,Turfheidestraat,3,51.2540924215,5.43323374241
3910,Neerpelt,Veurterstraat,55,51.2206261725,5.48805633883
3910,Neerpelt,Kolisheide,31,51.1972994883,5.46249327315
3910,Neerpelt,Vlasrootweg,43,51.255218803,5.43137084805
3910,Neerpelt,Sint Jorisstraat,3,51.2293116877,5.4490064705
3910,Neerpelt,Jos Verlindenstraat,124,51.2293969514,5.46793365716
3910,Neerpelt,Broesveldstraat,7,51.2292939654,5.42981852554
3910,Neerpelt,Stationsstraat,101,51.2193280672,5.4360473207
3910,Neerpelt,Kievitstraat,41,51.2272576713,5.44438006372
3910,Neerpelt,Weidenstraat,50,51.2483163656,5.4298387448
3910,Neerpelt,Heikant,2,51.2263056831,5.48929802474
3910,Neerpelt,Geuskens,23,51.2372280152,5.48583416464
3910,Neerpelt,Bosbessenlaan,51,51.2238195287,5.44882458961
3910,Neerpelt,Bosuilstraat,7,51.2197176753,5.49758390027
3910,Neerpelt,St. Antoniusweg,100,51.2305290115,5.45644600206
3910,Neerpelt,Bettebos,21,51.2008397601,5.4469037819
3910,Neerpelt,Sint Martensstraat,17,51.2329131902,5.42626193739
3910,Neerpelt,Nieuwstraat,8,51.2302485146,5.43488493727
3910,Neerpelt,Dorpsstraat,38,51.2263006094,5.48728112814
3910,Neerpelt,Eindstraat,3,51.2416715494,5.4394275882
3910,Neerpelt,Haagdoornstraat,9,51.2290952877,5.4422223533
3910,Neerpelt,Broekkant,22,51.229904964,5.49146481355
3910,Neerpelt,Kolisheide,13,51.1980128418,5.46341054316
3910,Neerpelt,Hayenhoek,63,51.2396972837,5.4343793253
3910,Neerpelt,Norbertinessenlaan,15,51.2307204009,5.43159720975
3910,Neerpelt,Damsheide,30,51.2347672345,5.46073186619
3910,Neerpelt,Tongersvenweg,10,51.2064652092,5.44573381103
3910,Neerpelt,Look,34,51.2244430159,5.4468276621
3910,Neerpelt,St. Antoniusweg,64,51.2314965683,5.45107626801
3910,Neerpelt,Zonnebloemweg,31,51.2246527679,5.44931418457
3910,Neerpelt,Tussenstraat,10,51.2488285089,5.41644007959
3910,Neerpelt,Grote Heide,107,51.2573763183,5.43561129333
3910,Neerpelt,Pater Pellensstraat,50A,51.2340274272,5.46355810657
3910,Neerpelt,Langveldweg,20,51.2437293894,5.44115068958
3910,Neerpelt,Brouwersstraat,14,51.2288653469,5.42764486394
3910,Neerpelt,Begonialaan,21,51.2265398841,5.45530547175
3910,Neerpelt,O. L. Vrouwstraat,1,51.2461685625,5.43688732767
3910,Neerpelt,Fabriekstraat,60,51.2318527809,5.41258543544
3910,Neerpelt,Distelstraat,6,51.2291047485,5.44650630787
3910,Neerpelt,Klimopstraat,7,51.226097677,5.45380124171
3910,Neerpelt,Roosendijk,73,51.2203610605,5.45089777317
3910,Neerpelt,Molenstraat,81,51.2287090315,5.45060962335
3910,Neerpelt,Molenstraat,47,51.2288755212,5.44637816296
3910,Neerpelt,Lochterdijk,2,51.2492537889,5.43883175074
3910,Neerpelt,Jos Verlindenstraat,88,51.228964524,5.471633361
3910,Neerpelt,Hamonterweg,7A,51.2361627518,5.45274164994
3910,Neerpelt,Hoevestraat,11,51.2169835654,5.48843647377
3910,Neerpelt,Krekelweg,10,51.2196516498,5.4436466535
3910,Neerpelt,Korte-Heerstraat,3,51.2289949486,5.43482632629
3910,Neerpelt,Jos Verlindenstraat,25,51.2282664328,5.47840100741
3910,Neerpelt,Lavendelstraat,10,51.2274247987,5.44920667699
3910,Neerpelt,Larkendreef,3,51.2524472743,5.44996034103
3910,Neerpelt,Pater Pellensstraat,66,51.2320737526,5.4629493406
3910,Neerpelt,Olmenstraat,2,51.2140193173,5.45405574138
3910,Neerpelt,De Nulenstraat,22,51.2311639255,5.4794682783
3910,Neerpelt,Broeseinderdijk,141,51.2442239189,5.42517352096
3910,Neerpelt,Molenbroekstraat,29,51.2156114114,5.43968504477
3910,Neerpelt,Hazenstraat,4,51.2286165527,5.43615488686
3910,Neerpelt,Vennenstraat,33,51.2510862841,5.4347469655
3910,Neerpelt,Weidenstraat,10A,51.2447249368,5.4360961492
3910,Neerpelt,Hamonterweg,27,51.2367939391,5.4555946449
3910,Neerpelt,Pater Pellensstraat,13,51.2365007616,5.46442959492
3910,Neerpelt,Dwarsstraat,7,51.2362947463,5.4626611514
3910,Neerpelt,Lepelstraat,72,51.2271525431,5.44803269183
3910,Neerpelt,Acaciastraat,11,51.2231990158,5.44551291725
3910,Neerpelt,Toekomstlaan,16,51.231789964,5.42521870979
3910,Neerpelt,Madeliefjeshoek,3,51.2240896538,5.45160467665
3910,Neerpelt,Breughelstraat,50,51.1945900699,5.44226394295
3910,Neerpelt,Larkendreef,27,51.2570389489,5.44799430119
3910,Neerpelt,Dommelweg,13,51.2181914733,5.43844105746
3910,Neerpelt,Haagdoornstraat,44,51.2256580967,5.44251380499
3910,Neerpelt,Jos Verlindenstraat,1,51.2276645719,5.48109987929
3910,Neerpelt,Jasmijnstraat,8,51.2259417042,5.45421321305
3910,Neerpelt,Veurterstraat,20,51.2211513607,5.48409883875
3910,Neerpelt,Roosendijk,55,51.2218352065,5.4494556954
3910,Neerpelt,Kaulillerweg,75,51.2183281028,5.49213090621
3910,Neerpelt,Goudbloemstraat,11,51.2269282842,5.45298907491
3910,Neerpelt,Eikenlaan,14,51.2182311755,5.44554970694
3910,Neerpelt,Fabriekstraat,42,51.2299813886,5.42550313178
3910,Neerpelt,Maststraat,4,51.2321996952,5.44042450166
3910,Neerpelt,Hoekstraat,26,51.2289657415,5.42858921853
3910,Neerpelt,Sparrenlaan,5,51.2171207426,5.44665153157
3910,Neerpelt,Bermstraat,1A,51.2327351218,5.42905012023
3910,Neerpelt,Lommelsakker,9,51.2353203491,5.43891359789
3910,Neerpelt,Toekomstlaan,34,51.233102779,5.42516572326
3910,Neerpelt,Hofstraat,3,51.2219260258,5.48412224926
3910,Neerpelt,Sint-Hubertusstraat,7,51.2258106984,5.48689055434
3910,Neerpelt,Stationsstraat,12,51.2275184089,5.43476204377
3910,Neerpelt,Biezenweg,5,51.2253072438,5.43977005037
3910,Neerpelt,Nachtegaalstraat,88,51.2149007846,5.45306047881
3910,Neerpelt,Kaulillerweg,22,51.2205152001,5.48256252333
3910,Neerpelt,Willebrordusstraat,14,51.2012231405,5.45032714745
3910,Neerpelt,Heikant,48,51.2217644837,5.48961340291
3910,Neerpelt,Wateringstraat,7,51.2350584528,5.45232604097
3910,Neerpelt,Kievitstraat,6,51.2272972697,5.44032819501
3910,Neerpelt,Koning Albertlaan,11,51.2278740575,5.43343226785
3910,Neerpelt,Hamonterweg,74A,51.236783615,5.46049947352
3910,Neerpelt,Teutenlaan,11,51.2314915528,5.43003094736
3910,Neerpelt,Geuskens,41,51.2404662733,5.48731413523
3910,Neerpelt,Spoorwegstraat,10,51.2197562626,5.43780348672
3910,Neerpelt,Grote Heide,46,51.2498218352,5.44012018262
3910,Neerpelt,Acaciastraat,4,51.2226285667,5.44619187982
3910,Neerpelt,Papaverstraat,15,51.2305433737,5.44680446907
3910,Neerpelt,Broeseinderdijk,166,51.2462677347,5.42523062735
3910,Neerpelt,Plataanstraat,10,51.2259995504,5.44910748272
3910,Neerpelt,Fierkens-Heikant,32,51.2271898054,5.4940265258
3910,Neerpelt,Grote Heide,82,51.2532525645,5.44001146852
3910,Neerpelt,Lochterdijk,48,51.2515765064,5.43238682103
3910,Neerpelt,Woudweg,22,51.257053176,5.45041184064
3910,Neerpelt,Peerderbaan,70,51.2207765056,5.47777630226
3910,Neerpelt,St. Antoniusweg,18,51.2312592238,5.44494667013
3910,Neerpelt,Meidoornstraat,32,51.2254023962,5.45129718222
3910,Neerpelt,Elzenstraat,11,51.2303263785,5.45164126076
3910,Neerpelt,Steenovenlaan,7,51.2238449716,5.48700629444
3910,Neerpelt,Weidenstraat,29,51.246141543,5.43288600149
3910,Neerpelt,Broeseinderdijk,184,51.2491203748,5.42475693127
3910,Neerpelt,Roosendijk,27,51.2220091769,5.4451491583
3910,Neerpelt,Paardskerkhofstraat,8,51.2305691803,5.48531711831
3910,Neerpelt,Holenweg,10,51.2393337708,5.45746058244
3910,Neerpelt,Tisselrietweg,9,51.2494079455,5.44859091145
3910,Neerpelt,Stationsstraat,37,51.2253765799,5.4370359731
3910,Neerpelt,Hayenhoek,3,51.234964325,5.43030667131
3910,Neerpelt,Ankerweg,15,51.2310358746,5.43976759802
3910,Neerpelt,Meidoornstraat,14,51.2246402245,5.45062609328
3910,Neerpelt,Begonialaan,28,51.2256164627,5.45552459256
3910,Neerpelt,De Kentings,14,51.2201635943,5.44450574185
3910,Neerpelt,Kompenstraat,21,51.2221124393,5.48320094334
3910,Neerpelt,De Roosen,25,51.2129955422,5.44638394028
3910,Neerpelt,Tisselrietweg,54,51.2598039214,5.44473086964
3910,Neerpelt,De Roosen,71,51.2147634903,5.45254416603
3910,Neerpelt,Lindestraat,11,51.2249527146,5.48728384367
3910,Neerpelt,De Bemmert,69,51.2141245015,5.44278249205
3910,Neerpelt,Fabriekstraat,7,51.229872359,5.42833308733
3910,Neerpelt,Bienderstraat,19,51.2396920008,5.46347487198
3910,Neerpelt,Molenstraat,63,51.2284057217,5.4476904817
3910,Neerpelt,Heerstraat,18,51.228755901,5.43587459965
3910,Neerpelt,Molenstraat,45,51.2288768362,5.4462733912
3910,Neerpelt,Jaak Tassetstraat,55,51.2329335807,5.43150480867
3910,Neerpelt,Rikkaartstraat,1,51.2206867641,5.48578574327
3910,Neerpelt,De Bemmert,16,51.2184912252,5.44251870609
3910,Neerpelt,Damsheide,19,51.2360340749,5.46192072669
3910,Neerpelt,Korenbloemstraat,18,51.2253961955,5.44813273344
3910,Neerpelt,Halmstraat,14,51.2291556275,5.44853496143
3910,Neerpelt,Turfheidestraat,27,51.2527953365,5.43176876938
3910,Neerpelt,Boelehoef,22,51.2415123925,5.44897740025
3910,Neerpelt,Boseind,58,51.2201246075,5.44044709947
3910,Neerpelt,De Roosen,53,51.2143306003,5.44996967687
3910,Neerpelt,Meidoornstraat,49,51.2252666352,5.45257446369
3910,Neerpelt,Anjerstraat,8,51.2252498249,5.45463072981
3910,Neerpelt,Bettebos,28,51.1999383654,5.44402755934
3910,Neerpelt,Jos Verlindenstraat,106,51.2291694992,5.47002163631
3910,Neerpelt,Korhoenstraat,11,51.252777762,5.43265333833
3910,Neerpelt,Peerderbaan,205,51.1981825363,5.46580623106
3910,Neerpelt,Kievitstraat,38,51.2268997773,5.44457094501
3910,Neerpelt,Dummerveld,9,51.238458819,5.46134067178
3910,Neerpelt,Heerstraat,101B,51.2304757864,5.44214177037
3910,Neerpelt,Schoolstraat,9,51.2255763212,5.48404886358
3910,Neerpelt,Roosendijk,91,51.2189890041,5.45268395776
3910,Neerpelt,Boseind,76,51.2183471728,5.44079112329
3910,Neerpelt,Heidebloemstraat,11,51.2008434611,5.46233074516
3910,Neerpelt,Bienderstraat,75,51.2445117262,5.46405406393
3910,Neerpelt,Schutterijstraat,16,51.2198187434,5.48003767947
3910,Neerpelt,Tuinwijk,8,51.2310295858,5.45239927517
3910,Neerpelt,Overwegstraat,25,51.2427549214,5.4405498063
3910,Neerpelt,Priestbosstraat,6,51.2209572186,5.48011751049
3910,Neerpelt,St. Antoniusweg,36,51.2314652251,5.44685386594
3910,Neerpelt,Peerderbaan,194,51.1995666528,5.46526289504
3910,Neerpelt,Schutterijstraat,2,51.2208937901,5.48165126894
3910,Neerpelt,Damsheide,5,51.2373191672,5.46171861865
3910,Neerpelt,Tikbroeken,26,51.220874995,5.43803070625
3910,Neerpelt,Peerderbaan,52,51.2226721298,5.47916077285
3910,Neerpelt,Molenstraat,10,51.229501428,5.44242972177
3910,Neerpelt,Boseind,23,51.2260197278,5.43883825802
3910,Neerpelt,Onderwijslaan,10,51.2299258584,5.43068509652
3910,Neerpelt,Zonhoekstraat,102,51.2399676636,5.4274887101
3910,Neerpelt,Hayenhoek,35,51.2371338938,5.43355314131
3910,Neerpelt,Zandstraat,41,51.2229817248,5.47875887037
3910,Neerpelt,Herent,71,51.2054016836,5.44463798861
3910,Neerpelt,Hayenhoek,55A,51.2389380482,5.43422018369
3910,Neerpelt,Boseind,94,51.2170563484,5.44080608527
3910,Neerpelt,Broesveldstraat,24,51.2307674391,5.42945333728
3910,Neerpelt,Hayenhoek,84A,51.2420421142,5.43680113884
3910,Neerpelt,Rikkaartstraat,15,51.2219086253,5.48588804302
3910,Neerpelt,Langveldweg,27,51.2450873624,5.4415504707
3910,Neerpelt,Dorpsstraat,13,51.2269002339,5.48414870407
3910,Neerpelt,Beukenlaan,21,51.2170311079,5.44391999838
3910,Neerpelt,Torbeekstraat,10,51.222460911,5.47758749173
3910,Neerpelt,Riet,8,51.2285134549,5.46701770165
3910,Neerpelt,Kolisheide,38,51.1958430799,5.46153500683
3910,Neerpelt,Broeseinderdijk,113,51.2409218138,5.42609907714
3910,Neerpelt,Dommelweg,6,51.2188420849,5.44013160585
3910,Neerpelt,Achelsendijk,46,51.2458151001,5.45151259519
3910,Neerpelt,Zonhoekstraat,23,51.2376997358,5.42482964954
3910,Neerpelt,Nieuwstraat,1,51.2302443554,5.43421978845
3910,Neerpelt,Hamonterweg,55,51.2375918493,5.45995363879
3910,Neerpelt,Jaak Tassetstraat,17,51.2308406321,5.4331404051
3910,Neerpelt,Bremstraat,1B,51.226061969,5.43985125123
3910,Neerpelt,Pater Pellensstraat,6,51.2373162247,5.46369741317
3910,Neerpelt,Herent,106,51.201687844,5.44373551993
3910,Neerpelt,Eikenlaan,39,51.2178317748,5.44690057908
3910,Neerpelt,Boskantstraat,6,51.2233034764,5.44272695451
3910,Neerpelt,Madeliefjeshoek,20,51.2240402838,5.45325342158
3910,Neerpelt,Schansstraat,26,51.2409589596,5.42511149255
3910,Neerpelt,Geerkensstraat,33,51.2219743491,5.48880205321
3910,Neerpelt,Boseind,129,51.2189913668,5.44139325519
3910,Neerpelt,Boseind,41,51.2240681992,5.43920000346
3910,Neerpelt,Molenstraat,98,51.2285744329,5.45281005163
3910,Neerpelt,Voort,6,51.2228575444,5.48877504073
3910,Neerpelt,Bosbessenlaan,68,51.2233313108,5.4514872727
3910,Neerpelt,Kapelweg,27,51.2001085425,5.44740798235
3910,Neerpelt,Distelstraat,23,51.2295038384,5.4462045661
3910,Neerpelt,Exschoor,9,51.2174612777,5.49088903715
3910,Neerpelt,Bremstraat,7,51.2264281723,5.4404682634
3910,Neerpelt,Damsheide,37,51.2341389873,5.46090528894
3910,Neerpelt,Kampstraat,14,51.2176128416,5.48466256338
3910,Neerpelt,Dorpsstraat,31,51.2269051499,5.48665367907
3910,Neerpelt,Zonhoekstraat,140,51.2422623185,5.43067838502
3910,Neerpelt,Tussenstraat,3,51.2390075297,5.41959044148
3910,Neerpelt,Windmolenstraat,7,51.2229413356,5.48179107859
3910,Neerpelt,Lochterdijk,72,51.2528597354,5.42929223363
3910,Neerpelt,Boegstraat,14,51.2320096383,5.4412495817
3910,Neerpelt,Grote Heide,26,51.2483193776,5.43962397893
3910,Neerpelt,Nachtegaalstraat,53,51.217359842,5.45065616902
3910,Neerpelt,Herenthoek,1,51.1914291341,5.44173810143
3910,Neerpelt,Nachtegaalstraat,8,51.2211036007,5.4457598094
3910,Neerpelt,Brouwersstraat,7,51.2293879626,5.42819879755
3910,Neerpelt,Buizerdstraat,14,51.2545163649,5.42882973661
3910,Neerpelt,Hayenhoek,116,51.244618817,5.43833912767
3910,Neerpelt,Vrijheidsstraat,13,51.2277422616,5.436402867
3910,Neerpelt,Nieuwstraat,15,51.2309729481,5.43519517578
3910,Neerpelt,Vlasrootweg,20B,51.2544071657,5.43401864496
3910,Neerpelt,Lavendelstraat,17,51.226811259,5.44862851699
3910,Neerpelt,Hazenstraat,21,51.2282879216,5.43750561387
3910,Neerpelt,Nachtegaalstraat,47,51.2176394252,5.44981986389
3910,Neerpelt,Breughelstraat,14,51.1997655319,5.44195845676
3910,Neerpelt,Polsstraat,44,51.2506131046,5.44082994619
3910,Neerpelt,Hamonterweg,66A,51.2369718197,5.45895434345
3910,Neerpelt,Larkendreef,20,51.2556443833,5.44951757806
3910,Neerpelt,Veldstraat,7,51.2252011838,5.47817696732
3910,Neerpelt,Jos Verlindenstraat,53,51.2288836849,5.47496380242
3910,Neerpelt,Jasmijnstraat,1,51.2262391867,5.45512995431
3910,Neerpelt,Kaulillerweg,29,51.2201339988,5.48416882048
3910,Neerpelt,Krekelweg,17,51.2198077908,5.44281672537
3910,Neerpelt,Heikant,72,51.2197204151,5.49019722349
3910,Neerpelt,Jos Verlindenstraat,8,51.2274804614,5.48039381195
3910,Neerpelt,Lepelstraat,34,51.2238210327,5.4435232404
3910,Neerpelt,Zonhoekstraat,209,51.2460828498,5.43868168955
3910,Neerpelt,Heikant,9,51.2255287826,5.49031584227
3910,Neerpelt,Goudbloemstraat,4,51.2272295071,5.45213736657
3910,Neerpelt,Jaak Tassetstraat,35,51.231582966,5.43262129957
3910,Neerpelt,Molenbroekstraat,22,51.2164316591,5.43865644117
3910,Neerpelt,Kerkstraat,33,51.2286655655,5.43042457409
3910,Neerpelt,Krekelweg,3,51.2193892049,5.44445179173
3910,Neerpelt,Zonnebloemweg,6,51.2248408984,5.44757457226
3910,Neerpelt,Schutterijstraat,14A,51.219928166,5.48026474179
3910,Neerpelt,Kolisbos,11,51.1910323015,5.46543084709
3910,Neerpelt,Wateringstraat,24,51.2335871508,5.45363190348
3910,Neerpelt,Stationsstraat,5,51.228171976,5.43490642427
3910,Neerpelt,Herenthoek,15,51.182852896,5.43949499885
3910,Neerpelt,Dommelweg,1A,51.2188444345,5.44040777963
3910,Neerpelt,Tikbroeken,15A,51.2216693704,5.43882624086
3910,Neerpelt,Boseind,157,51.2158194681,5.44135488214
3910,Neerpelt,Kaulillerweg,67,51.2190773923,5.48990462227
3910,Neerpelt,Tikbroeken,9,51.222095709,5.43892822169
3910,Neerpelt,Akkerstraat,9,51.2307137211,5.44806508486
3910,Neerpelt,Turfheidestraat,65,51.2539574833,5.42961419269
3910,Neerpelt,Pater Pellensstraat,58,51.2327878849,5.46320924282
3910,Neerpelt,Achelsendijk,28,51.2455452966,5.4439721871
3910,Neerpelt,Eikenlaan,7,51.2186346677,5.44503112748
3910,Neerpelt,Molenstraat,25,51.2290742603,5.44314146814
3910,Neerpelt,Weidenstraat,32,51.2466740967,5.4328424557
3910,Neerpelt,Hamonterweg,19,51.2366431362,5.45446574514
3910,Neerpelt,Peerderbaan,95,51.2189719694,5.47769069759
3910,Neerpelt,Stationsstraat,20,51.2271380608,5.43528133967
3910,Neerpelt,Veurterstraat,12,51.2224840354,5.48484178473
3910,Neerpelt,Jaak Tassetstraat,8A,51.2305038326,5.43382568649
3910,Neerpelt,Teutenlaan,2,51.2310738041,5.43083339649
3910,Neerpelt,Pereboomstraat,9,51.2282639882,5.45424455664
3910,Neerpelt,Acaciastraat,21,51.2241279111,5.44527297852
3910,Neerpelt,Heerstraat,56,51.2293996175,5.43811283272
3910,Neerpelt,Jos Verlindenstraat,45,51.2287758656,5.47557259046
3910,Neerpelt,Herent,132,51.2025049896,5.4490644875
3910,Neerpelt,Tisselrietweg,34,51.2562195095,5.44773635476
3910,Neerpelt,Woudweg,39,51.2600550106,5.44788542092
3910,Neerpelt,Grote Heide,99,51.2548301208,5.43839836241
3910,Neerpelt,Weidenstraat,14,51.2449289559,5.43575165137
3910,Neerpelt,Anjerstraat,17,51.2252676269,5.45351462816
3910,Neerpelt,Roosendijk,30,51.2216277803,5.44510742293
3910,Neerpelt,Voetbalstraat,6,51.2183030837,5.43978469546
3910,Neerpelt,Kolisbos,2,51.1940862561,5.46984946421
3910,Neerpelt,Kluitstraat,38,51.2305253567,5.4532342984
3910,Neerpelt,Zonhoekstraat,193,51.2461492336,5.43649946027
3910,Neerpelt,Bettebos,46,51.200854761,5.44575228363
3910,Neerpelt,Plataanstraat,25,51.2265578473,5.44967104292
3910,Neerpelt,Achelsendijk,2,51.245635554,5.43943536793
3910,Neerpelt,Boseind,38,51.2215198458,5.44033747271
3910,Neerpelt,Tongersvenweg,8A,51.2065842893,5.4453327233
3910,Neerpelt,Heerstraat,74,51.2296379389,5.44120614817
3910,Neerpelt,Biezenweg,14,51.2242152051,5.43981165872
3910,Neerpelt,Overwegstraat,10,51.2429381924,5.43940128337
3910,Neerpelt,Peerderbaan,77,51.2204260647,5.47870858256
3910,Neerpelt,Vlasrootweg,1,51.2550165776,5.43777978427
3910,Neerpelt,Kampstraat,7,51.2180146489,5.48547334083
3910,Neerpelt,St. Antoniusweg,74,51.2313803528,5.45261447334
3910,Neerpelt,Hazenstraat,18,51.2282569409,5.43666678475
3910,Neerpelt,Nachtegaalstraat,63,51.2167889581,5.45175178455
3910,Neerpelt,Hoekstraat,44,51.2283485682,5.42755294254
3910,Neerpelt,Tuinwijk,17,51.2307876269,5.45136576911
3910,Neerpelt,Watermolenstraat,7,51.2213691093,5.43469106971
3910,Neerpelt,Fierkens-Heikant,29,51.2276497066,5.49311003578
3910,Neerpelt,Kerkstraat,15,51.2284814548,5.43117589027
3910,Neerpelt,Herent,149,51.2021661307,5.45126895632
3910,Neerpelt,Lochterdijk,44,51.251377299,5.43281715064
3910,Neerpelt,Plataanstraat,3,51.2265857974,5.44841312428
3910,Neerpelt,Zonhoekstraat,175,51.2449061584,5.43423284007
3910,Neerpelt,Volmolenstraat,31,51.2355818693,5.42472922358
3910,Neerpelt,Begonialaan,11,51.2272811652,5.45383567723
3910,Neerpelt,Kanaalstraat,5,51.2276555012,5.48430322687
3910,Neerpelt,De Bemmert,42,51.2159909647,5.44491567756
3910,Neerpelt,Bosbessenlaan,31,51.2236328555,5.44707862258
3910,Neerpelt,Polsstraat,26,51.249201349,5.44118661222
3910,Neerpelt,Willebrordusstraat,29,51.1978517665,5.45003087982
3910,Neerpelt,Holenweg,25,51.2400628817,5.46044416023
3910,Neerpelt,Herent,114,51.2020383583,5.44523374193
3910,Neerpelt,Boelehoef,39,51.2389386311,5.44785041394
3910,Neerpelt,Korhoenstraat,2,51.2519520419,5.43230057257
3910,Neerpelt,Bettebos,11,51.2014947701,5.44579568827
3910,Neerpelt,Romeinse Dijk,70,51.2105594065,5.4611544642
3910,Neerpelt,Hayenhoek,88,51.2424437917,5.43698593057
3910,Neerpelt,Hoevestraat,2,51.2184032688,5.48776232335
3910,Neerpelt,Spoorwegstraat,3,51.2200450624,5.43771706845
3910,Neerpelt,Schoolstraat,16,51.2250314134,5.48354090995
3910,Neerpelt,Onderwijslaan,17,51.2309521543,5.43139617734
3910,Neerpelt,Volmolenstraat,13,51.2353567806,5.42741197232
3910,Neerpelt,Laerstraat,5,51.2168225564,5.43980276811
3910,Neerpelt,Lindestraat,28,51.2248136475,5.48539249739
3910,Neerpelt,Herent,45,51.2083001429,5.44356016619
3910,Neerpelt,Bettebos,64,51.2006723917,5.44796518494
3910,Neerpelt,Pastorijstraat,6,51.2278386704,5.43098155484
3910,Neerpelt,De Nulenstraat,14,51.230716877,5.48037740129
3910,Neerpelt,Smeelstraat,4,51.2244033335,5.4818426108
3910,Neerpelt,Meidoornstraat,40,51.2256764612,5.45086747675
3910,Neerpelt,Korhoenstraat,28,51.2537130834,5.43480953988
3910,Neerpelt,Kanaalstraat,20,51.2272111985,5.48479382068
3910,Neerpelt,Turfheidestraat,83,51.2551079585,5.43054117809
3910,Neerpelt,Lillerheidestraat,28,51.2379712739,5.48252656762
3910,Neerpelt,Hamonterweg,55A,51.2376213103,5.46022884264
3910,Neerpelt,Beukenlaan,18,51.2170713358,5.4433715704
3910,Neerpelt,Herent,63,51.2060830123,5.44428994937
3910,Neerpelt,St. Antoniusweg,92,51.2308686222,5.45549878601
3910,Neerpelt,Peerderbaan,251,51.1940551649,5.46301088675
3910,Neerpelt,De Beerten,3,51.2373464588,5.48463885506
3910,Neerpelt,Kolisheide,4,51.1988416851,5.46272962588
3910,Neerpelt,Turfheidestraat,30,51.2530303158,5.43097840154
3910,Neerpelt,Nachtegaalstraat,45,51.2176879151,5.44953084789
3910,Neerpelt,Fierkens-Heikant,40,51.2262835249,5.49446691915
3910,Neerpelt,Korte-Hayenhoekweg,12,51.2416920192,5.43428705337
3910,Neerpelt,Kapelweg,12,51.1991161276,5.44487380415
3910,Neerpelt,Meidoornstraat,7,51.2252450735,5.45068967223
3910,Neerpelt,Slagmolenstraat,19,51.2207369558,5.43465399084
3910,Neerpelt,Herent,10,51.2113866499,5.4417695186
3910,Neerpelt,Herent,167,51.2012333346,5.45386107748
3910,Neerpelt,Fabriekstraat,22,51.2301459966,5.42753022504
3910,Neerpelt,Lillerheidestraat,4,51.235628445,5.48277741404
3910,Neerpelt,De Kentings,7,51.2210109811,5.44480601941
3910,Neerpelt,Langveldweg,12,51.2443753879,5.43968954171
3910,Neerpelt,Geerkensstraat,15,51.2234270647,5.48704321994
3910,Neerpelt,Venderstraat,29,51.2323494249,5.48290819033
3910,Neerpelt,Riesel,10,51.2215679902,5.48768644277
3910,Neerpelt,Overwegstraat,45,51.2416559301,5.44270519664
3910,Neerpelt,Bakkersstraatje,2,51.2456739513,5.43724807829
3910,Neerpelt,De Bemmert,9,51.2191900532,5.44237062535
3910,Neerpelt,Molenstraat,71,51.2285879564,5.44899684732
3910,Neerpelt,Reigerstraat,3,51.2370621316,5.42680949673
3910,Neerpelt,Look,26,51.2244255626,5.44768606744
3910,Neerpelt,Turfheidestraat,12,51.2539766898,5.43250912098
3910,Neerpelt,Boelehoef,49,51.2431613337,5.44656994214
3910,Neerpelt,Dorpsstraat,4,51.226970051,5.48277009702
3910,Neerpelt,Kaulillerweg,101,51.2157200178,5.49681791524
3910,Neerpelt,Jos Verlindenstraat,114,51.229413626,5.46897220992
3910,Neerpelt,Boseind,122,51.2145251458,5.44083401852
3910,Neerpelt,De Roosen,63,51.2145804085,5.45144268404
3910,Neerpelt,Boseind,104,51.2163381751,5.44075821688
3910,Neerpelt,Ganzenpas,8,51.261611964,5.4464730219
3910,Neerpelt,Dorpsstraat,2A,51.2269366625,5.48239262511
3910,Neerpelt,Zonhoekstraat,109,51.2408902862,5.42785352764
3910,Neerpelt,Veurterstraat,65,51.2209894489,5.48953420722
3910,Neerpelt,Mereldreef,14,51.2556388332,5.44597848652
3910,Neerpelt,Boseind,134B,51.2136530592,5.44072836714
3910,Neerpelt,Hortensialaan,24,51.2278743767,5.45119828163
3910,Neerpelt,De Bemmert,77,51.2140191521,5.44173323582
3910,Neerpelt,Populierenhof,24,51.2329331822,5.45025755329
3910,Neerpelt,Jos Verlindenstraat,17,51.228122197,5.47933419649
3910,Neerpelt,Kapelweg,30,51.1997799903,5.4481939189
3910,Neerpelt,Boelehoef,67,51.2447597789,5.44366001817
3910,Neerpelt,Eikenlaan,22,51.2179839205,5.44636346357
3910,Neerpelt,Langveldweg,30,51.2447291563,5.44173699954
3910,Neerpelt,Herent,98,51.2024119815,5.44290097097
3910,Neerpelt,Groenstraat,24,51.2294402367,5.43396358582
3910,Neerpelt,Pater Pellensstraat,23,51.2362464033,5.46537528922
3910,Neerpelt,St. Antoniusweg,21,51.2318665638,5.44627596667
3910,Neerpelt,Nachtegaalstraat,17,51.2199488735,5.44679997859
3910,Neerpelt,Roosendijk,83,51.2196432948,5.45194380612
3910,Neerpelt,Korenbloemstraat,21,51.2258430359,5.44805604253
3910,Neerpelt,Kaulillerweg,14,51.2211944853,5.48083018626
3910,Neerpelt,Geerkensstraat,6,51.2233509594,5.48440530912
3910,Neerpelt,Zandstraat,66,51.2230959471,5.47566714237
3910,Neerpelt,Broekkant,32,51.2306050672,5.49173811944
3910,Neerpelt,Bienderstraat,20,51.2401178122,5.46403894971
3910,Neerpelt,Buizerdstraat,29,51.2530835151,5.42844573165
3910,Neerpelt,Marktplein,11,51.2293426492,5.43124349346
3910,Neerpelt,Volmolenstraat,43,51.23576915,5.42305381642
3910,Neerpelt,Hoekstraat,16,51.2287960718,5.4292151706
3910,Neerpelt,Fabriekstraat,52,51.2298565034,5.42327178357
3910,Neerpelt,Lepelstraat,62,51.2262928447,5.44728006048
3910,Neerpelt,Bosbessenlaan,43,51.2236957287,5.44804924717
3910,Neerpelt,Pastorijstraat,15,51.2273789318,5.43069447327
3910,Neerpelt,Korhoenstraat,9,51.252648745,5.43248594512
3910,Neerpelt,Vlasrootweg,51,51.2558351577,5.429682762
3910,Neerpelt,Parklaan,8,51.2316188418,5.42730454442
3910,Neerpelt,Larkendreef,37,51.2592227704,5.44656685401
3910,Neerpelt,Bermstraat,4,51.2324706326,5.42950371725
3910,Neerpelt,Bosbessenlaan,61,51.2239668153,5.44961637159
3910,Neerpelt,Lepelstraat,80,51.2279643604,5.4485255335
3910,Neerpelt,Dorpsstraat,41,51.2267671047,5.48846386395
3910,Neerpelt,Hoekstraat,34,51.228530199,5.42825975281
3910,Neerpelt,Torbeekstraat,3,51.2218967145,5.47796343821
3910,Neerpelt,Kolisheide,23,51.1978266168,5.46277605687
3910,Neerpelt,Zandstraat,31,51.2244772861,5.47990685225
3910,Neerpelt,Buizerdstraat,7,51.2548812951,5.42965501037
3910,Neerpelt,Geuskens,13,51.2366161444,5.48454575114
3910,Neerpelt,O. L. Vrouwstraat,17,51.2475418547,5.43558221025
3910,Neerpelt,Grote Heide,9,51.2471081813,5.43824233375
3910,Neerpelt,Jos Verlindenstraat,98,51.2282314789,5.47011614731
3910,Neerpelt,Peerderbaan,161,51.2132222396,5.47454682177
3910,Neerpelt,Sint Martensstraat,3,51.2322863285,5.4274713425
3910,Neerpelt,Appelboomstraat,8,51.2278133614,5.45442962642
3910,Neerpelt,Broekkant,14,51.2299582124,5.49893106384
3910,Neerpelt,Maststraat,18,51.2320756003,5.44238037731
3910,Neerpelt,Kerkstraat,6,51.2284677947,5.43327317297
3910,Neerpelt,Roosendijk,65,51.2208384534,5.45016477808
3910,Neerpelt,Kaulillerweg,32,51.2197299761,5.48405866111
3910,Neerpelt,Boegstraat,7,51.2310704085,5.44068803028
3910,Neerpelt,Jos Verlindenstraat,35,51.2286132769,5.47696036352
3910,Neerpelt,Roosendijk,12,51.2214139873,5.44221516122
3910,Neerpelt,Veurterstraat,30,51.2203655565,5.48469341567
3910,Neerpelt,Zonnebloemweg,23,51.224665053,5.4485603052
3910,Neerpelt,Lochterdijk,34,51.2506356868,5.43447423635
3910,Neerpelt,Elzenstraat,9,51.2303497918,5.45148960781
3910,Neerpelt,Fierkens-Heikant,22,51.227256839,5.49282982251
3910,Neerpelt,Kaulillerweg,50,51.2188167434,5.48655081642
3910,Neerpelt,Veurterstraat,19,51.2214927134,5.48486728351
3910,Neerpelt,Hamonterweg,12,51.2352048827,5.45005928225
3910,Neerpelt,Stationsstraat,27,51.2260569163,5.43665515345
3910,Neerpelt,Klaverstraat,23,51.2472037378,5.42595940923
3910,Neerpelt,Hamonterweg,134,51.2408341709,5.48014155378
3910,Neerpelt,Weidenstraat,39,51.2467764601,5.4316959712
3910,Neerpelt,Vennenstraat,15,51.251670895,5.43718214371
3910,Neerpelt,Broeseinderdijk,156,51.2452622559,5.42544585222
3910,Neerpelt,Volmolenstraat,6,51.235425541,5.42958833502
3910,Neerpelt,Boelehoef,14,51.2383871484,5.44849908553
3910,Neerpelt,Haagdoornstraat,72,51.2219088338,5.44460873586
3910,Neerpelt,Hazenstraat,11,51.2284730806,5.43690138539
3910,Neerpelt,De Roosen,17,51.2125470567,5.44536913797
3910,Neerpelt,Overwegstraat,17,51.2432310433,5.43966136534
3910,Neerpelt,Larkendreef,12,51.2540089975,5.45007553668
3910,Neerpelt,De Vrundenweg,2,51.2027367951,5.45076679066
3910,Neerpelt,De Roosen,3,51.2122212738,5.44185285351
3910,Neerpelt,Kloosterstraat,10,51.2290372662,5.43273411256
3910,Neerpelt,Boseind,31,51.2247776298,5.43885325031
3910,Neerpelt,Meidoornstraat,22,51.2248883904,5.45130657013
3910,Neerpelt,Marktplein,4,51.229437381,5.43043500476
3910,Neerpelt,Woudweg,32,51.258819082,5.44946076196
3910,Neerpelt,Hamonterweg,116,51.2403394583,5.47691801207
3910,Neerpelt,Grote Heide,92,51.25404508,5.4396214413
3910,Neerpelt,Herent,35,51.2093263597,5.44330433378
3910,Neerpelt,Anjerstraat,10,51.2253232116,5.45444117621
3910,Neerpelt,Distelstraat,13,51.2294968375,5.44524656842
3910,Neerpelt,Roosendijk,37,51.2222452118,5.44678869118
3910,Neerpelt,Norbertinessenlaan,33,51.2316799479,5.43087370465
3910,Neerpelt,Tikbroeken,34,51.2208430977,5.43862489517
3910,Neerpelt,Lupinestraat,22,51.2223972619,5.45145425829
3910,Neerpelt,Leliestraat,3,51.2248933678,5.45376303038
3910,Neerpelt,Fabriekstraat,29,51.2295926432,5.42568960277
3910,Neerpelt,Heerstraat,28,51.2291051099,5.43651427709
3910,Neerpelt,Molenstraat,114,51.2293040122,5.45646822777
3910,Neerpelt,St. Antoniusweg,28,51.2315103217,5.4459501523
3910,Neerpelt,Hork,3,51.2271620577,5.51802037718
3910,Neerpelt,Korenbloemstraat,28,51.2249907057,5.4492815078
3910,Neerpelt,Hayenhoek,53,51.2387878608,5.43416777281
3910,Neerpelt,Volmolenstraat,38,51.2359243546,5.4249008012
3910,Neerpelt,Bettebos,18,51.2007822021,5.44317791935
3910,Neerpelt,Madeliefjeshoek,12,51.2236420115,5.45231764251
3910,Neerpelt,Lillerheidestraat,46,51.2396090154,5.48228117947
3910,Neerpelt,Peerderbaan,233,51.1958707744,5.4641540083
3910,Neerpelt,Weidenstraat,7,51.2444861612,5.43565041838
3910,Neerpelt,Begonialaan,18,51.226468584,5.45444639244
3910,Neerpelt,Kolisbos,9,51.1922674461,5.46666032095
3910,Neerpelt,Tisselrietweg,44,51.2581410243,5.44675269321
3910,Neerpelt,Kempenplein,1,51.2269885664,5.43074012151
3910,Neerpelt,Heerstraat,99,51.2302339719,5.44192429753
3910,Neerpelt,Herent,3,51.2116770804,5.44202852507
3910,Neerpelt,Bettebos,36,51.2007126019,5.44423715368
3910,Neerpelt,Meidoornstraat,57,51.22451029,5.45218050401
3910,Neerpelt,Peerderbaan,42,51.2236510537,5.4796984668
3910,Neerpelt,Turfheidestraat,37,51.2525910613,5.43111320132
3910,Neerpelt,De Bemmert,24,51.2179350575,5.44338848326
3910,Neerpelt,Koning Albertlaan,9,51.2278968966,5.43351138958
3910,Neerpelt,Tikbroeken,16,51.2218580158,5.43830449485
3910,Neerpelt,Pereboomstraat,2,51.2286825344,5.45334344872
3910,Neerpelt,Populierenhof,42,51.2326664227,5.45334284922
3910,Neerpelt,Stationsstraat,91,51.2205303411,5.43624162532
3910,Neerpelt,Grote Heide,74,51.2525419021,5.44164458374
3910,Neerpelt,Woudweg,14,51.2549494017,5.45129897963
3910,Neerpelt,Heerstraat,48,51.2293400688,5.43762038052
3910,Neerpelt,De Roosen,35,51.2136613014,5.44741738821
3910,Neerpelt,Jagerspad,3,51.2554908043,5.45619926302
3910,Neerpelt,Beukenlaan,11,51.2176586619,5.44301982722
3910,Neerpelt,Langveldweg,5,51.2450410065,5.43946509505
3910,Neerpelt,Boskantstraat,41,51.2227289479,5.44150220455
3910,Neerpelt,Lillerheidestraat,11,51.2363411422,5.48204998152
3910,Neerpelt,De Bemmert,59,51.2150111637,5.44408222078
3910,Neerpelt,Tikbroeken,2,51.2230997781,5.43888271302
3910,Neerpelt,De Roosen,81,51.2151693122,5.45389101538
3910,Neerpelt,Kapelweg,5,51.1994222007,5.44406630432
3910,Neerpelt,Korte-Hayenhoekweg,5,51.2407221443,5.43475850392
3910,Neerpelt,Weidenstraat,57,51.2479291353,5.42958557015
3910,Neerpelt,Molenbroekstraat,32,51.2155762831,5.43908766605
3910,Neerpelt,Molenstraat,88,51.228374112,5.45075446604
3910,Neerpelt,Buizerdstraat,22,51.2538682005,5.42834326165
3910,Neerpelt,Fierkens-Heikant,75,51.2255756559,5.49505640016
3910,Neerpelt,Boseind,66,51.2194823201,5.44043719398
3910,Neerpelt,Heuvelerweg,21,51.2378238439,5.47195425576
3910,Neerpelt,Damsheide,27,51.2350752815,5.46142426052
3910,Neerpelt,Sint Martensstraat,10,51.2328404193,5.42729149651
3910,Neerpelt,Kolonies,18,51.2292362762,5.4556134739
3910,Neerpelt,Mereldreef,7,51.2544939745,5.44592836267
3910,Neerpelt,Turfheidestraat,19,51.2531911319,5.43218849373
3910,Neerpelt,Boseind,139,51.2178417585,5.44150792667
3910,Neerpelt,Eikenlaan,29,51.2183291462,5.44708872175
3910,Neerpelt,Hayenhoek,56A,51.2390575502,5.43471482077
3910,Neerpelt,Sparrenlaan,14,51.2162778786,5.44650622069
3910,Neerpelt,Korhoenstraat,21,51.2534699332,5.4336814846
3910,Neerpelt,Lavendelstraat,25,51.2268745476,5.44943443536
3910,Neerpelt,Broeseinderdijk,103,51.2399428398,5.42648613465
3910,Neerpelt,Norbertinessenlaan,8,51.2300620712,5.43314037019
3910,Neerpelt,Bermstraat,23,51.2328759575,5.43154501746
3910,Neerpelt,Breughelstraat,22,51.198885396,5.44274774239
3910,Neerpelt,Damsheide,49,51.2329667265,5.4600645122
3910,Neerpelt,Boonskuilstraat,3,51.2321728572,5.43839585016
3910,Neerpelt,Hamonterweg,65,51.2378243059,5.46139452402
3910,Neerpelt,Pinksterbloemstraat,15,51.2232947591,5.4502663102
3910,Neerpelt,Hayenhoek,108,51.2437893572,5.43733774592
3910,Neerpelt,Broekkant,39,51.2303250665,5.49091282067
3910,Neerpelt,Vrijheidsstraat,23,51.2280145454,5.43684076286
3910,Neerpelt,Stationsstraat,77A,51.2221538708,5.43617532309
3910,Neerpelt,Broeseinderdijk,121,51.2416838159,5.42584943119
3910,Neerpelt,Kolonies,36,51.2278434268,5.45710287137
3910,Neerpelt,Molenbroekstraat,14,51.217068666,5.43815749526
3910,Neerpelt,Lochterdijk,62,51.2523991658,5.43062021706
3910,Neerpelt,Riesel,3,51.2214368833,5.4887155542
3910,Neerpelt,Torenstraat,40,51.1968238865,5.47166278209
3910,Neerpelt,Sint-Hubertusstraat,16,51.2252899079,5.4886409594
3910,Neerpelt,Begonialaan,4,51.2278104779,5.4528441024
3910,Neerpelt,Achelsendijk,48,51.2458864599,5.45259330987
3910,Neerpelt,Zonhoekstraat,150,51.2426638448,5.43170106808
3910,Neerpelt,Kielstraat,1A,51.2307304721,5.44196150742
3910,Neerpelt,Venderstraat,22,51.2318218782,5.48352371453
3910,Neerpelt,Kompenstraat,11,51.2231146736,5.48347658314
3910,Neerpelt,Zonhoekstraat,110,51.2403740822,5.42784823355
3910,Neerpelt,Hamonterweg,162,51.2419902688,5.48637917415
3910,Neerpelt,Jos Verlindenstraat,10,51.2274897745,5.48028293496
3910,Neerpelt,Boseind,84,51.21784785,5.44080711834
3910,Neerpelt,Herent,81,51.2047047577,5.44491196203
3910,Neerpelt,Zandstraat,6,51.226609492,5.48023974255
3910,Neerpelt,Kapelweg,37,51.200345434,5.44940191413
3910,Neerpelt,Grote Heide,100,51.2548354093,5.4390656081
3910,Neerpelt,Veurterstraat,5,51.2228827048,5.48478576931
3910,Neerpelt,Nachtegaalstraat,81,51.2157166098,5.45284057409
3910,Neerpelt,Zonhoekstraat,31,51.2381256034,5.42521663809
3910,Neerpelt,Kolisheide,41,51.1964547224,5.46205940016
3910,Neerpelt,Hoekstraat,62,51.2280308686,5.42616957944
3910,Neerpelt,Kaulillerweg,7,51.2216875967,5.48052945612
3910,Neerpelt,Grote Heide,16,51.2473336219,5.43972291185
3910,Neerpelt,Venderstraat,57,51.2349451778,5.48223226504
3910,Neerpelt,Zonhoekstraat,13,51.2370872009,5.42403548097
3910,Neerpelt,Veurterstraat,37,51.2200970781,5.48604043624
3910,Neerpelt,Distelstraat,31,51.2302171434,5.44639144382
3910,Neerpelt,Peerderbaan,115,51.2172571449,5.47679077762
3910,Neerpelt,Kaulillerweg,39,51.2196035221,5.4853311994
3910,Neerpelt,Grote Heide,34,51.2488799681,5.43967110352
3910,Neerpelt,Parklaan,1,51.2313278794,5.42812493681
3910,Neerpelt,Vlasrootweg,33,51.254223602,5.43353011727
3910,Neerpelt,Koning Albertlaan,21,51.2274158981,5.43262106159
3910,Neerpelt,Achelsendijk,21,51.2459819857,5.44298427895
3910,Neerpelt,Breughelstraat,57,51.1931254671,5.4430894537
3910,Neerpelt,Jos Verlindenstraat,81,51.2293902262,5.47141536172
3910,Neerpelt,Roosendijk,5,51.2216862063,5.4414010392
3910,Neerpelt,Zandstraat,38,51.2239239804,5.47903757138
3910,Neerpelt,Lochterdijk,74,51.2529205358,5.42904795199
3910,Neerpelt,Broekkant,7,51.2298691392,5.48741248062
3910,Neerpelt,Kruisstraat,37,51.2288310102,5.4768729099
3910,Neerpelt,Krekelweg,12,51.2198841974,5.44350901647
3910,Neerpelt,Tuinwijk,3,51.2311872158,5.4531095335
3910,Neerpelt,Azalealaan,4,51.2226869565,5.44765439658
3910,Neerpelt,Overwegstraat,20,51.242353184,5.44039204848
3910,Neerpelt,Broeseinderdijk,22,51.2377839731,5.42773234514
3910,Neerpelt,Lavendelstraat,12,51.2272701392,5.44906393138
3910,Neerpelt,Boseind,4,51.2239266013,5.43871545653
3910,Neerpelt,Molenbroekstraat,27,51.2158055249,5.43958215674
3910,Neerpelt,Schansstraat,21,51.2405934781,5.42445518789
3910,Neerpelt,Hayenhoek,114,51.2441911892,5.43777375921
3910,Neerpelt,Lillerheidestraat,18,51.23700861,5.48273595996
3910,Neerpelt,Woudweg,42,51.2604374366,5.44850303725
3910,Neerpelt,Hamonterweg,71,51.2379686062,5.46213095361
3910,Neerpelt,Polsstraat,18,51.2480490465,5.44176823426
3910,Neerpelt,Ganzenpas,13,51.2605116197,5.4441204219
3910,Neerpelt,Herent,197,51.2003163649,5.45900066533
3910,Neerpelt,Hayenhoek,30,51.2362201878,5.43347755357
3910,Neerpelt,Clercxhoevestraat,7,51.2300904661,5.43671869531
3910,Neerpelt,St. Antoniusweg,133,51.2299285542,5.46120847538
3910,Neerpelt,Boseind,110,51.2157223307,5.44079614974
3910,Neerpelt,Berghei,4,51.2209770422,5.50385745323
3910,Neerpelt,Wijngaardstraat,9,51.227395985,5.45433199488
3910,Neerpelt,Romeinse Dijk,80,51.2098042874,5.46292326042
3910,Neerpelt,Sparrenlaan,27,51.2168020114,5.44944274113
3910,Neerpelt,Anjerstraat,3,51.2249030763,5.45549449518
3910,Neerpelt,Lindestraat,34,51.2247300543,5.48656111953
3910,Neerpelt,Herent,55,51.207336999,5.44381944568
3910,Neerpelt,Zonhoekstraat,163,51.2440996189,5.43302824962
3910,Neerpelt,Onderwijslaan,1,51.2304855784,5.42971895552
3910,Neerpelt,Lochterdijk,56,51.2522291854,5.43118000456
3910,Neerpelt,Energiestraat,1,51.2313319296,5.44310104344
3910,Neerpelt,Hamonterweg,53,51.2375742394,5.45986501536
3910,Neerpelt,Boelehoef,7,51.235058003,5.44677192078
3910,Neerpelt,Kaulillerweg,77,51.2189826582,5.49218390348
3910,Neerpelt,Sparrenlaan,3,51.2172803877,5.44656347374
3910,Neerpelt,Kloosterstraat,3,51.2292165118,5.43183521411
3910,Neerpelt,Heidebloemstraat,16,51.2008654796,5.46299132138
3910,Neerpelt,De Roosen,20,51.2120220002,5.4448251723
3910,Neerpelt,Meidoornstraat,52,51.2256206127,5.45168463966
3910,Neerpelt,Peerderbaan,243,51.1950953202,5.46362345774
3910,Neerpelt,Korhoenstraat,16,51.2529507099,5.43382202306
3910,Neerpelt,Smeelstraat,3A,51.2241904826,5.48193616233
3910,Neerpelt,Kloosterstraat,27,51.2300649094,5.43364355429
3910,Neerpelt,Kievitstraat,33,51.2273030757,5.44368760878
3910,Neerpelt,Lillerheidestraat,36,51.2385360357,5.48230163921
3910,Neerpelt,Goudbloemstraat,9,51.2272052183,5.45273724585
3910,Neerpelt,Erkestraat,2,51.2299252427,5.48698401119
3910,Neerpelt,Broesveldstraat,40,51.2318984158,5.42881802212
3910,Neerpelt,Hayenhoek,8,51.2351785683,5.43065363787
3910,Neerpelt,Zonhoekstraat,43,51.2389750044,5.42611044428
3910,Neerpelt,Zonhoekstraat,204,51.2459286935,5.43738869742
3910,Neerpelt,Sint Jorisstraat,5,51.229393439,5.44931690621
3910,Neerpelt,Jaak Tassetstraat,12,51.2306765657,5.43383020843
3910,Neerpelt,Weidenstraat,24,51.2461153159,5.43379201622
3910,Neerpelt,Kanaalstraat,10,51.2269739206,5.48461805361
3910,Neerpelt,Roosendijk,88,51.2191852201,5.451666769
3910,Neerpelt,Veurterstraat,47,51.2203941104,5.48720676673
3910,Neerpelt,Onderwijslaan,29,51.2312052945,5.43243513233
3910,Neerpelt,Kaulillerweg,59,51.2191511068,5.48870069621
3910,Neerpelt,Tisselrietweg,28,51.2549093287,5.44822915053
3910,Neerpelt,Laerstraat,10,51.2170777921,5.43935331913
3910,Neerpelt,Bettebos,54,51.2003023908,5.44645866533
3910,Neerpelt,Hamonterweg,1,51.2351745103,5.4483470057
3910,Neerpelt,Hoekstraat,74,51.2287877021,5.42521175996
3910,Neerpelt,Plataanstraat,37,51.2271527168,5.44986251516
3910,Neerpelt,Norbertinessenlaan,41,51.2325007233,5.43049737687
3910,Neerpelt,Oude Brugstraat,7,51.2283993006,5.48182254349
3910,Neerpelt,Meidoornstraat,70,51.2247974093,5.45185691055
3910,Neerpelt,Zonhoekstraat,15,51.2372633895,5.42421675129
3910,Neerpelt,Heikant,74,51.2195699762,5.49037253422
3910,Neerpelt,Kompenstraat,6,51.2238223919,5.48316382256
3910,Neerpelt,Lavendelstraat,8,51.2275458714,5.44937527382
3910,Neerpelt,Jos Verlindenstraat,55,51.2289832834,5.47461839894
3910,Neerpelt,Roosendijk,47,51.2223732481,5.44840025747
3910,Neerpelt,Achelsendijk,34,51.2455114087,5.4452561188
3910,Neerpelt,Exschoor,14,51.2107210102,5.48946731415
3910,Neerpelt,Molenstraat,37,51.2289322527,5.44486785979
3910,Neerpelt,Zonhoekstraat,139,51.242673472,5.4306999332
3910,Neerpelt,Grote Heide,21,51.2481874328,5.43900662477
3910,Neerpelt,Zandstraat,78,51.2230089081,5.47200731787
3910,Neerpelt,Hulststraat,2,51.2255193079,5.44144419306
3910,Neerpelt,Nachtegaalstraat,55,51.217231721,5.45091384638
3910,Neerpelt,Toekomstlaan,11,51.2325790164,5.42450723013
3910,Neerpelt,Distelstraat,15,51.2295933218,5.44549992609
3910,Neerpelt,Kastanjedreef,1,51.2338380771,5.41326438416
3910,Neerpelt,Korte-Heerstraat,1,51.2289186475,5.43500368863
3910,Neerpelt,Pater Pellensstraat,33,51.2357346756,5.46413077142
3910,Neerpelt,Groenstraat,14,51.2292583957,5.43412178636
3910,Neerpelt,De Roosen,73,51.2148577936,5.45284736057
3910,Neerpelt,Heerstraat,79,51.2297838229,5.43982972918
3910,Neerpelt,Woudweg,7,51.253096572,5.45126635933
3910,Neerpelt,De Nulenstraat,24,51.2312259631,5.47923751864
3910,Neerpelt,Sint Martensstraat,37,51.2337573634,5.42697584458
3910,Neerpelt,Boelehoef,77,51.245492798,5.44228093975
3910,Neerpelt,Damsheide,60,51.2322816911,5.45884257503
3910,Neerpelt,Larkendreef,1,51.2519957129,5.45017030745
3910,Neerpelt,Peerderbaan,215,51.1967963247,5.46588778427
3910,Neerpelt,Jos Verlindenstraat,27,51.2283945893,5.47804054671
3910,Neerpelt,De Bemmert,67,51.214169771,5.44304359736
3910,Neerpelt,Populierenhof,48,51.2329441461,5.45438568903
3910,Neerpelt,Heerstraat,44,51.2293437206,5.4373557364
3910,Neerpelt,Eikenlaan,12,51.2181378616,5.44525425804
3910,Neerpelt,Hortensialaan,14,51.2280677316,5.45195427364
3910,Neerpelt,Wildlaan,29,51.2587306898,5.4502897858
3910,Neerpelt,Vennenstraat,31,51.2511755102,5.43505009983
3910,Neerpelt,Molenstraat,19,51.2293208298,5.4432015606
3910,Neerpelt,Dwarsstraat,5,51.2360775854,5.46260063501
3910,Neerpelt,Hamonterweg,25,51.2366708241,5.45541449488
3910,Neerpelt,Toekomstlaan,18,51.2319486452,5.42510575904
3910,Neerpelt,Wateringstraat,29,51.2335111547,5.45445818294
3910,Neerpelt,Madeliefjeshoek,1,51.2243287359,5.45201050457
3910,Neerpelt,Lommelsakker,11,51.2354114787,5.4359533315
3910,Neerpelt,Kaulillerweg,24,51.2203716264,5.48277366921
3910,Neerpelt,Biezenweg,7,51.225165228,5.43994688199
3910,Neerpelt,Larkendreef,25,51.2566945338,5.44808717108
3910,Neerpelt,Jos Verlindenstraat,3,51.2277286938,5.48081993838
3910,Neerpelt,Breughelstraat,52,51.1944267572,5.44226118399
3910,Neerpelt,Vennenstraat,13,51.2517395514,5.43747292542
3910,Neerpelt,Fabriekstraat,40,51.2299638187,5.42566853002
3910,Neerpelt,Jaak Tassetstraat,30,51.2319237371,5.43310186691
3910,Neerpelt,Nachtegaalstraat,3,51.2213622361,5.44636973447
3910,Neerpelt,Koningin Astridlaan,2,51.2303442018,5.42701929499
3910,Neerpelt,Hayenhoek,83,51.2415512349,5.43602227067
3910,Neerpelt,Hofstraat,1,51.2218849279,5.48440012552
3910,Neerpelt,Toekomstlaan,36,51.2332691582,5.42512682731
3910,Neerpelt,Boseind,15,51.2271319832,5.43928385676
3910,Neerpelt,Populierenhof,14,51.233489749,5.44946705498
3910,Neerpelt,Damsheide,10,51.2366178803,5.46116775357
3910,Neerpelt,Broeseinderdijk,9,51.2364920462,5.42739037753
3910,Neerpelt,Peerderbaan,14,51.2262027989,5.48122518105
3910,Neerpelt,Mezenweg,9,51.25114582,5.45270856592
3910,Neerpelt,Plataanstraat,19,51.2263297141,5.44947276408
3910,Neerpelt,Tikbroeken,21,51.2213743191,5.43975136565
3910,Neerpelt,Tongersvenweg,8,51.2065332426,5.44508469026
3910,Neerpelt,Slagmolenstraat,1,51.2207473919,5.43612678382
3910,Neerpelt,Spoorwegstraat,19,51.2203237352,5.43971190124
3910,Neerpelt,Korte Dijk,26,51.2242877782,5.49416588017
3910,Neerpelt,Haagdoornstraat,11,51.2288527402,5.4424418311
3910,Neerpelt,Vlasrootweg,41,51.2550885678,5.43162888179
3910,Neerpelt,Kolisheide,33,51.1971373417,5.46244225413
3910,Neerpelt,Turfheidestraat,1,51.2541987173,5.43336867865
3910,Neerpelt,Broesveldstraat,5,51.2293820427,5.42978044307
3910,Neerpelt,Hortensialaan,32,51.227782789,5.4506471
3910,Neerpelt,Wateringstraat,40,51.232387251,5.45536468502
3910,Neerpelt,Grote Heide,62,51.2513553164,5.44042647838
3910,Neerpelt,Kievitstraat,43,51.227267084,5.44457055048
3910,Neerpelt,Olmenstraat,28,51.2093564483,5.4517625457
3910,Neerpelt,Papaverstraat,23,51.2305440927,5.44859649565
3910,Neerpelt,Weidenstraat,52,51.2484200649,5.42963241879
3910,Neerpelt,Bosuilstraat,5,51.2227729305,5.49648977432
3910,Neerpelt,Peerderbaan,85,51.2197764588,5.4783100517
3910,Neerpelt,Eindstraat,1,51.2406783105,5.43762166741
3910,Neerpelt,Grote Heide,80,51.2531014806,5.44003850404
3910,Neerpelt,Kievitstraat,61,51.2270659393,5.44706187553
3910,Neerpelt,Broesveldstraat,29,51.2301600692,5.42950952099
3910,Neerpelt,Holenweg,19,51.2399515962,5.4591973714
3910,Neerpelt,Hamonterweg,124,51.2404848272,5.47814347246
3910,Neerpelt,Look,36,51.224339374,5.44693549595
3910,Neerpelt,Zonnebloemweg,33,51.2247140427,5.4495438022
3910,Neerpelt,Zonhoekstraat,198,51.2457809351,5.43661003504
3910,Neerpelt,Populierenhof,32,51.2328687073,5.45152639155
3910,Neerpelt,Clercxhoevestraat,24,51.2309493201,5.43625902338
3910,Neerpelt,Riet,3,51.2238904841,5.46464741213
3910,Neerpelt,Hayenhoek,12,51.2352633722,5.43094982982
3910,Neerpelt,Geerkensstraat,38,51.2223282762,5.48738661365
3910,Neerpelt,Koningin Astridlaan,14,51.2309368297,5.42695286446
3910,Neerpelt,Oude Ramp,22,51.2343227614,5.44871258708
3910,Neerpelt,Distelstraat,4,51.229182875,5.44610107357
3910,Neerpelt,Peerderbaan,171,51.2106660209,5.47287338347
3910,Neerpelt,O. L. Vrouwstraat,3,51.2463068145,5.43676818401
3910,Neerpelt,Vlasrootweg,18A,51.2541658713,5.43457996359
3910,Neerpelt,Klimopstraat,5,51.2262438973,5.45394222819
3910,Neerpelt,Boelehoef,59,51.2443521022,5.4444620922
3910,Neerpelt,Begonialaan,26,51.2258259339,5.45549311528
3910,Neerpelt,Korte Dijk,6,51.2243595461,5.49117585973
3910,Neerpelt,Boelehoef,24,51.2420795073,5.44912689271
3910,Neerpelt,De Roosen,27,51.2131479155,5.44655105455
3910,Neerpelt,De Nulenstraat,42,51.2316086654,5.47704178708
3910,Neerpelt,Hulststraat,9,51.225414954,5.44124480006
3910,Neerpelt,Torenstraat,12,51.1982096862,5.46703434315
3910,Neerpelt,Herent,190,51.1998264716,5.45944521527
3910,Neerpelt,Tisselrietweg,56,51.2601615028,5.44435632075
3910,Neerpelt,Lavendelstraat,19,51.2266601095,5.44871148557
3910,Neerpelt,Broeseinderdijk,29,51.2384245054,5.42703433944
3910,Neerpelt,Hamonterweg,106,51.2393249787,5.47095114407
3910,Neerpelt,Oude Ramp,2,51.2338043561,5.44820012776
3910,Neerpelt,Fabriekstraat,5,51.2298975408,5.42844204357
3910,Neerpelt,Krekelweg,19,51.2199865046,5.4427369619
3910,Neerpelt,Pater Pellensstraat,51,51.2341609681,5.46417366492
3910,Neerpelt,Vinkendreef,4,51.2514179357,5.45108824677
3910,Neerpelt,Kruisstraat,30,51.2292535079,5.47837727081
3910,Neerpelt,Bettebos,26,51.2000001088,5.44363407261
3910,Neerpelt,Heerstraat,16,51.2286631798,5.43572987703
3910,Neerpelt,Rikkaartstraat,3,51.2208307438,5.48596011453
3910,Neerpelt,Kloosterstraat,20,51.2295025725,5.43389929432
3910,Neerpelt,Korenbloemstraat,16,51.2255252513,5.44789005713
3910,Neerpelt,Turfheidestraat,25,51.2529237206,5.43187669962
3910,Neerpelt,Sparrenlaan,20,51.2163378844,5.44743683372
3910,Neerpelt,Stationsstraat,17,51.2273484918,5.43568058313
3910,Neerpelt,Zonhoekstraat,104,51.2400556448,5.427581646
3910,Neerpelt,Halmstraat,12,51.2293605175,5.44845366287
3910,Neerpelt,Beukenlaan,6,51.217176311,5.44230590783
3910,Neerpelt,Torenstraat,30,51.19761952,5.4695167051
3910,Neerpelt,Broeseinderdijk,146,51.244095012,5.42579717793
3910,Neerpelt,Jos Verlindenstraat,108,51.2292606542,5.46982835832
3910,Neerpelt,Holenweg,30,51.2396434921,5.46105169061
3910,Neerpelt,Molenbroekstraat,20,51.2166126807,5.43856970698
3910,Neerpelt,Boseind,78,51.2181925153,5.44077582775
3910,Neerpelt,Veurterstraat,53,51.2205608236,5.48759082633
3910,Neerpelt,Heerstraat,34,51.2291468892,5.43692442291
3910,Neerpelt,Boseind,109,51.2206009693,5.44240571152
3910,Neerpelt,Overwegstraat,27,51.2426280277,5.44077402416
3910,Neerpelt,Anjerstraat,20,51.2256812249,5.45319154775
3910,Neerpelt,Schutterijstraat,18,51.2196828076,5.47989601624
3910,Neerpelt,St. Antoniusweg,34,51.231492833,5.44657673487
3910,Neerpelt,Priestbosstraat,4,51.2208129495,5.48043171617
3910,Neerpelt,Goudbloemstraat,2,51.2273896759,5.45204158946
3910,Neerpelt,Klein-Molenstraat,2,51.2274935996,5.44552956698
3910,Neerpelt,Tikbroeken,28,51.2207228696,5.43789451785
3910,Neerpelt,Hayenhoek,37,51.237255605,5.43371315483
3910,Neerpelt,Erkestraat,9,51.2308162598,5.48780176334
3910,Neerpelt,Onderwijslaan,12,51.230551071,5.43095420389
3910,Neerpelt,Peerderbaan,50,51.222856118,5.4792494758
3910,Neerpelt,Spoorwegstraat,30,51.2200416882,5.43940023338
3910,Neerpelt,Boseind,96,51.2170076772,5.44082028107
3910,Neerpelt,Broesveldstraat,57,51.2316964685,5.42821192514
3910,Neerpelt,Hazenstraat,23A,51.2281205475,5.43777322412
3910,Neerpelt,Kievitstraat,4,51.2272483563,5.43987337312
3910,Neerpelt,Bienderstraat,7,51.2387270594,5.46352665814
3910,Neerpelt,Kanaalstraat,17,51.2287548367,5.4851002514
3910,Neerpelt,Hamonterweg,47,51.2376930001,5.45886998107
3910,Neerpelt,Broeseinderdijk,111,51.2406374621,5.42618198344
3910,Neerpelt,Torbeekstraat,12,51.2224811445,5.47734718886
3910,Neerpelt,Herent,27,51.2098902981,5.44330044853
3910,Neerpelt,Geuskens,43,51.2405008214,5.4871780569
3910,Neerpelt,Kaulillerweg,42,51.2191797548,5.48517017152
3910,Neerpelt,Jaak Tassetstraat,19,51.2309721637,5.4330585056
3910,Neerpelt,Steenovenlaan,5,51.2240037389,5.48704274512
3910,Neerpelt,Hoekstraat,21,51.2281001177,5.42780228074
3910,Neerpelt,Roosendijk,53,51.2220357056,5.44922557743
3910,Neerpelt,Jos Verlindenstraat,126,51.2296162943,5.46776902658
3910,Neerpelt,Acaciastraat,6,51.2227796076,5.44612064636
3910,Neerpelt,Wijngaardstraat,2,51.2266646236,5.45500587154
3910,Neerpelt,Broekkant,66A,51.2318864078,5.48685583196
3910,Neerpelt,Broeseinderdijk,164,51.2459507671,5.42525165169
3910,Neerpelt,Grote Heide,118A,51.26116472,5.43740303991
3910,Neerpelt,Eikenlaan,37,51.2177315103,5.4471504687
3910,Neerpelt,Lepelstraat,74,51.2273217676,5.44809659937
3910,Neerpelt,De Bemmert,49,51.2155458894,5.44552873651
3910,Neerpelt,Hamonterweg,8,51.2350846716,5.4495508824
3910,Neerpelt,Lindestraat,44,51.2244918023,5.48825485677
3910,Neerpelt,Boseind,127,51.2191678457,5.44136153208
3910,Neerpelt,Norbertinessenlaan,23,51.2312127878,5.43131234942
3910,Neerpelt,De Roosen,91,51.2164180089,5.45701036419
3910,Neerpelt,Roosendijk,25,51.2219026284,5.44416468163
3910,Neerpelt,Pastorijstraat,13,51.2275239945,5.4310372307
3910,Neerpelt,Lochterdijk,28,51.2502051083,5.43543066248
3910,Neerpelt,Hoevestraat,9,51.2170735949,5.48905756283
3910,Neerpelt,Grote Heide,105,51.2571788511,5.43721141317
3910,Neerpelt,Stationsstraat,35,51.2254560987,5.43690079077
3910,Neerpelt,Stationsstraat,81,51.2216325598,5.43658552924
3910,Neerpelt,Roosendijk,71,51.2204861104,5.45070055824
3910,Neerpelt,Hayenhoek,1,51.2347845534,5.43040524164
3910,Neerpelt,Hamonterweg,152,51.2415783046,5.48392164376
3910,Neerpelt,Dijkstraat,7,51.201835355,5.44135319439
3910,Neerpelt,Vennenstraat,38,51.2511369075,5.43353831581
3910,Neerpelt,Kerkstraat,13,51.2286554663,5.43144816162
3910,Neerpelt,Eikenlaan,19,51.2190048281,5.44608876532
3910,Neerpelt,Larkendreef,8,51.2532993176,5.45050584458
3910,Neerpelt,Lillerheidestraat,54,51.240238358,5.48223350044
3910,Neerpelt,Herenthoek,3,51.1900132627,5.44128694567
3910,Neerpelt,Lepelstraat,18,51.2236412997,5.44173694299
3910,Neerpelt,Brouwersstraat,5,51.2294166722,5.42794431525
3910,Neerpelt,Dwarsstraat,22,51.23740121,5.46337320356
3910,Neerpelt,Turfheidestraat,71,51.254468216,5.43005858946
3910,Neerpelt,Herent,126,51.2022410952,5.44792008522
3910,Neerpelt,Polsstraat,46,51.2507957281,5.44076467965
3910,Neerpelt,Beekstraat,9,51.2121807103,5.43960649481
3910,Neerpelt,Heerstraat,62,51.2294221781,5.43845081128
3910,Neerpelt,Veldstraat,5,51.2251812787,5.47841084941
3910,Neerpelt,Veurterstraat,25,51.2208602308,5.4846661832
3910,Neerpelt,Jasmijnstraat,3,51.2260834916,5.45499303811
3910,Neerpelt,Lepelstraat,36,51.223764288,5.44391103106
3910,Neerpelt,Pater Pellensstraat,3A,51.2374380691,5.46435283603
3910,Neerpelt,Nachtegaalstraat,20,51.2195092153,5.4465722284
3910,Neerpelt,Heerstraat,80,51.2295977813,5.44189661312
3910,Neerpelt,Damsheide,17,51.236201849,5.46192681208
3910,Neerpelt,Wateringstraat,22,51.2337321049,5.45347992099
3910,Neerpelt,Breughelstraat,69,51.192120112,5.44392650454
3910,Neerpelt,Turfheidestraat,53,51.2530802063,5.43000732709
3910,Neerpelt,De Bemmert,2,51.2199780646,5.4413900599
3910,Neerpelt,Jaak Tassetstraat,37,51.2316456806,5.43253481901
3910,Neerpelt,Tisselrietweg,21,51.2524576563,5.44809596325
3910,Neerpelt,Kerkstraat,31,51.2287116947,5.4305630699
3910,Neerpelt,Turfheidestraat,47,51.2526604428,5.43033424225
3910,Neerpelt,Zonnebloemweg,4,51.2249500359,5.44738669611
3910,Neerpelt,Jos Verlindenstraat,20,51.2277159851,5.47915056196
3910,Neerpelt,Peerderbaan,196,51.1993655312,5.46532398221
3910,Neerpelt,St. Antoniusweg,80,51.2311267104,5.45398194948
3910,Neerpelt,Madeliefjeshoek,8,51.2244867318,5.45121993168
3910,Neerpelt,Acaciastraat,16,51.2239507721,5.44585053345
3910,Neerpelt,Molenstraat,12,51.2294371146,5.44242423066
3910,Neerpelt,Langveldweg,25,51.2452937147,5.44126763318
3910,Neerpelt,Koningin Astridlaan,9,51.2305897655,5.42647965514
3910,Neerpelt,O. L. Vrouwstraat,20,51.2477914198,5.43588828135
3910,Neerpelt,Heerstraat,6,51.2284518889,5.43504741065
3910,Neerpelt,Haagdoornstraat,18,51.2283414748,5.44225867281
3910,Neerpelt,Vlasrootweg,58,51.2563494043,5.42849255974
3910,Neerpelt,Achelsendijk,44,51.2459047784,5.45078981945
3910,Neerpelt,Spoorwegstraat,12,51.2189534871,5.43813447774
3910,Neerpelt,Dommelweg,4,51.2186906192,5.43969483574
3910,Neerpelt,Grote Heide,79,51.2530286648,5.4393640004
3910,Neerpelt,Clercxhoevestraat,2B,51.2297981658,5.43747096474
3910,Neerpelt,Broesveldstraat,22,51.2306781727,5.42955381978
3910,Neerpelt,Nieuwstraat,3,51.230510233,5.43425250041
3910,Neerpelt,Haagdoornstraat,36,51.226200297,5.44205257146
3910,Neerpelt,Pater Pellensstraat,4,51.2374400906,5.4637272464
3910,Neerpelt,Peerderbaan,107,51.2178023148,5.47721641126
3910,Neerpelt,Volmolenstraat,15,51.2353642323,5.42700146771
3910,Neerpelt,Vlasrootweg,23,51.254149483,5.43525099982
3910,Neerpelt,Broekkant,60,51.2337028229,5.48767966391
3910,Neerpelt,Herent,108,51.2017492643,5.4439700284
3910,Neerpelt,Zonhoekstraat,191,51.2460555628,5.43633059881
3910,Neerpelt,Damsheide,59,51.2320115821,5.45943475656
3910,Neerpelt,Boskantstraat,4,51.2234753514,5.44262813054
3910,Neerpelt,Geerkensstraat,31,51.2221069163,5.4886056849
3910,Neerpelt,Voort,4,51.2226944568,5.48873919697
3910,Neerpelt,Jos Verlindenstraat,91,51.2296031378,5.47020570197
3910,Neerpelt,Hayenhoek,19,51.2359064439,5.43194179044
3910,Neerpelt,Schansstraat,28,51.2410577415,5.4250723456
3910,Neerpelt,Elzenstraat,13,51.2302936143,5.45189120185
3910,Neerpelt,Turfheidestraat,8,51.2541704905,5.43277956339
3910,Neerpelt,Boseind,43,51.224001231,5.43935851461
3910,Neerpelt,Bienderstraat,35,51.24195035,5.46332287366
3910,Neerpelt,Kapelweg,25,51.2000616847,5.44707580182
3910,Neerpelt,Peerderbaan,125,51.2163683422,5.47621771617
3910,Neerpelt,Korenbloemstraat,6,51.2248069339,5.44586817897
3910,Neerpelt,Berkendreef,4,51.2318769333,5.41572879292
3910,Neerpelt,Damsheide,35,51.2343909625,5.46131327351
3910,Neerpelt,Peerderbaan,39,51.2243146831,5.48082262992
3910,Neerpelt,Schoolstraat,21,51.2242734512,5.48387194009
3910,Neerpelt,Hageheidestraat,11,51.2537780394,5.43176828529
3910,Neerpelt,Tussenstraat,1,51.2398629124,5.41896689197
3910,Neerpelt,St. Antoniusweg,6,51.2308733793,5.44401110548
3910,Neerpelt,Distelstraat,29A,51.2299253593,5.44636092701
3910,Neerpelt,Windmolenstraat,5,51.2228727776,5.48213129487
3910,Neerpelt,Holenweg,12,51.2393697448,5.4577027236
3910,Neerpelt,Beukenlaan,34,51.2163519487,5.44451407868
3910,Neerpelt,Sint Martensstraat,20,51.2331639194,5.42677207018
3910,Neerpelt,Plataanstraat,1,51.2266738544,5.44816147538
3910,Neerpelt,Lochterdijk,46,51.2515246606,5.43267412525
3910,Neerpelt,Polsstraat,28,51.2493847051,5.44118925942
3910,Neerpelt,Nachtegaalstraat,83,51.2155787971,5.45304691293
3910,Neerpelt,Kanaalstraat,7,51.2278037791,5.48451766699
3910,Neerpelt,Volmolenstraat,33,51.2356538071,5.42429383069
3910,Neerpelt,Populierenhof,9,51.2342702123,5.45152818356
3910,Neerpelt,Hayenhoek,20,51.2355894489,5.43198553152
3910,Neerpelt,Bosbessenlaan,33,51.2236251021,5.44715989905
3910,Neerpelt,Romeinse Dijk,72,51.2104358276,5.46150162979
3910,Neerpelt,Holenweg,27,51.2399917352,5.46082814884
3910,Neerpelt,Hoekstraat,64,51.2281105758,5.42606215032
3910,Neerpelt,Amandusstraat,12,51.2463269112,5.44013043993
3910,Neerpelt,Spoorwegstraat,1,51.2200648045,5.43731342284
3910,Neerpelt,Norbertinessenlaan,38,51.2314434884,5.43185811552
3910,Neerpelt,Schoolstraat,18,51.2247859282,5.48347261814
3910,Neerpelt,Herent,8,51.2115111123,5.44146711155
3910,Neerpelt,Laerstraat,7,51.2167537164,5.43952307463
3910,Neerpelt,Hayenhoek,124,51.2457298406,5.43905928125
3910,Neerpelt,Korhoenstraat,26,51.2535863631,5.43465694439
3910,Neerpelt,Fabriekstraat,24,51.2301073445,5.42742969632
3910,Neerpelt,Pastorijstraat,4,51.2279763179,5.43112915102
3910,Neerpelt,Hageheidestraat,2,51.2547548659,5.43234124599
3910,Neerpelt,Meidoornstraat,42,51.225768636,5.4509520795
3910,Neerpelt,Lillerheidestraat,26,51.2377483395,5.48253598653
3910,Neerpelt,Broeseinderdijk,32,51.2384507968,5.42763179962
3910,Neerpelt,Fierkens-Heikant,5,51.2274830407,5.48940995305
3910,Neerpelt,De Roosen,30,51.2123335194,5.44620175233
3910,Neerpelt,Beukenlaan,16,51.2173087187,5.44328543722
3910,Neerpelt,Polsstraat,2,51.2460054564,5.44238957773
3910,Neerpelt,Hamonterweg,81,51.2383575711,5.46351997838
3910,Neerpelt,Haagdoornstraat,21,51.2284054601,5.44275537506
3910,Neerpelt,Toekomstlaan,15A,51.2330408947,5.42462680496
3910,Neerpelt,Kolisheide,6,51.1986775121,5.46264507605
3910,Neerpelt,O. L. Vrouwstraat,19,51.2478307035,5.4352705699
3910,Neerpelt,Tikbroeken,11,51.2219336165,5.43891004047
3910,Neerpelt,Akkerstraat,11,51.2305394609,5.44812934317
3910,Neerpelt,Herfststraat,1,51.2269972797,5.45040408698
3910,Neerpelt,Herent,65,51.2059262208,5.44435101342
3910,Neerpelt,Rikkaartstraat,13,51.2216824822,5.48582779414
3910,Neerpelt,Kaulillerweg,87,51.2175464408,5.49358925606
3910,Neerpelt,Roosendijk,10,51.2213616991,5.44201397719
3910,Neerpelt,Dorpsstraat,15,51.2266004637,5.48432692791
3910,Neerpelt,Fierkens-Heikant,42,51.2261177852,5.4944359995
3910,Neerpelt,Jos Verlindenstraat,83,51.2294182804,5.47119295949
3910,Neerpelt,Meidoornstraat,5,51.2251691303,5.45060931321
3910,Neerpelt,Herent,169,51.201128814,5.45448422267
3910,Neerpelt,Zonhoekstraat,173,51.2447421596,5.43402728989
3910,Neerpelt,De Kentings,5,51.2211960766,5.44483505873
3910,Neerpelt,Tisselrietweg,18,49.2933351651,2.30668956214
3910,Neerpelt,Boseind,51,51.2235070139,5.43981313012
3910,Neerpelt,Kaulillerweg,69,51.2190838182,5.49017474562
3910,Neerpelt,Broeseinderdijk,118,51.2415359689,5.42647963956
3910,Neerpelt,Kaulillerweg,103,51.2169811096,5.49450328223
3910,Neerpelt,Herent,206,51.1991811582,5.46219230805
3910,Neerpelt,Turfheidestraat,10,51.2540556595,5.43261406471
3910,Neerpelt,Meidoornstraat,60,51.225267266,5.4519860848
3910,Neerpelt,Tisselrietweg,36,51.2565125371,5.44735434522
3910,Neerpelt,Bermstraat,15,51.2328892401,5.43084744037
3910,Neerpelt,Overwegstraat,8,51.2431915986,5.43867656342
3910,Neerpelt,Nieuwstraat,31,51.2328056301,5.43746980306
3910,Neerpelt,Turfheidestraat,63,51.2538356082,5.42945183691
3910,Neerpelt,Heerstraat,54,51.2293839474,5.43799678867
3910,Neerpelt,Broesveldstraat,50,51.2324820659,5.42868024601
3910,Neerpelt,Oude-Kerkhofstraat,28,51.2303259963,5.43773162835
3910,Neerpelt,Bakkersstraatje,4,51.2455058787,5.43729492304
3910,Neerpelt,Heikant,46,51.2221181652,5.48963780091
3910,Neerpelt,Broeseinderdijk,136,51.2430341071,5.42594767795
3910,Neerpelt,Watermolenstraat,5,51.2215724895,5.43483586595
3910,Neerpelt,Jos Verlindenstraat,19,51.228206677,5.47905888765
3910,Neerpelt,Hayenhoek,47,51.2382893868,5.43412014071
3910,Neerpelt,Amandusstraat,8,51.2467508962,5.44044197388
3910,Neerpelt,Herent,30,51.2095278599,5.44258726131
3910,Neerpelt,Eikenlaan,20,51.2181057348,5.44665814167
3910,Neerpelt,Lepelstraat,21,51.2241141188,5.44292630545
3910,Neerpelt,Bettebos,44,51.2010423745,5.44556445254
3910,Neerpelt,Boelehoef,31A,51.2363381808,5.44851344906
3910,Neerpelt,Vrijheidsstraat,15,51.2278389197,5.43645003716
3910,Neerpelt,Zonhoekstraat,155,51.2436013031,5.4322039609
3910,Neerpelt,Plataanstraat,27,51.2266846092,5.44977777909
3910,Neerpelt,Herent,187,51.2006675244,5.45749645791
3910,Neerpelt,Nieuwstraat,13,51.2307947212,5.43502243208
3910,Neerpelt,Jachtweg,1,51.2366627401,5.40725825147
3910,Neerpelt,Hortensialaan,9,51.2275928271,5.45167951532
3910,Neerpelt,Turfheidestraat,45,51.2527916424,5.43044910817
3910,Neerpelt,Zandstraat,68,51.2230981253,5.47539620084
3910,Neerpelt,Peerderbaan,9,51.2264531454,5.48190375235
3910,Neerpelt,Nachtegaalstraat,19,51.2197855207,5.44692001921
3910,Neerpelt,Biezenweg,16,51.2236303844,5.44036425398
3910,Neerpelt,Vlasrootweg,3,51.2549211524,5.43745713823
3910,Neerpelt,Lochterdijk,64,51.2524513726,5.43050237158
3910,Neerpelt,Zonhoekstraat,129,51.2420604953,5.42956875617
3910,Neerpelt,Lochterdijk,11,51.2493151657,5.43700491054
3910,Neerpelt,Kruisstraat,1,51.227986901,5.48111258621
3910,Neerpelt,Hoekstraat,46,51.2282810241,5.42746650761
3910,Neerpelt,Willebrordusstraat,5,51.2015034958,5.45083031246
3910,Neerpelt,Hazenstraat,16,51.2283172228,5.43658126217
3910,Neerpelt,Kampstraat,5,51.2181929097,5.485568364
3910,Neerpelt,Volmolenstraat,41,51.2355032192,5.42330897957
3910,Neerpelt,Roosendijk,45,51.2223708253,5.44814395845
3910,Neerpelt,Ankerweg,13,51.2308869555,5.4398631105
3910,Neerpelt,Grote Heide,115,51.2622142904,5.43597017464
3910,Neerpelt,Bosbessenlaan,41,51.223647197,5.44779215939
3910,Neerpelt,Molenstraat,116,51.2293169859,5.45675802853
3910,Neerpelt,Vrijheidsstraat,6,51.2274288582,5.43637707299
3910,Neerpelt,Fabriekstraat,50,51.2299092578,5.4238472523
3910,Neerpelt,Erkestraat,29,51.2305468162,5.49001499056
3910,Neerpelt,Heikant,18,51.2249483657,5.48988655869
3910,Neerpelt,Kievitstraat,51,51.227286431,5.44548626673
3910,Neerpelt,Dorpsstraat,43,51.2268132362,5.48881315537
3910,Neerpelt,Papaverstraat,31,51.2305311067,5.44946642763
3910,Neerpelt,Peerderbaan,225,51.1965889597,5.46458808622
3910,Neerpelt,Broekkant,69,51.2310733214,5.48701715361
3910,Neerpelt,Torbeekstraat,1,51.2218915889,5.47858588349
3910,Neerpelt,Heerstraat,89,51.2301151899,5.44131406525
3910,Neerpelt,Peerderbaan,207,51.1979531427,5.46535915105
3910,Neerpelt,Vlasrootweg,38,51.2556270428,5.43137629743
3910,Neerpelt,Peerderbaan,100,51.2182414271,5.47626953254
3910,Neerpelt,Papaverstraat,13,51.2305855278,5.44653899103
3910,Neerpelt,Toekomstlaan,2,51.2300928602,5.42460752044
3910,Neerpelt,Wateringstraat,39,51.2326390927,5.45578923011
3910,Neerpelt,Buizerdstraat,5,51.2550512078,5.4297432576
3910,Neerpelt,Hamonterweg,35,51.2370077621,5.45683900955
3910,Neerpelt,Venderstraat,42,51.234569943,5.48302602361
3910,Neerpelt,Roosendijk,63,51.2210829222,5.45001212963
3910,Neerpelt,Hamonterweg,132,51.2407138104,5.47953834673
3910,Neerpelt,Molenstraat,91,51.2288411775,5.45192429442
3910,Neerpelt,De Beerten,5,51.2377257366,5.48474173788
3910,Neerpelt,Kerkstraat,4,51.2284565313,5.43339589924
3910,Neerpelt,Peerderbaan,93,51.2191387941,5.47779801724
3910,Neerpelt,Jos Verlindenstraat,37,51.2286187219,5.47664809078
3910,Neerpelt,Kapelweg,10,51.1990704192,5.44456269281
3910,Neerpelt,Boegstraat,5,51.2309770432,5.44071408809
3910,Neerpelt,Torenstraat,10,51.1981108981,5.46671466764
3910,Neerpelt,Herent,12,51.2112532115,5.44188237203
3910,Neerpelt,Oude Ramp,14,51.2339685456,5.44919866011
3910,Neerpelt,Hayenhoek,73,51.2407887034,5.43561111634
3910,Neerpelt,Langveldweg,10,51.2444960307,5.43948035016
3910,Neerpelt,Jaak Tassetstraat,20,51.2310924655,5.43336507956
3910,Neerpelt,Slagmolenstraat,17,51.2207357338,5.43474958511
3910,Neerpelt,Lochterdijk,36,51.2507389117,5.43423165983
3910,Neerpelt,Look,28,51.2245644393,5.44746051514
3910,Neerpelt,De Roosen,12,51.2118335252,5.44364666409
3910,Neerpelt,Boseind,155,51.2160028161,5.44134879677
3910,Neerpelt,Vennenstraat,23,51.2514702743,5.43614505548
3910,Neerpelt,Boseind,102,51.216548121,5.44081271427
3910,Neerpelt,Dorpsstraat,6,51.226955386,5.48290489648
3910,Neerpelt,De Roosen,65,51.2147369023,5.45164984946
3910,Neerpelt,Grote Heide,72,51.2523409644,5.44021037551
3910,Neerpelt,Haagdoornstraat,48,51.2254037243,5.4428770131
3910,Neerpelt,Molenbroekstraat,19,51.216500315,5.43924443816
3910,Neerpelt,Veurterstraat,10,51.2225862349,5.48441448403
3910,Neerpelt,Hamonterweg,17,51.2364738347,5.45408762794
3910,Neerpelt,Broesveldstraat,39,51.2307881377,5.42904002484
3910,Neerpelt,Riesel,8,51.2212462544,5.48737366376
3910,Neerpelt,Breughelstraat,60,51.1934672003,5.44238272561
3910,Neerpelt,Hortensialaan,22,51.2278993848,5.45133372835
3910,Neerpelt,Wandeldreef,2,51.2334222913,5.41452869528
3910,Neerpelt,Schansstraat,11,51.2395558156,5.42470074906
3910,Neerpelt,Lavendelstraat,20,51.2266026868,5.44902411633
3910,Neerpelt,Boelehoef,69,51.2448751445,5.44346847269
3910,Neerpelt,De Bemmert,75,51.214040398,5.44202670534
3910,Neerpelt,Anjerstraat,19,51.2253511025,5.45322466493
3910,Neerpelt,Veurterstraat,45,51.2202281639,5.48700753104
3910,Neerpelt,Kompenstraat,16,51.2214118502,5.48222364712
3910,Neerpelt,Hayenhoek,55,51.2389997051,5.43423118875
3910,Neerpelt,Sint Jorisstraat,14,51.2291289982,5.45015936035
3910,Neerpelt,Kloosterstraat,19,51.2298154719,5.43352216713
3910,Neerpelt,Grote Heide,90,51.2540475148,5.44151468335
3910,Neerpelt,Peerderbaan,22,51.225633549,5.48078081012
3910,Neerpelt,Larkendreef,17,51.2550424479,5.44885051606
3910,Neerpelt,Peerderbaan,75,51.2205692634,5.47894804437
3910,Neerpelt,Jaak Tassetstraat,47,51.2319913608,5.43231032936
3910,Neerpelt,Overwegstraat,12,51.2427929836,5.43959343356
3910,Neerpelt,Hamonterweg,114,51.2402953978,5.47660290793
3910,Neerpelt,Tuinwijk,19,51.2307900933,5.45111612333
3910,Neerpelt,Damsheide,52,51.2329980997,5.45948992823
3910,Neerpelt,Populierenhof,22,51.2329836235,5.44995173555
3910,Neerpelt,Heerstraat,26,51.2289600723,5.43646900333
3910,Neerpelt,Tikbroeken,36,51.2210317514,5.43869793798
3910,Neerpelt,Norbertinessenlaan,31,51.2316066439,5.43100834097
3910,Neerpelt,Groenstraat,2,51.2286100307,5.434467178
3910,Neerpelt,Onderwijslaan,20,51.2310436945,5.43262187002
3910,Neerpelt,Schoolstraat,11,51.2254516079,5.48431874673
3910,Neerpelt,Leliestraat,1,51.2250986619,5.45393187377
3910,Neerpelt,Hork,1,51.2271973098,5.51411158155
3910,Neerpelt,Peerderbaan,2,51.2271278853,5.48138857735
3910,Neerpelt,Pastorijstraat,23,51.2271780455,5.43007141403
3910,Neerpelt,Korenbloemstraat,26,51.2250064384,5.44914372273
3910,Neerpelt,St. Antoniusweg,26,51.2314667219,5.44581226373
3910,Neerpelt,Molenstraat,8,51.2296414113,5.44232857372
3910,Neerpelt,Bettebos,16,51.2010146578,5.44329760352
3910,Neerpelt,Norbertinessenlaan,13,51.2306626373,5.43175295751
3910,Neerpelt,Weidenstraat,5,51.2443906117,5.43587881319
3910,Neerpelt,Tuinwijk,12,51.2310539864,5.45195369633
3910,Neerpelt,Herent,1,51.2118137937,5.44186193337
3910,Neerpelt,Molenstraat,55,51.2283030727,5.44649749746
3910,Neerpelt,Spoorwegstraat,20,51.2198193155,5.43831581546
3910,Neerpelt,Roosendijk,17,51.2218809995,5.44294525328
3910,Neerpelt,Peerderbaan,40,51.2238263824,5.47975203675
3910,Neerpelt,Bettebos,34,51.2006297812,5.44389469913
3910,Neerpelt,Tikbroeken,18,51.2216539241,5.43827848063
3910,Neerpelt,Willebrordusstraat,24,51.1998933867,5.45036096876
3910,Neerpelt,Turfheidestraat,35,51.2525396692,5.43123034885
3910,Neerpelt,Herent,180,51.2000867546,5.45800915794
3910,Neerpelt,Rikkaartstraat,1A,51.2204412623,5.48539593612
3910,Neerpelt,Populierenhof,40,51.2327050649,5.45305022107
3910,Neerpelt,Jaak Tassetstraat,45,51.2318943322,5.43240404551
3910,Neerpelt,Hayenhoek,27,51.2365889272,5.43307830432
3910,Neerpelt,De Roosen,37,51.2137679525,5.44764957404
3910,Neerpelt,Jagerspad,1,51.2551886765,5.45668786372
3910,Neerpelt,Holenweg,20,51.2395547781,5.45938584791
3910,Neerpelt,Hortensialaan,40,51.2276796199,5.45000559861
3910,Neerpelt,Fierkens-Heikant,59,51.2270788298,5.49527685376
3910,Neerpelt,Langveldweg,7,51.2448745428,5.43975100458
3910,Neerpelt,Boskantstraat,43,51.2230456802,5.4414781462
3910,Neerpelt,Zonnebloemweg,15,51.2248957833,5.44824826653
3910,Neerpelt,Berghei,4A,51.2230925103,5.50155464233
3910,Neerpelt,Look,21,51.2241209863,5.4482097003
3910,Neerpelt,Molenbroekstraat,30,51.2157486827,5.43903981209
3910,Neerpelt,Kapelweg,7,51.1994698304,5.44430477613
3910,Neerpelt,Tisselrietweg,46,51.2584361157,5.44642987728
3910,Neerpelt,Wijerpad,2,51.2258712407,5.48359393253
3910,Neerpelt,Plataanstraat,8,51.226081505,5.44869750073
3910,Neerpelt,Stationsstraat,71,51.2234667401,5.43729137842
3910,Neerpelt,Pater Pellensstraat,43,51.2347976852,5.46404716546
3910,Neerpelt,Kruisstraat,8,51.2288842661,5.48145142782
3910,Neerpelt,Boseind,68,51.2193069751,5.4407006951
3910,Neerpelt,Molenstraat,73,51.228571619,5.44929913306
3910,Neerpelt,Jos Verlindenstraat,116,51.2286505198,5.46837348137
3910,Neerpelt,Stationsstraat,25,51.2270189307,5.43709496435
3910,Neerpelt,Broeseinderdijk,154,51.2450016718,5.42553489518
3910,Neerpelt,Tisselrietweg,11,51.2501391699,5.44885223204
3910,Neerpelt,Turfheidestraat,17,51.2534245743,5.4324490923
3910,Neerpelt,Boseind,137,51.2181503218,5.44130447241
3910,Neerpelt,Hamonterweg,98,51.2383968997,5.46684877738
3910,Neerpelt,Volmolenstraat,4,51.2353581282,5.42982793473
3910,Neerpelt,Eikenlaan,27,51.2184503184,5.44685276772
3910,Neerpelt,Holenweg,8,51.2392824884,5.45720175858
3910,Neerpelt,Hageheidestraat,9,51.2539537027,5.43194662986
3910,Neerpelt,Pater Pellensstraat,15,51.2363573399,5.46437595951
3910,Neerpelt,Hayenhoek,91,51.2423416075,5.43629673503
3910,Neerpelt,De Roosen,1,51.2122240882,5.44157268717
3910,Neerpelt,Meidoornstraat,24,51.2249722511,5.45136649867
3910,Neerpelt,Broesveldstraat,49,51.2312161389,5.42863669486
3910,Neerpelt,Toekomstlaan,21,51.233475574,5.42455088958
3910,Neerpelt,Populierenhof,2,51.2339439195,5.44991574728
3910,Neerpelt,Boseind,33,51.2244828877,5.4389109021
3910,Neerpelt,Zonhoekstraat,112,51.2404893707,5.42795339178
3910,Neerpelt,Marktplein,6,51.2294910186,5.43064826757
3910,Neerpelt,Roosendijk,81,51.2197772487,5.45173649752
3910,Neerpelt,Molenstraat,20,51.2287915366,5.44280636817
3910,Neerpelt,Boseind,86,51.2177235055,5.44072037877
3910,Neerpelt,Jos Verlindenstraat,12,51.2275645589,5.4799969489
3910,Neerpelt,Volmolenstraat,58,51.2370787063,5.42109645847
3910,Neerpelt,Veurterstraat,7,51.2227831884,5.48528099159
3910,Neerpelt,Zonhoekstraat,33,51.2383522814,5.42540106718
3910,Neerpelt,Kaulillerweg,5,51.2217640942,5.48026215658
3910,Neerpelt,Kolisheide,43,51.1963070329,5.46197123752
3910,Neerpelt,Herent,116,51.2021011617,5.44545426332
3910,Neerpelt,Heerstraat,72,51.2295811565,5.44099480416
3910,Neerpelt,Erkestraat,22,51.2303134344,5.48941976631
3910,Neerpelt,Boskantstraat,15,51.2227592427,5.44378691583
3910,Neerpelt,Appelboomstraat,3,51.2279300241,5.45362902005
3910,Neerpelt,Nachtegaalstraat,30,51.2185665324,5.44755398331
3910,Neerpelt,Herent,41A,51.2086436073,5.44341410025
3910,Neerpelt,Dorpsstraat,5A,51.2271386153,5.48332160236
3910,Neerpelt,Madeliefjeshoek,10,51.224358518,5.45101667394
3910,Neerpelt,Heikant,11,51.2253337092,5.49035409521
3910,Neerpelt,Lepelstraat,28,51.2237504116,5.44304490005
3910,Neerpelt,Grote Heide,18,51.247700437,5.43947869022
3910,Neerpelt,Zonhoekstraat,130,51.2415945104,5.42974718078
3910,Neerpelt,De Bemmert,50,51.2153832928,5.44405588392
3910,Neerpelt,Langveldweg,17,51.2446927677,5.44075409603
3910,Neerpelt,Lillerheidestraat,44,51.2393847351,5.4823285172
3910,Neerpelt,Hoekstraat,11,51.2283531137,5.42846990813
3910,Neerpelt,Broesveldstraat,14,51.2300205063,5.42992556074
3910,Neerpelt,Bettebos,62,51.2005659421,5.44762246313
3910,Neerpelt,Dwarsstraat,14,51.2365668443,5.46316701083
3910,Neerpelt,Herent,134,51.2025434799,5.44932809576
3910,Neerpelt,Torbeekstraat,8,51.2224082028,5.47783976205
3910,Neerpelt,Slagmolenstraat,10,51.2207107095,5.435629796
3910,Neerpelt,Kapelweg,17,51.1998290659,5.44563443774
3910,Neerpelt,Turfheidestraat,81,51.2549682661,5.43042109872
3910,Neerpelt,Veurterstraat,35,51.2202506877,5.48575725289
3910,Neerpelt,Korte-Hayenhoekweg,17,51.2415381974,5.43374019193
3910,Neerpelt,Jos Verlindenstraat,30,51.2279647013,5.47819552962
3910,Neerpelt,Hamonterweg,142,51.2412742382,5.48234376281
3910,Neerpelt,Fabriekstraat,49,51.2299282389,5.42412758928
3910,Neerpelt,Geuskens,4,51.2353087296,5.4833076013
3910,Neerpelt,Pereboomstraat,4,51.2284888461,5.45349671436
3910,Neerpelt,Roosendijk,47A,51.2223416962,5.44876413543
3910,Neerpelt,Parklaan,3,51.2313261548,5.42785600671
3910,Neerpelt,Vlasrootweg,31,51.2541276914,5.43371930541
3910,Neerpelt,Geerkensstraat,23,51.2230488902,5.4876879352
3910,Neerpelt,Lillerheidestraat,6,51.2358578416,5.48280724345
3910,Neerpelt,Heerstraat,90,51.230010276,5.44227536556
3910,Neerpelt,Breughelstraat,59,51.1929426502,5.44309625683
3910,Neerpelt,Roosendijk,7,51.2216730751,5.44150079883
3910,Neerpelt,Woudweg,11A,51.2541566471,5.45078776746
3910,Neerpelt,Bienderstraat,25,51.2408764931,5.46315743433
3910,Neerpelt,Peerderbaan,29,51.2252356554,5.48133723336
3910,Neerpelt,Breughelstraat,24,51.1987356573,5.44273513553
3910,Neerpelt,Onderwijslaan,8,51.2303371471,5.43040167633
3910,Neerpelt,Schansstraat,18,51.240312398,5.42513792828
3910,Neerpelt,Sint Martensstraat,12,51.2329659165,5.42714013873
3910,Neerpelt,Bettebos,6,51.2014266851,5.44446797479
3910,Neerpelt,Peerderbaan,188,51.2000488348,5.46567072385
3910,Neerpelt,Hamonterweg,10,51.2350970455,5.44966242936
3910,Neerpelt,Haagdoornstraat,28,51.2275134838,5.44226708207
3910,Neerpelt,Toekomstlaan,9,51.2322547958,5.42449472743
3910,Neerpelt,Molenbroekstraat,12,51.2172658027,5.43810777069
3910,Neerpelt,Mereldreef,5,51.2539471639,5.44643112375
3910,Neerpelt,Peerderbaan,200,51.1989879286,5.46517402194
3910,Neerpelt,Lavendelstraat,27,51.2270042975,5.44937173155
3910,Neerpelt,Populierenhof,29,51.2330972626,5.45324678006
3910,Neerpelt,Grote Heide,89,51.2540558591,5.43899683472
3910,Neerpelt,Pinksterbloemstraat,17,51.2233664412,5.45045865731
3910,Neerpelt,Sint Martensstraat,30,51.2333271366,5.4274677929
3910,Neerpelt,Overwegstraat,19,51.2431080201,5.43993479995
3910,Neerpelt,Willebrordusstraat,42,51.1945370723,5.44541920805
3910,Neerpelt,Kolonies,34,51.2280311658,5.45701047422
3910,Neerpelt,Larkendreef,10,51.2536865917,5.45023851525
3910,Neerpelt,Sparrenlaan,12,51.2164811721,5.44638310354
3910,Neerpelt,De Bemmert,39,51.2165805094,5.44535712177
3910,Neerpelt,Kloosterstraat,12,51.2291294951,5.43246462024
3910,Neerpelt,Hamonterweg,45,51.2373926041,5.45858442881
3910,Neerpelt,Hayenhoek,106,51.2436629264,5.4374617357
3910,Neerpelt,Kievitstraat,15,51.2275539222,5.44107055526
3910,Neerpelt,Riesel,1,51.221640129,5.48913328797
3910,Neerpelt,Wateringstraat,14,51.2341925286,5.45273618048
3910,Neerpelt,Begonialaan,6,51.2276566635,5.45299185262
3910,Neerpelt,Hageheidestraat,21,51.2538117361,5.43078937766
3910,Neerpelt,Hamonterweg,160,51.2417832662,5.4854732529
3910,Neerpelt,Broekkant,70,51.2316126197,5.48653927178
3910,Neerpelt,Kerkstraat,23,51.2287648997,5.43103445807
3910,Neerpelt,Anjerstraat,12,51.2254088027,5.45420494925
3910,Neerpelt,Kapelweg,35,51.2002660516,5.4489603748
3910,Neerpelt,Zandstraat,4,51.2269655428,5.48048059768
3910,Neerpelt,Bosuilstraat,3,51.2238955585,5.49450685828
3910,Neerpelt,Kapelweg,33,51.2001723277,5.4483469467
3910,Neerpelt,Zonhoekstraat,2,51.2362191059,5.42382450594
3910,Neerpelt,Korte Dijk,24,51.2242959713,5.49370195444
3910,Neerpelt,Geerkensstraat,3,51.2237040036,5.48482090281
3910,Neerpelt,Roosendijk,86,51.2193873676,5.4514142383
3910,Neerpelt,Boelehoef,31B,51.2380753389,5.44792506897
3910,Neerpelt,Beukenlaan,15,51.2175722127,5.44397528151
3910,Neerpelt,Achelsendijk,42,51.2454124204,5.44670811855
3910,Neerpelt,Bettebos,8,51.201182937,5.44455192256
3910,Neerpelt,Kaulillerweg,9,51.2215950579,5.4808391741
3910,Neerpelt,Turfheidestraat,7,51.253875185,5.43301046474
3910,Neerpelt,Jos Verlindenstraat,111,51.2301174537,5.46698535936
3910,Neerpelt,Dorpsstraat,16,51.2265828747,5.48389514639
3910,Neerpelt,Rikkaartstraat,12,51.2211449715,5.48691487072
3910,Neerpelt,Hamonterweg,42,51.2356408838,5.45522293122
3910,Neerpelt,Hortensialaan,30,51.2278042651,5.45078547067
3910,Neerpelt,Grote Heide,14,51.2471339276,5.4394002093
3910,Neerpelt,Buizerdstraat,26,51.2534200319,5.42800860765
3910,Neerpelt,Meidoornstraat,72,51.2247192036,5.45178809374
3910,Neerpelt,Plataanstraat,41,51.2273254115,5.4497926481
3910,Neerpelt,De Roosen,57,51.2144492294,5.45057199319
3910,Neerpelt,Hayenhoek,76,51.2411069438,5.43629578782
3910,Neerpelt,Distelstraat,2,51.2290559938,5.44608596965
3910,Neerpelt,Look,29,51.2246747259,5.44730430469
3910,Neerpelt,Peerderbaan,30,51.2249384282,5.48042435443
3910,Neerpelt,Jaak Tassetstraat,51A,51.2326480836,5.4318144445
3910,Neerpelt,Dorpsstraat,34,51.2265151644,5.48561066125
3910,Neerpelt,Stationsstraat,90A,51.2206469395,5.43645973255
3910,Neerpelt,Langveldweg,24,51.244090237,5.44186177434
3910,Neerpelt,Riet,5,51.2240920844,5.46623920596
3910,Neerpelt,Geerkensstraat,27,51.222663846,5.48752952156
3910,Neerpelt,De Nulenstraat,44B,51.2317631533,5.47575109644
3910,Neerpelt,Jos Verlindenstraat,93,51.2296013254,5.4699950483
3910,Neerpelt,Broesveldstraat,36,51.2315266321,5.42915734603
3910,Neerpelt,Windmolenstraat,3,51.2228722728,5.4825282515
3910,Neerpelt,Sint Martensstraat,22,51.233271543,5.42650847633
3910,Neerpelt,Jaak Tassetstraat,14,51.2307298667,5.43370113535
3910,Neerpelt,Boseind,90,51.2172502344,5.44082743596
3910,Neerpelt,Kampstraat,10,51.2180444481,5.48492640049
3910,Neerpelt,Oude Ramp,20,51.2344777817,5.44895358958
3910,Neerpelt,Oude-Kerkhofstraat,25,51.2304019808,5.4384342225
3910,Neerpelt,Kaulillerweg,97,51.2167741085,5.49481189384
3910,Neerpelt,Vlasrootweg,37,51.2549130093,5.43209875163
3910,Neerpelt,Kielstraat,10,51.2314984427,5.44186078993
3910,Neerpelt,Lepelstraat,22,51.2237210214,5.44212444231
3910,Neerpelt,Eikenlaan,10,51.2180664874,5.44488903573
3910,Neerpelt,Boskantstraat,47,51.2229348585,5.44104054976
3910,Neerpelt,Distelstraat,26,51.2297995867,5.44689449519
3910,Neerpelt,Jos Verlindenstraat,29,51.2284228141,5.47772466575
3910,Neerpelt,Olmenstraat,6,51.213635994,5.45436083234
3910,Neerpelt,Spoorwegstraat,10A,51.2197563572,5.4378923814
3910,Neerpelt,Vrijheidsstraat,16,51.2277692346,5.43707866873
3910,Neerpelt,Nieuwstraat,12,51.23041414,5.43505953763
3910,Neerpelt,Grote Heide,32,51.2487622511,5.43967641736
3910,Neerpelt,Molenbroekstraat,25,51.2159802761,5.43954266009
3910,Neerpelt,Sparrenlaan,16,51.2161927821,5.44678837246
3910,Neerpelt,Toekomstlaan,5,51.2308562762,5.4221644561
3910,Neerpelt,Wateringstraat,27,51.2336541721,5.45430186249
3910,Neerpelt,Lommelsakker,13,51.2365212493,5.43574907262
3910,Neerpelt,Kerkstraat,18,51.2287527212,5.43269797737
3910,Neerpelt,Hazenstraat,15,51.2284257474,5.43719523183
3910,Neerpelt,Stationsstraat,8,51.2277488284,5.43461985255
3910,Neerpelt,Pater Pellensstraat,47,51.2344134793,5.46423172415
3910,Neerpelt,Torbeekstraat,6,51.2223496846,5.47808845782
3910,Neerpelt,Nachtegaalstraat,29,51.2190963161,5.44760847579
3910,Neerpelt,Eikenlaan,45,51.2174031481,5.44558138654
3910,Neerpelt,Broeseinderdijk,108,51.2408906818,5.42670514571
3910,Neerpelt,Zonhoekstraat,26,51.2384108874,5.42619558754
3910,Neerpelt,Kaulillerweg,79,51.2185429069,5.49162478164
3910,Neerpelt,Hayenhoek,112,51.2439394255,5.43750259639
3910,Neerpelt,Haagdoornstraat,57,51.2251150518,5.44395723417
3910,Neerpelt,Nachtegaalstraat,5,51.2211767963,5.44630947456
3910,Neerpelt,Herent,93,51.2033128155,5.44412514895
3910,Neerpelt,Kolisheide,44,51.1955576848,5.46229031104
3910,Neerpelt,Lavendelstraat,14,51.227111378,5.44894700486
3910,Neerpelt,Voetbalstraat,11,51.2174734766,5.44079363872
3910,Neerpelt,Jaak Tassetstraat,32,51.232094846,5.43303719234
3910,Neerpelt,Breughelstraat,17,51.1992236371,5.44340326396
3910,Neerpelt,Stationsstraat,69,51.223582421,5.43726282347
3910,Neerpelt,Heikant,39,51.2224277764,5.49026138301
3910,Neerpelt,Veurterstraat,24,51.2210077689,5.48394022781
3910,Neerpelt,Jos Verlindenstraat,75,51.2293233665,5.47215470705
3910,Neerpelt,Hamonterweg,60,51.2366252541,5.45724076165
3910,Neerpelt,Parklaan,20,51.2316056951,5.42607189366
3910,Neerpelt,Roosendijk,33,51.2221275729,5.4457995114
3910,Neerpelt,Haagdoornstraat,75,51.2227111099,5.44481837059
3910,Neerpelt,Klaverstraat,1,51.2485303614,5.42859019537
3910,Neerpelt,Boseind,26,51.222474909,5.44004579077
3910,Neerpelt,Heikant,49,51.2213747655,5.49026996463
3910,Neerpelt,Hamonterweg,7,51.2360689124,5.45253484099
3910,Neerpelt,Fabriekstraat,10,51.2302359971,5.42835066476
3910,Neerpelt,Vlasrootweg,4,51.2550753827,5.43622584086
3910,Neerpelt,Kaulillerweg,44,51.2190359425,5.48549166118
3910,Neerpelt,Geuskens,48,51.2385873017,5.48732572033
3910,Neerpelt,Turfheidestraat,59,51.2534351964,5.42939544363
3910,Neerpelt,Grote Heide,60,51.2511174235,5.44040094958
3910,Neerpelt,Sooi Willemsplein,7,51.2300279676,5.43255514848
3910,Neerpelt,Biezenweg,17,51.2243465613,5.4404437159
3910,Neerpelt,Breughelstraat,47,51.1949933866,5.4428020102
3910,Neerpelt,Tisselrietweg,2A,51.248474212,5.44984245421
3910,Neerpelt,Broeseinderdijk,172,51.2467966495,5.4250204819
3910,Neerpelt,Kolisbos,7,51.192630364,5.46542065366
3910,Neerpelt,Hoekstraat,76,51.2288829926,5.42510067201
3910,Neerpelt,Fierkens-Heikant,26,51.2272682868,5.49325173072
3910,Neerpelt,Watermolenstraat,2,51.2210818531,5.43520441212
3910,Neerpelt,De Bemmert,47,51.2159924719,5.44546061885
3910,Neerpelt,Erkestraat,19,51.2309394245,5.48857889563
3910,Neerpelt,Peerderbaan,235,51.195619409,5.46421434403
3910,Neerpelt,Ankerweg,12,51.2311455621,5.44016228755
3910,Neerpelt,Jos Verlindenstraat,57,51.2289404519,5.47438272109
3910,Neerpelt,Herent,146,51.2014908915,5.45135229271
3910,Neerpelt,Hayenhoek,23,51.2361299232,5.43240067404
3910,Neerpelt,Bienderstraat,8,51.2391063279,5.4639816541
3910,Neerpelt,Koning Albertlaan,7,51.2279470961,5.43358684168
3910,Neerpelt,Meidoornstraat,26,51.2250658203,5.45145585784
3910,Neerpelt,Haagdoornstraat,10A,51.2289171324,5.44191415005
3910,Neerpelt,Tikbroeken,14,51.2220424202,5.4383405074
3910,Neerpelt,Herent,22,51.2102961367,5.44246356525
3910,Neerpelt,Heikant,67,51.2191066279,5.49086839602
3910,Neerpelt,Vlasrootweg,19,51.2544133731,5.43555357299
3910,Neerpelt,Eikenlaan,2,51.2188503517,5.44434673963
3910,Neerpelt,Venderstraat,47,51.2340667216,5.48239626744
3910,Neerpelt,Volmolenstraat,10,51.235653914,5.42842078791
3910,Neerpelt,Nachtegaalstraat,57,51.2171450736,5.45116790533
3910,Neerpelt,St. Antoniusweg,141,51.2298740011,5.46254832446
3910,Neerpelt,Berghei,2,51.2183841669,5.50300157358
3910,Neerpelt,Kolonies,8,51.2300389612,5.45468136775
3910,Neerpelt,Meidoornstraat,2,51.2239797895,5.45037941538
3910,Neerpelt,Heerstraat,24,51.228926877,5.43624288941
3910,Neerpelt,Molenstraat,41,51.2288927868,5.44605212923
3910,Neerpelt,Kompenstraat,15,51.2228323578,5.48342459198
3910,Neerpelt,De Bemmert,65,51.2145060377,5.44341203222
3910,Neerpelt,Boelehoef,1,51.234016133,5.44599435309
3910,Neerpelt,Broeseinderdijk,20,51.2376224856,5.4278372182
3910,Neerpelt,St. Antoniusweg,24,51.2314734672,5.445555411
3910,Neerpelt,Peerderbaan,217,51.197174505,5.46520119373
3910,Neerpelt,Klaverstraat,25,51.2470623269,5.42570927434
3910,Neerpelt,De Beerten,6,51.2375715303,5.48506955162
3910,Neerpelt,Norbertinessenlaan,28,51.2306797456,5.43246909227
3910,Neerpelt,Fierkens-Heikant,2,51.2270198405,5.489691876
3910,Neerpelt,De Nulenstraat,44,51.2317217396,5.47684173155
3910,Neerpelt,Ganzenpas,11,51.2605080972,5.44475473799
3910,Neerpelt,Tisselrietweg,6,51.2500266911,5.45019218758
3910,Neerpelt,Clercxhoevestraat,1,51.2298097484,5.43707477893
3910,Neerpelt,Smeelstraat,1,51.2241132823,5.4827163942
3910,Neerpelt,Populierenhof,21,51.2332684735,5.4518684481
3910,Neerpelt,Turfheidestraat,24,51.2532103017,5.43167610824
3910,Neerpelt,Boelehoef,25,51.2358659242,5.44805630954
3910,Neerpelt,Zonhoekstraat,178,51.244070894,5.43383219576
3910,Neerpelt,Kievitstraat,9,51.2277614818,5.44005997969
3910,Neerpelt,Korenbloemstraat,33,51.2254085411,5.44882792672
3910,Neerpelt,Hortensialaan,12,51.228102867,5.45209296343
3910,Neerpelt,Zonhoekstraat,115,51.2412196409,5.4283361873
3910,Neerpelt,Lentestraat,7,51.2493782316,5.44280351468
3910,Neerpelt,St. Antoniusweg,95,51.2309638894,5.45662453446
3910,Neerpelt,Turfheidestraat,77,51.2547600315,5.43025590889
3910,Neerpelt,Roggestraat,7,51.251838632,5.44559477363
3910,Neerpelt,Holenweg,39,51.2400980509,5.4630861563
3910,Neerpelt,Polsstraat,38,51.2500622845,5.44110316621
3910,Neerpelt,Hamonterweg,148,51.2415332708,5.48337807725
3910,Neerpelt,De Roosen,22,51.2120150947,5.44510953654
3910,Neerpelt,Plataanstraat,6,51.2261419889,5.44846296842
3910,Neerpelt,Tikbroeken,32,51.2206492558,5.43851923949
3910,Neerpelt,Anjerstraat,5,51.2248466181,5.45525066483
3910,Neerpelt,Groenstraat,12,51.2290948921,5.43410058017
3910,Neerpelt,Peerderbaan,145,51.2145581594,5.47535285023
3910,Neerpelt,Broesveldstraat,11,51.2295857473,5.42972953107
3910,Neerpelt,Heuvelerweg,7,51.2354021884,5.47788295141
3910,Neerpelt,Broekkant,34,51.2316050086,5.49205417243
3910,Neerpelt,Bosbessenlaan,73,51.2237241346,5.45136083198
3910,Neerpelt,Korhoenstraat,7,51.2525147648,5.4323406424
3910,Neerpelt,Kolisheide,34,51.1963745158,5.46144974486
3910,Neerpelt,Rikkaartstraat,19,51.222052578,5.4852568992
3910,Neerpelt,Jos Verlindenstraat,128,51.2296299496,5.46736387633
3910,Neerpelt,Clercxhoevestraat,25,51.2306862176,5.4359788091
3910,Neerpelt,Grote Heide,7,51.2468051088,5.43835668683
3910,Neerpelt,Riesel,6,51.2211505109,5.48801983395
3910,Neerpelt,O. L. Vrouwstraat,13,51.2472277143,5.43585746007
3910,Neerpelt,Geerkensstraat,20,51.2230883566,5.48681391497
3910,Neerpelt,Hamonterweg,59,51.2376554849,5.4607430145
3910,Neerpelt,Veurterstraat,42,51.2195368178,5.48663393661
3910,Neerpelt,Look,22,51.2241569707,5.44814768767
3910,Neerpelt,Lillerheidestraat,9,51.236183718,5.4820999174
3910,Neerpelt,Sigarenmakersstraat,3,51.2202991996,5.43572701735
3910,Neerpelt,Broeseinderdijk,4,51.2360012456,5.42811137231
3910,Neerpelt,Boseind,89,51.2221191653,5.4407039814
3910,Neerpelt,Buizerdstraat,9,51.2547149311,5.42955194651
3910,Neerpelt,Molenstraat,102,51.2288737775,5.4541712865
3910,Neerpelt,Stationsstraat,70,51.2235247629,5.43718734654
3910,Neerpelt,Eikenlaan,35,51.2178070552,5.44741258576
3910,Neerpelt,Populierenhof,28,51.2329361633,5.45090410258
3910,Neerpelt,Zonnebloemweg,25,51.224507924,5.44889423252
3910,Neerpelt,Grote Heide,103,51.2555257601,5.43780580075
3910,Neerpelt,Weidenstraat,71,51.2489915896,5.42764804582
3910,Neerpelt,De Nulenstraat,2,51.2303681759,5.48197267357
3910,Neerpelt,Norbertinessenlaan,21,51.2310921494,5.43143258828
3910,Neerpelt,Peerderbaan,163,51.2130471245,5.47445092383
3910,Neerpelt,Boseind,125,51.2192849776,5.44128220755
3910,Neerpelt,Molenstraat,94,51.2284593752,5.45162306171
3910,Neerpelt,Tongersvenweg,7,51.2068962896,5.44517721967
3910,Neerpelt,Boegstraat,9,51.2312602615,5.44063856343
3910,Neerpelt,Peerderbaan,37,51.2246359789,5.48092607299
3910,Neerpelt,Haagdoornstraat,29,51.2278279002,5.44301222038
3910,Neerpelt,Kolisheide,16,51.1978396171,5.46215855301
3910,Neerpelt,Begonialaan,15,51.2269524814,5.45417219467
3910,Neerpelt,Molenbroekstraat,8,51.2176075806,5.43786898801
3910,Neerpelt,Hageheidestraat,13,51.2534733209,5.431496607
3910,Neerpelt,Weidenstraat,45,51.2471543267,5.43106035625
3910,Neerpelt,Tuinwijk,13,51.2307026501,5.45176125676
3910,Neerpelt,Lochterdijk,32,51.2505423267,5.43471932945
3910,Neerpelt,Pater Pellensstraat,71,51.2321120654,5.46351037156
3910,Neerpelt,Grote Heide,39,51.2495229337,5.43938695776
3910,Neerpelt,Hoevestraat,15,51.216736384,5.48697183283
3910,Neerpelt,Parklaan,4,51.2316542644,5.4277354632
3910,Neerpelt,Nieuwstraat,19,51.23114903,5.43553582071
3910,Neerpelt,Kaulillerweg,34,51.2196012376,5.48422162789
3910,Neerpelt,Heerstraat,42,51.2292995394,5.4371816263
3910,Neerpelt,Eikenlaan,17,51.2191816241,5.44593367837
3910,Neerpelt,Jaak Tassetstraat,7,51.2304189388,5.43348040771
3910,Neerpelt,Tussenstraat,2A,51.2384774052,5.41941179492
3910,Neerpelt,Dwarsstraat,20,51.2371607061,5.46307657268
3910,Neerpelt,Vlasrootweg,30,51.2550482821,5.43263001262
3910,Neerpelt,Toekomstlaan,22,51.2321887348,5.42512738307
3910,Neerpelt,Zandstraat,81,51.2226362819,5.4727501961
3910,Neerpelt,Pater Pellensstraat,53,51.2338093492,5.46410110486
3910,Neerpelt,Distelstraat,9,51.2293039995,5.44531756492
3910,Neerpelt,Nachtegaalstraat,22,51.2193779776,5.44669959622
3910,Neerpelt,Heikant,32,51.2235198114,5.48983486246
3910,Neerpelt,Vennenstraat,27,51.2513279342,5.43554204227
3910,Neerpelt,Bosbessenlaan,55,51.2238867957,5.44915598297
3910,Neerpelt,Stationsstraat,1,51.2283197499,5.43460857572
3910,Neerpelt,Veurterstraat,60,51.2205994757,5.48959239309
3910,Neerpelt,Geuskens,26,51.2365336316,5.48564882577
3910,Neerpelt,Breughelstraat,10,51.2002090286,5.4418540566
3910,Neerpelt,Papaverstraat,28,51.2304292978,5.44998294008
3910,Neerpelt,Wateringstraat,20,51.2338437795,5.45331040974
3910,Neerpelt,Broeseinderdijk,144,51.2439076039,5.4257248957
3910,Neerpelt,Jaak Tassetstraat,39,51.2317046361,5.43251640639
3910,Neerpelt,Dorpsstraat,44,51.2263281713,5.4886421506
3910,Neerpelt,Kaulillerweg,2,51.2214627792,5.47934338608
3910,Neerpelt,Jos Verlindenstraat,22,51.2277892996,5.47890591385
3910,Neerpelt,Zonhoekstraat,9,51.2367648289,5.42387638953
3910,Neerpelt,De Nulenstraat,34,51.2314560473,5.47778699371
3910,Neerpelt,Biezenweg,1,51.225754759,5.4392015316
3910,Neerpelt,Boseind,107,51.2204982033,5.44139816872
3910,Neerpelt,Stationsstraat,52,51.2247227732,5.43692821466
3910,Neerpelt,Lepelstraat,29,51.2248505009,5.44490471741
3910,Neerpelt,Kaulillerweg,16,51.2211169866,5.48107956404
3910,Neerpelt,Haagdoornstraat,40,51.2259441793,5.44232111514
3910,Neerpelt,Hayenhoek,129,51.2457617351,5.43847523056
3910,Neerpelt,Kaulillerweg,62,51.2186384694,5.48902003572
3910,Neerpelt,Achelsendijk,24,51.2455734822,5.44337359036
3910,Neerpelt,Lepelstraat,49,51.2263354044,5.44652685472
3910,Neerpelt,Wijngaardstraat,4,51.2267943856,5.45519644477
3910,Neerpelt,Herent,29,51.2096935155,5.44316267297
3910,Neerpelt,Look,40,51.2239928762,5.44723641127
3910,Neerpelt,Populierenhof,5,51.2344416435,5.45087979666
3910,Neerpelt,Turfheidestraat,42,51.2535254896,5.42990173217
3910,Neerpelt,Broesveldstraat,46,51.2322735537,5.42870599945
3910,Neerpelt,Fabriekstraat,17,51.2297485514,5.42738302863
3910,Neerpelt,De Bemmert,40,51.2160402852,5.44488947816
3910,Neerpelt,Peerderbaan,109,51.217673855,5.4771015641
3910,Neerpelt,Schoolstraat,14,51.2251765116,5.48359706535
3910,Neerpelt,Boskantstraat,25,51.2223006059,5.4430754612
3910,Neerpelt,Volmolenstraat,17,51.2353929585,5.4267448046
3910,Neerpelt,Jos Verlindenstraat,40,51.2281335043,5.47684644061
3910,Neerpelt,De Nulenstraat,16,51.2307714457,5.48011897643
3910,Neerpelt,Amandusstraat,6,51.246936495,5.44051456473
3910,Neerpelt,Boseind,171,51.2138518296,5.44134065282
3910,Neerpelt,Grote Heide,95,51.2544988504,5.43866865876
3910,Neerpelt,Boseind,9,51.2279324258,5.43915092014
3910,Neerpelt,Bettebos,52,51.200245949,5.44612239965
3910,Neerpelt,Spoorwegstraat,14,51.2194933466,5.4381686253
3910,Neerpelt,Vlasrootweg,12,51.2550207611,5.43566447161
3910,Neerpelt,Exschoor,12,51.2156115067,5.48755430027
3910,Neerpelt,Pastorijstraat,11,51.2274881926,5.43095996282
3910,Neerpelt,Herent,192A,51.1996550214,5.46014817726
3910,Neerpelt,Heikant,50,51.2216129126,5.48968075985
3910,Neerpelt,Erkestraat,12,51.2306034898,5.48810463007
3910,Neerpelt,Marktplein,15,51.2291518293,5.43178076413
3910,Neerpelt,Meidoornstraat,9,51.2253208826,5.45046065624
3910,Neerpelt,Lillerheidestraat,43,51.2394133559,5.48150390676
3910,Neerpelt,Ankerweg,19,51.2312890401,5.43957611706
3910,Neerpelt,Eikenlaan,9,51.2184743283,5.44511660052
3910,Neerpelt,De Roosen,29,51.2132868777,5.44672000657
3910,Neerpelt,Boelehoef,53,51.2440103114,5.44514565793
3910,Neerpelt,Meidoornstraat,48,51.2257176469,5.45141545841
3910,Neerpelt,Toekomstlaan,40,51.2338408624,5.42512819433
3910,Neerpelt,Tikbroeken,7,51.2221793346,5.43891554097
3910,Neerpelt,Meidoornstraat,54,51.2255633401,5.45183291308
3910,Neerpelt,Molenstraat,120,51.229378168,5.45731826635
3910,Neerpelt,Fierkens-Heikant,48,51.2256292521,5.49448833345
3910,Neerpelt,Vinkendreef,2,51.2513038707,5.45037024789
3910,Neerpelt,Broeseinderdijk,27,51.2382868752,5.42705498363
3910,Neerpelt,Nachtegaalstraat,40,51.2178534955,5.44831199842
3910,Neerpelt,Kievitstraat,16,51.2272669166,5.44093925059
3910,Neerpelt,Fabriekstraat,3,51.229837098,5.42885687788
3910,Neerpelt,Lochterdijk,50,51.251767545,5.43205499519
3910,Neerpelt,Oude Ramp,4,51.2340312011,5.44851008911
3910,Neerpelt,Zonhoekstraat,153,51.2434941174,5.43200788412
3910,Neerpelt,Herent,128,51.2022983148,5.44843625078
3910,Neerpelt,Fierkens-Heikant,54,51.2253071876,5.49441956441
3910,Neerpelt,Molenstraat,76,51.2282394528,5.44900537418
3910,Neerpelt,Molenstraat,23,51.2290846391,5.4427611539
3910,Neerpelt,Boelehoef,47,51.2419277122,5.44839513579
3910,Neerpelt,Peerderbaan,19,51.2257984602,5.48170214056
3910,Neerpelt,Kruisstraat,32,51.2294135135,5.47675862387
3910,Neerpelt,Boseind,54,51.2203995484,5.44034277114
3910,Neerpelt,Heerstraat,60,51.2294212664,5.43834298046
3910,Neerpelt,Herent,199,51.2001738204,5.45936763458
3910,Neerpelt,Jaak Tassetstraat,59,51.2332805418,5.43107758382
3910,Neerpelt,Onderwijslaan,7,51.2306610892,5.43028506724
3910,Neerpelt,Damsheide,15,51.2364619592,5.46183396811
3910,Neerpelt,Herent,40,51.208341523,5.44285530566
3910,Neerpelt,Kievitstraat,34,51.2268675746,5.44401027861
3910,Neerpelt,Tussenstraat,4A,51.2410417882,5.41961084897
3910,Neerpelt,Korhoenstraat,24,51.25346679,5.43447930176
3910,Neerpelt,Smeelstraat,8,51.22472197,5.48210419007
3910,Neerpelt,Holenweg,32,51.2396516059,5.46129232358
3910,Neerpelt,Peerderbaan,245,51.1949209491,5.46341720678
3910,Neerpelt,Boelehoef,71,51.2450119771,5.44318976981
3910,Neerpelt,Azalealaan,10,51.2233180386,5.44728664212
3910,Neerpelt,Plataanstraat,23,51.2264896763,5.44957626078
3910,Neerpelt,De Bemmert,29,51.2176946548,5.44455709991
3910,Neerpelt,Anjerstraat,22,51.225643375,5.45287857223
3910,Neerpelt,Bosbessenlaan,35,51.2236131406,5.44741658763
3910,Neerpelt,Overwegstraat,29,51.2425003093,5.44100982216
3910,Neerpelt,De Kentings,10,51.2205323077,5.44440030965
3910,Neerpelt,Hortensialaan,19,51.2275296566,5.45100959382
3910,Neerpelt,Peerderbaan,198,51.1991871279,5.46527156711
3910,Neerpelt,Volmolenstraat,35,51.2356414795,5.42404353717
3910,Neerpelt,Clercxhoevestraat,8,51.2301597399,5.43709039349
3910,Neerpelt,Spoorwegstraat,32,51.2200512961,5.43971880881
3910,Neerpelt,Zonhoekstraat,171,51.2446168547,5.43382720915
3910,Neerpelt,Dommelweg,10,51.2185841802,5.43854440212
3910,Neerpelt,Herent,208,51.1991505952,5.46246401852
3910,Neerpelt,Broesveldstraat,28,51.2310504619,5.42952893684
3910,Neerpelt,Sint Martensstraat,14,51.2330451009,5.42696066612
3910,Neerpelt,Hamonterweg,41A,51.2375281746,5.45778339374
