PKANCODE,COMMUNE_NL,STREET_NL,HUISNR,LAT,LON
3960,Bree,Solterveldstraat,5,51.1126266092,5.65497478978
3960,Bree,Nieuwstadpoort,29,51.1398661713,5.59272784148
3960,Bree,Boneputterveld,8,51.1375897647,5.59239736605
3960,Bree,Muizendijkstraat,83,51.1092655811,5.57307494027
3960,Bree,Velkuilenstraat,24,51.1388611466,5.59384926935
3960,Bree,Hubesheide,13,51.1232420571,5.66696373964
3960,Bree,Stift,71,51.1458040079,5.59948255794
3960,Bree,Groenstraat,3,51.1275431778,5.66332516483
3960,Bree,Opstraat,48,51.1140683654,5.64121342287
3960,Bree,Kanaalkom,1,51.1467299157,5.61161231889
3960,Bree,Stift,53,51.1449665603,5.59723535935
3960,Bree,Genastraat,20,51.1587814634,5.5994856027
3960,Bree,Boneputstraat,1,51.1350650881,5.59205498753
3960,Bree,Solterweg,39,51.1222300285,5.66496295734
3960,Bree,Bosstraat,54,51.1288871618,5.66405664595
3960,Bree,Opitterkiezel,30,51.1349782696,5.61108555872
3960,Bree,Hoogveldstraat,9,51.1514085503,5.60529576845
3960,Bree,Gruitroderkiezel,252,51.1185285456,5.59125987526
3960,Bree,Pater Coninxlaan,35,51.127457818,5.58929681292
3960,Bree,Hoogstraat,2,51.1406811197,5.59803432074
3960,Bree,Kanaallaan,8,51.1434573808,5.60525919839
3960,Bree,Neyenstraat,14,51.1125441404,5.57782439974
3960,Bree,Malta,28,51.1426765773,5.60385483197
3960,Bree,Thijsstraat,10,51.1486062521,5.58852291904
3960,Bree,Berkenlaan,60,51.1212831871,5.58644390775
3960,Bree,Groenstraat,27,51.128307346,5.66651394263
3960,Bree,Houterstraat,29,51.1546813615,5.63924939502
3960,Bree,Boogschuttersstraat,33,51.1410216322,5.5909773698
3960,Bree,Witte Torenwal,6,51.142442424,5.60077402543
3960,Bree,Elsputtersstraat,3,51.1537675695,5.63869503781
3960,Bree,Dorpstraat,30,51.1272197057,5.66201510225
3960,Bree,Luytenstraat,48,51.1183796496,5.61710275914
3960,Bree,Wiekersbeekstraat,6,51.1367248383,5.60549069461
3960,Bree,'t Hasseltkiezel,41,51.1438389798,5.6894883617
3960,Bree,Gruitroderkiezel,134,51.1275865742,5.5909960012
3960,Bree,Nieuwstadpoort,5,51.1405363286,5.59463605983
3960,Bree,Bruglaan,47,51.1411233157,5.61417343973
3960,Bree,Vostertstraat,24,51.124266977,5.58805013303
3960,Bree,Barrierstraat,33,51.1456870979,5.58400791696
3960,Bree,Kerkstraat,52,51.1594072857,5.60609246577
3960,Bree,Bosstraat,72,51.1308724399,5.66556980037
3960,Bree,Hongerbeek,3,51.144631966,5.59200931132
3960,Bree,Rozenlaan,23,51.1240075655,5.58907191741
3960,Bree,Bocholterkiezel,81,51.1535056978,5.59508096185
3960,Bree,Gruitroderstraat,35,51.1351955812,5.5955381986
3960,Bree,Opitterpoort,19,51.1397238077,5.60314549916
3960,Bree,Bocholterkiezel,45,51.1501013967,5.59447779817
3960,Bree,Rorenweg,23,51.1251113552,5.64173234976
3960,Bree,Nieuwstadweg,19,51.1408222895,5.59303543877
3960,Bree,Steenbergstraat,1,51.129830868,5.61921985456
3960,Bree,Opitterkiezel,208,51.1200355628,5.63985057171
3960,Bree,Roterstraat,56,51.1335333542,5.60681599735
3960,Bree,Malta,4,51.1416665056,5.60209889774
3960,Bree,Millenstraat,10,51.142028764,5.60425842041
3960,Bree,Rorenweg,58,51.1213372638,5.63996428342
3960,Bree,Grauwe Torenwal,2,51.1394817236,5.59770306849
3960,Bree,Neerstraat,10,51.1577370073,5.6195360934
3960,Bree,Oudestraat,2,51.1393255571,5.59865297372
3960,Bree,Swennenstraat,10,51.1465126305,5.60674737659
3960,Bree,Jef van Hoofstraat,6,51.1542806596,5.60334443662
3960,Bree,Bocholterkiezel,17,51.1458146472,5.59383969711
3960,Bree,Vostertstraat,59,51.1229281235,5.59049765651
3960,Bree,Kleine Genatteweg,11,51.1476253665,5.59187480498
3960,Bree,Rode Kruislaan,50,51.1374298201,5.60476244949
3960,Bree,Opitterkiezel,65,51.1339768598,5.61421570297
3960,Bree,Meeuwerkiezel,215,51.1222695442,5.55818400822
3960,Bree,Roterstraat,21,51.1355042688,5.60802654017
3960,Bree,Nieuwstadstraat,12,51.1411732419,5.5952001241
3960,Bree,Poststraat,24,51.130429955,5.66098286363
3960,Bree,Caubergstraat,17,51.1151715606,5.64895044752
3960,Bree,Steyvenstraat,43,51.1483711771,5.60843608757
3960,Bree,Leeuwerikstraat,7,51.1393303195,5.60105629041
3960,Bree,Stukkenstraat,3,51.1251283914,5.60655829233
3960,Bree,Boogschuttersstraat,15,51.1419965623,5.59280013881
3960,Bree,Witte Torenstraat,23,51.1436377788,5.59920077673
3960,Bree,Dorpstraat,12,51.12688167,5.66038363446
3960,Bree,Steenbergstraat,25,51.1234593873,5.62098291683
3960,Bree,Schoolstraat,38,51.1448283004,5.58921495908
3960,Bree,Barrierstraat,68,51.1434300175,5.57805936204
3960,Bree,Veestraat,25,51.1343155624,5.6755210989
3960,Bree,Groenstraat,55,51.1296104961,5.66968441189
3960,Bree,Tongerlostraat,11,51.1185240225,5.64656620565
3960,Bree,Peerderbaan,7,51.1398449076,5.5863046183
3960,Bree,Molenstraat,45,51.1161346643,5.63769147012
3960,Bree,Ziepstraat,1,51.1143107514,5.66512510363
3960,Bree,Watertorenstraat,33,51.1331165477,5.59177560386
3960,Bree,Meeuwerkiezel,2,51.1384603865,5.59071982542
3960,Bree,Kluitshofweg,2,51.1286150942,5.57906519721
3960,Bree,Zijstraat,8,51.1394744671,5.59003200109
3960,Bree,Opitterkiezel,101,51.1310118785,5.61990657939
3960,Bree,Stift,25,51.1440799835,5.59552446216
3960,Bree,Driehoevenstraat,3,51.1476884003,5.60220028764
3960,Bree,Keyartstraat,34,51.126461577,5.6590932287
3960,Bree,Kruittorenwal,26,51.1413611808,5.59390630929
3960,Bree,Siemenstraat,12,51.1448153628,5.59089877785
3960,Bree,Roermonderstraat,29,51.1419687379,5.64922863062
3960,Bree,Watertorenstraat,15,51.1344664428,5.59268829564
3960,Bree,Solterveldstraat,40,51.1123666382,5.65251495204
3960,Bree,Goudbloemstraat,18,51.149529134,5.60491765368
3960,Bree,Reppelerweg,7,51.1538836633,5.59080620673
3960,Bree,Gruitroderkiezel,98,51.1301160861,5.59180059158
3960,Bree,Cobbestraat,35,51.1390791427,5.59270706259
3960,Bree,Abroxweg,51,51.1678383367,5.60214763998
3960,Bree,Opstraat,25A,51.1153122953,5.64470923736
3960,Bree,Keyartstraat,16,51.1250188586,5.65717688799
3960,Bree,Steyvenstraat,8,51.1452818762,5.60729913585
3960,Bree,Gruitroderstraat,47,51.134606251,5.59492844158
3960,Bree,Woutershoefweg,2,51.1323780686,5.69467877279
3960,Bree,Bosstraat,26,51.1278926212,5.65996327512
3960,Bree,Molenstraat,63,51.1144962877,5.63905481169
3960,Bree,Regenboogstraat,5,51.1400501674,5.60305709698
3960,Bree,Ziepstraat,25,51.1171908472,5.66380595948
3960,Bree,Bosstraat,2,51.126699114,5.65706052686
3960,Bree,Bergstraat,6,51.1133947038,5.66320652948
3960,Bree,Pater Neyenslaan,1,51.118443935,5.64476365762
3960,Bree,Herenbosstraat,6,51.1246479079,5.569510394
3960,Bree,Meinestraat,20,51.1421623895,5.59910300533
3960,Bree,Gruitroderkiezel,187,51.1197440255,5.59252999396
3960,Bree,Filterstraat,65,51.138186026,5.57757126937
3960,Bree,Korenbloemstraat,18,51.1512575341,5.60359493658
3960,Bree,Opitterstraat,27,51.140761602,5.60073780853
3960,Bree,Herenstraat,11,51.1378566973,5.61020317018
3960,Bree,Stift,63A,51.1453593861,5.5989120132
3960,Bree,Wijkstraat,13,51.1467477,5.59130111491
3960,Bree,Lindehofstraat,9,51.1456058192,5.59779743087
3960,Bree,Brugstraat,20,51.1396846748,5.61046256792
3960,Bree,Gerdingerpoort,11,51.1431594342,5.59352462431
3960,Bree,Solterveldstraat,29,51.1120788254,5.65443241054
3960,Bree,Opitterpoort,20,51.1396114199,5.60241643483
3960,Bree,Berkenlaan,42,51.1225100835,5.58637033385
3960,Bree,Kerkstraat,70,51.1619106934,5.60864427746
3960,Bree,Glycinestraat,11,51.1436040742,5.59654266024
3960,Bree,Gruitroderstraat,45,51.1346930588,5.59500959582
3960,Bree,Veeweidestraat,43,51.150026359,5.60762644315
3960,Bree,Teelestraat,7,51.1141225231,5.658130333
3960,Bree,Veeweidestraat,61,51.1512939521,5.60635677212
3960,Bree,Bergstraat,41,51.112131903,5.6593983363
3960,Bree,Bremstraat,5,51.1449768964,5.58982367968
3960,Bree,Bosstraat,34A,51.1282392309,5.66059963313
3960,Bree,Nieuwstadpoort,40,51.140195344,5.59243680104
3960,Bree,Klein Stukkenstraat,7,51.1239316391,5.60139291301
3960,Bree,Sint-Jansstraat,7,51.1479910183,5.58330924306
3960,Bree,Opitterstraat,3,51.1414330705,5.59962569254
3960,Bree,Vaesstraat,4,51.1403658971,5.59946036327
3960,Bree,St.-Antoniusstraat,10,51.1136200063,5.66039424706
3960,Bree,Brugstraat,83,51.1428163862,5.6180842856
3960,Bree,Kuilenstraat,80,51.1631103669,5.61750490841
3960,Bree,Palmenhofstraat,9,51.1472074519,5.57723522261
3960,Bree,Pater Coninxlaan,45,51.1267812193,5.58882939173
3960,Bree,Siemenstraat,30,51.143627794,5.58832836376
3960,Bree,Keerpuntstraat,8,51.1368014471,5.59447468069
3960,Bree,Swennenstraat,3,51.1457809049,5.60725635248
3960,Bree,Industrieterrein Peerderbaan,1014,51.1391363018,5.55961765609
3960,Bree,Waterstraat,49,51.1701725909,5.6073023406
3960,Bree,Maalbosstraat,31,51.1363800733,5.61765683109
3960,Bree,Ter Rivierenwal,2,51.1405581322,5.59498603782
3960,Bree,Thijsstraat,3,51.1480595224,5.5887110174
3960,Bree,Hoogveldstraat,26,51.1486651876,5.60701972953
3960,Bree,Toekomststraat,10,51.1417363104,5.56194208822
3960,Bree,Roterstraat,28,51.1348165959,5.60696834008
3960,Bree,Gruitroderkiezel,17,51.1369204869,5.59383306426
3960,Bree,Peerderbaan,59,51.139419069,5.57943006025
3960,Bree,Maalbosstraat,13,51.1378771907,5.61387934881
3960,Bree,Tongerlostraat,64,51.1261270526,5.64895665002
3960,Bree,Groenstraat,20,51.1270987678,5.66608475325
3960,Bree,Omselweg,22,51.116104689,5.65001356447
3960,Bree,Bocholterkiezel,106,51.1555251886,5.59526998116
3960,Bree,Grensstraat,2,51.1336577145,5.62430549766
3960,Bree,Groenstraat,116,51.1340089341,5.68453494747
3960,Bree,Boneputterveld,25,51.1349408707,5.58943243847
3960,Bree,Hubesheide,38,51.1232044269,5.67091450362
3960,Bree,Abroxweg,15,51.1586400754,5.60197197892
3960,Bree,Genastraat,27,51.1579647042,5.59929908484
3960,Bree,Opitterkiezel,182,51.1219812369,5.63466505497
3960,Bree,Stift,78,51.1461693311,5.60082852514
3960,Bree,Gruitroderkiezel,144,51.127087731,5.59132481879
3960,Bree,Passtraat,2,51.1425451663,5.59218085297
3960,Bree,Stationswal,1,51.140610127,5.60085785351
3960,Bree,Kanaallaan,25,51.1443334169,5.60577647336
3960,Bree,Hulsbosstraat,13,51.1363369875,5.64165077494
3960,Bree,Bocholterkiezel,98,51.1546529288,5.59569134139
3960,Bree,Dirixstraat,22,51.1565472214,5.60624993032
3960,Bree,Eetseveldstraat,12,51.1167031846,5.60727569727
3960,Bree,Gijbelsstraat,28,51.1419966183,5.5868023366
3960,Bree,Keyartstraat,9,51.1250260912,5.65602077387
3960,Bree,Galgenstraat,12,51.1377530288,5.57725111377
3960,Bree,Schoolstraat,13,51.1422739237,5.59017870297
3960,Bree,Nieuwstadpoort,22,51.1403404457,5.59367487848
3960,Bree,Rorenweg,51,51.1217009772,5.64074171667
3960,Bree,Nieuwstadweg,30,51.1415267099,5.59269149718
3960,Bree,Toleikstraat,1,51.1436022347,5.60298181533
3960,Bree,Molenstraat,10,51.1192773171,5.63828423612
3960,Bree,Opitterkiezel,37,51.1359897086,5.61031041827
3960,Bree,Stukkenstraat,20,51.1224412393,5.60639192603
3960,Bree,Peerderbaan,95,51.1389009598,5.57268715603
3960,Bree,Industrieterrein Peerderbaan,1423,51.140313199,5.56061056969
3960,Bree,Steyvenstraat,25,51.1468352495,5.60810286578
3960,Bree,Swennenstraat,17,51.145770038,5.60662148856
3960,Bree,Berkenlaan,7,51.124882907,5.58709921087
3960,Bree,Millenstraat,17,51.1415731253,5.60603673086
3960,Bree,Wiekersbeekstraat,41,51.1353214487,5.6065079055
3960,Bree,Opitterkiezel,201,51.1199341543,5.64144238477
3960,Bree,Barrierstraat,8,51.147642197,5.58790385951
3960,Bree,Mussenburgveld,20,51.14100778,5.60936336055
3960,Bree,Opitterpoort,65,51.1388513603,5.60514319434
3960,Bree,De Houborn,35,51.1356003379,5.60019350751
3960,Bree,Industrieterrein Kanaal-Noord,1101,51.1433437588,5.63173326199
3960,Bree,Nieuwstadweg,12,51.1409875314,5.59370143376
3960,Bree,Kolisboomstraat,2,51.1403017127,5.58155465419
3960,Bree,Opstraat,90,51.1122653627,5.63264346439
3960,Bree,Gruitroderkiezel,180,51.1240922484,5.59146724723
3960,Bree,Dorpstraat,19,51.1273949391,5.66034840012
3960,Bree,Opitterpoort,12,51.1398094281,5.60210213436
3960,Bree,Kruittorenwal,2,51.14223164,5.59481777817
3960,Bree,Wiekersbeekstraat,23,51.1371665297,5.60558341809
3960,Bree,Meeuwerkiezel,89,51.1320037549,5.58277246637
3960,Bree,Swennenstraat,45,51.146130008,5.60566873166
3960,Bree,Vostertstraat,42,51.1226564243,5.58890247149
3960,Bree,Muizendijkstraat,118,51.1090025504,5.57052787422
3960,Bree,Rorenweg,6,51.13440223,5.62301595012
3960,Bree,Spilstraat,12,51.1179893634,5.64824250263
3960,Bree,Bloemenstraat,8,51.1449110824,5.5960703918
3960,Bree,De Houborn,1,51.135947832,5.60180792455
3960,Bree,Dorpstraat,5,51.126957823,5.65943053478
3960,Bree,Kleine Schoolstraat,10,51.1423050659,5.58880256785
3960,Bree,Opitterkiezel,19,51.1367556277,5.60903944661
3960,Bree,Bosstraat,115,51.1356892838,5.67116928252
3960,Bree,Caubergstraat,10,51.1154370677,5.64771352412
3960,Bree,Schutterijstraat,40,51.1512123969,5.59977612981
3960,Bree,'t Hasseltkiezel,6,51.1428097771,5.62700350621
3960,Bree,Nieuwstadstraat,19,51.1408251372,5.59527086295
3960,Bree,Beukenhofstraat,14,51.1324706009,5.57349735232
3960,Bree,Nieuwstadstraat,5,51.1410950262,5.59593518725
3960,Bree,Gruitroderkiezel,162,51.1254026258,5.59142341566
3960,Bree,Leeuwerikstraat,24,51.1383841539,5.60129510621
3960,Bree,Zandbergstraat,1,51.1126307325,5.63930757213
3960,Bree,Kruittorenwal,44,51.1408982985,5.59451137611
3960,Bree,Opitterkiezel,5,51.1376313096,5.6074508277
3960,Bree,Boogschuttersstraat,8,51.142715348,5.59316826652
3960,Bree,Bocholterkiezel,10,51.1450780504,5.59458941536
3960,Bree,Goudbloemstraat,11,51.1488291135,5.60585904192
3960,Bree,Schutterijstraat,22,51.1500157174,5.59789155322
3960,Bree,Meinestraat,27,51.1423893703,5.59900952158
3960,Bree,Hoogveldstraat,44,51.1474967423,5.60659424901
3960,Bree,Sint-Jobstraat,7,51.1386265434,5.59887320049
3960,Bree,Kerkstraat,16,51.1554520652,5.60361673126
3960,Bree,Maaseikerbaan,74,51.1136952129,5.66243945451
3960,Bree,Siemenstraat,19,51.1441564276,5.59104416391
3960,Bree,Vrijthof,7,51.1416758298,5.59794147295
3960,Bree,Wolstraat,66,51.158176768,5.59398656272
3960,Bree,Opitterkiezel,118,51.1266995088,5.62699240673
3960,Bree,Tongerlostraat,18,51.1184972893,5.64728238977
3960,Bree,Muizendijkstraat,30,51.1119866202,5.58765900686
3960,Bree,Herenstraat,4,51.1379564909,5.60914308714
3960,Bree,Siemenstraat,37,51.1427935778,5.58816765617
3960,Bree,Solterveldstraat,75,51.1122708701,5.65196388549
3960,Bree,Roermonderstraat,22,51.1391867764,5.63754069994
3960,Bree,Gruitroderkiezel,216,51.1205883603,5.5915076379
3960,Bree,Veldstraat,2A,51.1384100409,5.64509019916
3960,Bree,Neerstraat,14B,51.1569691153,5.61756471807
3960,Bree,Berkenlaan,24,51.1237488326,5.58629806513
3960,Bree,Kanaallaan,61,51.1454430087,5.60909278835
3960,Bree,Tongerlostraat,36,51.1200829243,5.64896723398
3960,Bree,'t Hasseltkiezel,38,51.1418668351,5.69539219032
3960,Bree,Carloweg,3,51.1235169322,5.64515398949
3960,Bree,Hansweg,4,51.1303522767,5.5745919725
3960,Bree,Maaseikerbaan,92,51.1138552571,5.66624964793
3960,Bree,Peerderbaan,103,51.1390821053,5.57151518229
3960,Bree,Kipdorpstraat,24,51.1211253745,5.58714388266
3960,Bree,Bocholterstraat,53,51.1508623308,5.59629908373
3960,Bree,Gerdingerpoort,18,51.1434056289,5.59444573893
3960,Bree,Hubesheide,6,51.122598293,5.66657842385
3960,Bree,Tongerlostraat,4,51.1180265008,5.64685755422
3960,Bree,Wilgenstraat,8,51.1376700964,5.59843459514
3960,Bree,Omselweg,57,51.1134091526,5.65613194122
3960,Bree,Meeuwerkiezel,153,51.1269679706,5.56962091657
3960,Bree,Herenstraat,18,51.1369044763,5.60999036893
3960,Bree,Korenbloemstraat,11,51.1512227969,5.60419093076
3960,Bree,Watertorenstraat,8,51.1347108995,5.59189767457
3960,Bree,Nieuwstadpoort,57,51.1399413668,5.58954033688
3960,Bree,Hansweg,18,51.1310929328,5.57499829695
3960,Bree,Industrieterrein Peerderbaan,1302,51.1415423471,5.56597528515
3960,Bree,Bergstraat,58,51.1118620824,5.65592277308
3960,Bree,Kerkstraat,34,51.157295439,5.6051615654
3960,Bree,Kloosterpoort,1,51.1389165813,5.59609212748
3960,Bree,Muizendijkstraat,12,51.1134603655,5.58961172437
3960,Bree,Cosijnstraat,2A,51.1399895532,5.59411796291
3960,Bree,Herenstraat,36,51.1350952278,5.61279992083
3960,Bree,Coenenstraat,1,51.1294433349,5.61150406256
3960,Bree,Solterweg,42,51.1217030325,5.66441463955
3960,Bree,Peerderbaan,24,51.1402819011,5.584239179
3960,Bree,Driehoevenstraat,20,51.1476582789,5.60355859463
3960,Bree,Roodakkerstraat,19,51.1182557481,5.64167218383
3960,Bree,Hansweg,36,51.1322635862,5.57579866644
3960,Bree,Solterveldstraat,22,51.1124337979,5.6534801322
3960,Bree,Genatteweg,10,51.1475732621,5.59344835746
3960,Bree,Kuilenstraat,97,51.1628225291,5.61696791127
3960,Bree,Brugstraat,27,51.1400579536,5.60989716158
3960,Bree,Verbindingsstraat,7,51.1144496397,5.65596151766
3960,Bree,Gerdingerstraat,11,51.1416864234,5.59566320119
3960,Bree,Opitterkiezel,132A,51.1257590568,5.62849197304
3960,Bree,Muizendijkstraat,65,51.1104299452,5.57670485729
3960,Bree,Opitterstraat,20,51.1407241122,5.6000664434
3960,Bree,Vrijheidslaan,69,51.1529380141,5.60221939542
3960,Bree,Houbornstraat,3,51.1357436889,5.59702452637
3960,Bree,St.-Antoniusstraat,3,51.114276429,5.66005275935
3960,Bree,Maalbosstraat,4,51.1384142716,5.6113197576
3960,Bree,Genastraat,30,51.1594673392,5.59855898697
3960,Bree,Bocholterkiezel,71,51.1519180668,5.59476322351
3960,Bree,Toleikstraat,8,51.1443717874,5.60377892391
3960,Bree,Steenbergstraat,15,51.1255954872,5.62105177298
3960,Bree,Rode Kruislaan,40,51.1365986159,5.6009817523
3960,Bree,Caubergstraat,53,51.1125378693,5.65090690924
3960,Bree,Veeweidestraat,51,51.1505298941,5.60700016679
3960,Bree,Anjerstraat,13,51.1356630818,5.60549514639
3960,Bree,Kanaalkom,17,51.1495684612,5.61101612031
3960,Bree,Groenstraat,37,51.1291547524,5.66783650216
3960,Bree,Boogschuttersstraat,25,51.1412546875,5.59134674449
3960,Bree,Peerderbaan,52,51.1400363186,5.58010371346
3960,Bree,Roterstraat,11,51.1363679053,5.6077979735
3960,Bree,Nieuwstadweg,27,51.1410935493,5.59279818122
3960,Bree,Boneputstraat,17,51.1342588956,5.58702425689
3960,Bree,Stationswal,8,51.1409997155,5.60177302804
3960,Bree,Solterveldstraat,39,51.1119512895,5.65352227526
3960,Bree,Bocholterkiezel,53,51.1508435033,5.59459948945
3960,Bree,Velkuilenstraat,34,51.1381726301,5.59440122337
3960,Bree,Opitterkiezel,199,51.1199933459,5.64131400918
3960,Bree,Bosstraat,44,51.1285149335,5.66206983581
3960,Bree,Genastraat,12,51.1581314922,5.60113137048
3960,Bree,Industrieterrein Kanaal-Noord,1211,51.1443081328,5.62832587765
3960,Bree,Vostertstraat,34,51.1230517896,5.58849524459
3960,Bree,Gruitroderkiezel,225A,51.1163758017,5.59262113368
3960,Bree,Wolstraat,4,51.1554323805,5.60219827077
3960,Bree,Wijkstraat,23,51.147353161,5.5906074861
3960,Bree,Bocholterstraat,10,51.1457619208,5.59888060345
3960,Bree,Molenstraat,3,51.1194911649,5.63932980421
3960,Bree,Rorenweg,31,51.1241501414,5.64115757397
3960,Bree,Gruitroderkiezel,262,51.1174433924,5.59169097107
3960,Bree,Muizendijkstraat,73,51.1096869169,5.57473027265
3960,Bree,Nieuwstadpoort,39,51.1397587794,5.59193562632
3960,Bree,Malta,18,51.1421492575,5.60258083073
3960,Bree,Dorpstraat,20,51.1269706812,5.66087512929
3960,Bree,Niskensstraat,7,51.1390260926,5.58846421912
3960,Bree,Caubergstraat,71,51.1112559873,5.65216122922
3960,Bree,Tongerlostraat,48,51.1217667773,5.65065388936
3960,Bree,Meeuwerkiezel,100,51.1306240496,5.57708544702
3960,Bree,Stift,45,51.1448213223,5.59683450715
3960,Bree,Vostertstraat,16,51.1248300451,5.58801254983
3960,Bree,Bruglaan,7A,51.1427560948,5.60686039881
3960,Bree,Opitterkiezel,236,51.1179269507,5.64431187551
3960,Bree,Bruglaan,10,51.1424474957,5.60620696453
3960,Bree,De Houborn,8,51.13579781,5.6019264203
3960,Bree,Cobbestraat,10,51.1397278798,5.59258316967
3960,Bree,Rorenweg,48,51.1222593911,5.64049607988
3960,Bree,Bocholterkiezel,3,51.1442735548,5.59378381312
3960,Bree,Gruitroderkiezel,126,51.1283231506,5.59123572866
3960,Bree,Barrierstraat,78,51.1430346468,5.57695368962
3960,Bree,Spilstraat,5,51.1178208313,5.6471041781
3960,Bree,Truyenhofstraat,2,51.1428028011,5.57677790851
3960,Bree,Meeuwerkiezel,205,51.1226717655,5.55993688374
3960,Bree,Riekskensstraat,22,51.1366603484,5.58186244215
3960,Bree,Hulsbosstraat,4,51.1419610105,5.64031085268
3960,Bree,Opitterkiezel,218,51.1193243829,5.64119864771
3960,Bree,Maaseikerbaan,11,51.1167965447,5.64975073062
3960,Bree,Kleine Schoolstraat,3,51.1419714259,5.58972605074
3960,Bree,Graevenstraat,26,51.1551602362,5.59890220467
3960,Bree,Beukenhofstraat,7,51.1318074022,5.57368369819
3960,Bree,Rorenweg,13,51.1286565297,5.6391435965
3960,Bree,Barrierstraat,25,51.1464037961,5.58595847719
3960,Bree,Schoolstraat,4,51.1419122745,5.59125349858
3960,Bree,Goudbloemstraat,28,51.1492306683,5.60511514287
3960,Bree,Weegbreestraat,13,51.1504477714,5.60086486241
3960,Bree,Schutterijstraat,39,51.1522453123,5.60035513289
3960,Bree,Witte Torenstraat,13,51.1431875346,5.59938470036
3960,Bree,Opitterkiezel,111,51.1299002941,5.6219700443
3960,Bree,Panhovenstraat,2,51.139866728,5.61758077232
3960,Bree,Solterveldstraat,50,51.1128901717,5.65218099503
3960,Bree,Gruitroderstraat,53,51.1343050477,5.59464704498
3960,Bree,Witte Torenstraat,43,51.1447946792,5.59858942489
3960,Bree,Kerkstraat,11A,51.1547382838,5.60273900084
3960,Bree,Bosstraat,18,51.1275614185,5.65909347685
3960,Bree,Opitterstraat,19,51.1409344542,5.6001460179
3960,Bree,De Houborn,17,51.1355183054,5.60197019211
3960,Bree,Dijkstraat,19,51.1369468253,5.56327190236
3960,Bree,Keyartstraat,24,51.125289231,5.65816009171
3960,Bree,Stadsplein,5,51.1399736047,5.59734503854
3960,Bree,Gerdingerstraat,2,51.14172886,5.59613806229
3960,Bree,Herenstraat,21,51.1374777201,5.61070337766
3960,Bree,Waterstraat,7,51.1673024535,5.61490791265
3960,Bree,Goudbloemstraat,2,51.1503601338,5.60565763454
3960,Bree,Gerdingerpoort,21,51.1438360951,5.59338674422
3960,Bree,Beukenhofstraat,29,51.1328441143,5.57109400321
3960,Bree,Meinestraat,30,51.1418494742,5.59923009338
3960,Bree,Brugstraat,12,51.1392111718,5.60980519687
3960,Bree,Hoogstraat,44,51.1416282234,5.60034224221
3960,Bree,Sint-Jozefstraat,7,51.1159732292,5.64613033792
3960,Bree,Kerkstraat,60,51.1601411318,5.60700046244
3960,Bree,Opitterpoort,30,51.1393856065,5.60271599316
3960,Bree,Gerdingerpoort,48,51.1471266709,5.59009002443
3960,Bree,Nieuwstadpoort,50,51.1402943868,5.59173716128
3960,Bree,Meinestraat,12,51.1419284543,5.59853577294
3960,Bree,Korenbloemstraat,2,51.1520859003,5.60540219694
3960,Bree,Molenstraat,71,51.1137243428,5.63984420878
3960,Bree,Herenstraat,48,51.1344279412,5.61412528605
3960,Bree,Omselweg,50,51.1148421783,5.65170302301
3960,Bree,Mussenburgstraat,12,51.1420905107,5.60650647458
3960,Bree,Berkenlaan,52,51.1218267243,5.58640851244
3960,Bree,Meeuwerkiezel,188,51.123202441,5.55817334329
3960,Bree,Watertorenstraat,25,51.1335744751,5.59204607829
3960,Bree,Kloosterpoort,8,51.1395926516,5.59602873403
3960,Bree,Mariahofstraat,2,51.1638035807,5.61399905676
3960,Bree,Gruitroderkiezel,88,51.1306565921,5.59197948607
3960,Bree,Mariahofstraat,28,51.1691041613,5.62436921103
3960,Bree,Molenstraat,53,51.1154059141,5.63831926456
3960,Bree,Bosstraat,79,51.1329503527,5.66666943551
3960,Bree,Stationswal,17,51.1412337926,5.60080271836
3960,Bree,Millenstraat,35,51.1399075157,5.60818216548
3960,Bree,Conenstraat,26,51.140864757,5.59263355496
3960,Bree,Korenbloemstraat,8B,51.1526595031,5.60370665004
3960,Bree,Cosijnstraat,13,51.139178712,5.5954453862
3960,Bree,Brugstraat,30,51.1397583616,5.61136182321
3960,Bree,Swennenstraat,35,51.1457720736,5.60599897254
3960,Bree,Opitterpoort,73,51.1386769165,5.60541280045
3960,Bree,Opitterkiezel,146,51.1247463285,5.63035910325
3960,Bree,Toleikstraat,17,51.1455915562,5.60187775424
3960,Bree,Siemenstraat,20,51.144369885,5.59032015928
3960,Bree,Wilgenstraat,1,51.1380648921,5.59827465964
3960,Bree,Vrijheidslaan,52,51.1530529161,5.60302635273
3960,Bree,Dingensstraat,14,51.1237432697,5.61643086987
3960,Bree,Muizendijkstraat,5,51.1120576991,5.59084871953
3960,Bree,Peerderbaan,70,51.1398716126,5.57705473784
3960,Bree,Gruitroderstraat,10,51.1363703357,5.5961302117
3960,Bree,Vrijheidslaan,9,51.1481488002,5.60063165461
3960,Bree,Schoolstraat,41,51.1443914419,5.58854968798
3960,Bree,Solterveldstraat,32,51.1127836741,5.65321782053
3960,Bree,Genastraat,19,51.157497116,5.60036151281
3960,Bree,Verbindingsstraat,29,51.1142316558,5.65523437378
3960,Bree,Dorpstraat,27,51.127771594,5.66082700103
3960,Bree,Muizendijkstraat,128,51.1085633767,5.56900295881
3960,Bree,Bocholterstraat,3,51.145280496,5.59833896593
3960,Bree,Kloosterstraat,1,51.1406827422,5.59782686312
3960,Bree,Kanaalkom,10,51.1477255513,5.61156922598
3960,Bree,Roterstraat,18,51.1358701309,5.60695070061
3960,Bree,Groenstraat,30,51.1278767958,5.66765036255
3960,Bree,Boneputstraat,10,51.1363616347,5.59271126221
3960,Bree,Meinestraat,5,51.1421279707,5.59798081832
3960,Bree,Vaartstraat,38,51.1275819787,5.64873509149
3960,Bree,Opstraat,44,51.1142070597,5.64156527086
3960,Bree,Tongerlostraat,46,51.1215898813,5.65047761368
3960,Bree,Bruglaan,3,51.1430714275,5.60545805754
3960,Bree,Filterstraat,73,51.1381769991,5.57653059351
3960,Bree,Beukenlaan,7,51.1237386772,5.58733335186
3960,Bree,Genastraat,37,51.1583064012,5.59794553922
3960,Bree,Mussenburgstraat,5,51.1409488589,5.60240676567
3960,Bree,Steyvenstraat,33,51.1477431291,5.60746178476
3960,Bree,Solterveldstraat,14,51.1124823907,5.6544159542
3960,Bree,Maaseikerbaan,18,51.116177321,5.65089083972
3960,Bree,Roterstraat,36,51.1342184345,5.6069656211
3960,Bree,Riekskensstraat,40,51.1346454679,5.58429647323
3960,Bree,Gerdingerpoort,46,51.1470263155,5.59022303483
3960,Bree,Kanaalkom,8,51.1477067727,5.61192661891
3960,Bree,Gijbelsstraat,18,51.1411217796,5.58598708587
3960,Bree,Poststraat,9,51.1290421249,5.66083015605
3960,Bree,Herenstraat,46,51.1345409853,5.61387453197
3960,Bree,Boneputstraat,8,51.1362269677,5.5931528425
3960,Bree,Gerkenbergstraat,44,51.1308163963,5.56365183921
3960,Bree,Filterstraat,55,51.1381260491,5.58027134863
3960,Bree,Nieuwstadweg,20,51.1412179344,5.59345110297
3960,Bree,Steenbergstraat,3A,51.1292675981,5.61959738244
3960,Bree,Steyvenstraat,15,51.1461861528,5.6083107349
3960,Bree,Solterweg,49,51.1208711336,5.66678098093
3960,Bree,Stift,68,51.1456501838,5.60023270032
3960,Bree,Stadsbeekstraat,16,51.1362535789,5.5948921183
3960,Bree,Stukkenstraat,12,51.1254727194,5.60530610628
3960,Bree,Opitterkiezel,27,51.1362543847,5.60961727963
3960,Bree,Kanaalkaai,3,51.1440143476,5.61632931126
3960,Bree,Maaseikerbaan,36,51.1157175553,5.65379027724
3960,Bree,Industrieterrein Kanaal-Noord,1218,51.1438139286,5.62475347762
3960,Bree,Rozenlaan,6,51.1244765496,5.59082731169
3960,Bree,Caubergstraat,88,51.1098244404,5.65232297909
3960,Bree,Mussenburgveld,12,51.1409067513,5.61032715981
3960,Bree,Rorenweg,41,51.1232105956,5.64091569167
3960,Bree,Bremstraat,14,51.1458436459,5.58990695435
3960,Bree,Kanaallaan,1,51.1434261977,5.60401386695
3960,Bree,Kloosterpoort,10,51.1395754917,5.59586351558
3960,Bree,Omselweg,32,51.1154004538,5.65071211383
3960,Bree,Bergstraat,13,51.1128482185,5.66378553064
3960,Bree,Boneputterveld,1,51.1375749137,5.59325664452
3960,Bree,Opitterkiezel,192,51.1215366199,5.63641947599
3960,Bree,Gruitroderkiezel,154,51.125891826,5.59119236126
3960,Bree,Leeuwerikstraat,16,51.1386539816,5.60112774909
3960,Bree,Opstraat,80,51.1128398981,5.63570213228
3960,Bree,Genastraat,5,51.1564276143,5.60180571986
3960,Bree,Kloosterstraat,15,51.1401492059,5.59737681223
3960,Bree,Riekskensstraat,29,51.1356260375,5.58245913965
3960,Bree,Cobbestraat,17,51.1392711347,5.59290072733
3960,Bree,Bergstraat,66,51.1114640555,5.6549540598
3960,Bree,Witte Torenstraat,6,51.1429472139,5.60031702058
3960,Bree,Solterweg,14,51.125803247,5.66091468485
3960,Bree,Meeuwerkiezel,97,51.1317358113,5.58170219577
3960,Bree,Steenbergstraat,8,51.1276853054,5.61921282695
3960,Bree,Hansweg,46,51.1338107403,5.57694030986
3960,Bree,Barrierstraat,43,51.1446981298,5.58157027711
3960,Bree,Boneputterveld,15,51.1363125854,5.59136435272
3960,Bree,Bruglaan,17,51.1425411682,5.60848461575
3960,Bree,Hovestraat,14,51.1293308787,5.63322899664
3960,Bree,Heuvelstraat,7,51.131076422,5.56912750898
3960,Bree,Kanaallaan,51,51.1451234233,5.60837383785
3960,Bree,Processieweg,7,51.1465027004,5.65393708703
3960,Bree,Kanaallaan,15,51.1438598922,5.60536747339
3960,Bree,Stukkenstraat,30,51.121377006,5.60695711097
3960,Bree,Solterweg,67,51.116721259,5.67230108346
3960,Bree,Roterstraat,4,51.1370843164,5.60659894396
3960,Bree,Tulpenlaan,2,51.1265442735,5.59111829573
3960,Bree,Abroxweg,25,51.1594614643,5.60225702809
3960,Bree,Velkuilenstraat,9,51.1394377973,5.59409647704
3960,Bree,Bankenstraat,15,51.1692924858,5.62294990685
3960,Bree,Gruitroderkiezel,172,51.1248061318,5.59146794016
3960,Bree,Maaseikerbaan,4,51.1165516436,5.64859291074
3960,Bree,Bocholterstraat,45,51.150155442,5.59661167205
3960,Bree,Bergstraat,31,51.1124432916,5.66146857993
3960,Bree,Schutterijstraat,50,51.1521963595,5.60105711508
3960,Bree,Leeuwerikstraat,34,51.1379305876,5.60165881027
3960,Bree,Schutterijstraat,14,51.1495508058,5.596695961
3960,Bree,Rorenweg,2A,51.1358927627,5.61843441905
3960,Bree,Boogschuttersstraat,68,51.1404655885,5.58850411906
3960,Bree,Opstraat,2,51.1171040941,5.64544108852
3960,Bree,Bruglaan,45,51.1411704365,5.61386558569
3960,Bree,Bosstraat,105,51.1349100205,5.66950786565
3960,Bree,Bocholterkiezel,114,51.1563217472,5.59472796406
3960,Bree,Gerkenbergstraat,62,51.1321660106,5.56098138795
3960,Bree,Weegbreestraat,6,51.1514555475,5.60069149665
3960,Bree,Vostertstraat,52,51.122849082,5.58776354883
3960,Bree,Sint-Jacobstraat,9,51.1358286107,5.60413748555
3960,Bree,Vostertstraat,9,51.1254613902,5.58873561927
3960,Bree,Rode Kruislaan,57,51.1383532923,5.6036354153
3960,Bree,Muizendijkstraat,93A,51.1085327929,5.57064574322
3960,Bree,Bergstraat,84,51.1102935066,5.6528134434
3960,Bree,'t Hasseltkiezel,17A,51.1429773165,5.65801958512
3960,Bree,Barrierstraat,61,51.1431748466,5.57867685458
3960,Bree,Opstraat,62,51.113168414,5.63939232474
3960,Bree,Opitterstraat,12,51.1408989065,5.59958974242
3960,Bree,Pater Neyenslaan,8,51.1189160498,5.64598813893
3960,Bree,Opitterpoort,5,51.1402570571,5.60196248169
3960,Bree,Stift,8,51.1436904005,5.59599613464
3960,Bree,Driehoevenstraat,12,51.1472736065,5.60252706181
3960,Bree,Schootstraat,64,51.1597432179,5.58213061123
3960,Bree,Beukenhofstraat,22,51.1328725851,5.57260356884
3960,Bree,Rode Kruislaan,39,51.13747419,5.59964277132
3960,Bree,Solterveldstraat,67,51.1115765443,5.65261806126
3960,Bree,Opitterkiezel,55,51.1345133002,5.61325237283
3960,Bree,Steyvenstraat,1,51.1453475182,5.60661242662
3960,Bree,Veeweidestraat,15,51.1475687484,5.60984605491
3960,Bree,Solterveldstraat,85,51.1130276499,5.65125399017
3960,Bree,Solterweg,7,51.1262616262,5.66105637604
3960,Bree,Wiekersbeekstraat,31,51.1365066134,5.60627440302
3960,Bree,Korenbloemstraat,21,51.1496795837,5.6039859907
3960,Bree,'t Hasselt,6,51.1397605314,5.65775439603
3960,Bree,Muizendijkstraat,20,51.112282859,5.5890213799
3960,Bree,Meeuwerkiezel,145,51.12760926,5.5708344816
3960,Bree,Hoogveldstraat,54,51.1471177199,5.60722893834
3960,Bree,Pater Coninxlaan,3,51.1308023621,5.59155053329
3960,Bree,Filterstraat,27,51.139361915,5.58583101819
3960,Bree,Schutterijstraat,32,51.1506553448,5.59886636375
3960,Bree,Dorpstraat,55,51.1282300492,5.66286373471
3960,Bree,Nieuwstadweg,5,51.1405757088,5.59349327346
3960,Bree,Opitterkiezel,128,51.1260976286,5.62806194647
3960,Bree,Witte Torenwal,31,51.1421212928,5.59620483108
3960,Bree,Wolstraat,58,51.1576213606,5.59497468853
3960,Bree,Peerderbaan,113,51.1380634663,5.56099596895
3960,Bree,Meeuwerkiezel,163,51.1254884594,5.56714240378
3960,Bree,Wiekersbeekstraat,13,51.1368991777,5.60461350682
3960,Bree,Meinestraat,37,51.1422259946,5.59971034011
3960,Bree,Peerderbaan,16,51.1401082535,5.5848112766
3960,Bree,Parkstraat,26,51.1387032765,5.59773873465
3960,Bree,Witte Torenwal,13,51.1423974328,5.59805508303
3960,Bree,Caubergstraat,35,51.1139645202,5.65040961549
3960,Bree,Lieve Vrouwstraat,5,51.1263757667,5.65412545107
3960,Bree,Berkenlaan,34,51.1230566069,5.58634172869
3960,Bree,Roermonderstraat,32,51.1398056072,5.64486126629
3960,Bree,Maaseikerbaan,82,51.1137460847,5.66403709073
3960,Bree,Steyvenstraat,68,51.1477891611,5.60800070398
3960,Bree,Markt,2,51.1411498161,5.59737342428
3960,Bree,Opitterkiezel,73,51.1336768819,5.61480139038
3960,Bree,Brugstraat,5,51.1395622825,5.60859470723
3960,Bree,Veeweidestraat,33,51.1492460655,5.60833411728
3960,Bree,Hansweg,28,51.1316929398,5.57559359928
3960,Bree,Kuilenstraat,89,51.1618331626,5.61914492703
3960,Bree,Nieuwstadpoort,14,51.1405677841,5.5940745504
3960,Bree,Anjerstraat,6,51.1359693515,5.60451901731
3960,Bree,Molenstraat,35,51.1168299164,5.63761151822
3960,Bree,Schoolstraat,23,51.1430379388,5.58978253138
3960,Bree,Opitterkiezel,87A,51.1325107705,5.61719240628
3960,Bree,Vrijheidslaan,59,51.1520612964,5.60186931577
3960,Bree,Pater Coninxlaan,17,51.1288268038,5.59065957637
3960,Bree,Mussenburgstraat,19,51.1417461695,5.60436541147
3960,Bree,Kerkstraat,24,51.1563110295,5.60421085172
3960,Bree,Gerdingerpoort,28,51.1461834913,5.59149243149
3960,Bree,Industrieterrein Kanaal-Noord,1437,51.1454636894,5.61845385214
3960,Bree,Siemenstraat,27,51.1435559438,5.58947766734
3960,Bree,Nieuwstadpoort,49,51.1397963866,5.59039739663
3960,Bree,Hoogstraat,26,51.1412445663,5.59909010321
3960,Bree,Opitterpoort,37,51.1393787061,5.60399364717
3960,Bree,Gruitroderkiezel,71,51.1305634569,5.59254268985
3960,Bree,Herenstraat,28,51.1362093086,5.61102986763
3960,Bree,Dirixstraat,14,51.1557735584,5.60658379385
3960,Bree,Opitterkiezel,10A,51.1363458832,5.60857615929
3960,Bree,Opitterkiezel,91,51.1315997703,5.61891117552
3960,Bree,Schaafdijkstraat,13,51.1686902576,5.63123862109
3960,Bree,Dingensstraat,7,51.1271670998,5.61550472398
3960,Bree,Swennenstraat,71,51.1471963376,5.6045584371
3960,Bree,Opitterstraat,30,51.1405226588,5.60049599287
3960,Bree,Veestraat,8,51.134938904,5.67305480639
3960,Bree,Schoolstraat,58,51.1464842462,5.58826608196
3960,Bree,Molenstraat,6A,51.1196806496,5.63868130678
3960,Bree,Gruitroderkiezel,53,51.1326424671,5.59335645981
3960,Bree,Gruitroderstraat,17,51.1356534765,5.59634656354
3960,Bree,Maalbosstraat,23,51.1372203138,5.61595383368
3960,Bree,Cosijnstraat,6,51.1398154876,5.59422385827
3960,Bree,Bosstraat,90,51.1324601111,5.66707088411
3960,Bree,Berkenlaan,16,51.124313845,5.58626365478
3960,Bree,Peerderbaan,87,51.1391109401,5.57383377888
3960,Bree,Gerdingerstraat,21,51.1419270123,5.59524636759
3960,Bree,Wolstraat,23,51.1559958661,5.59826164432
3960,Bree,Peerderbaan,34,51.1401900116,5.58296607852
3960,Bree,Kipdorpstraat,16,51.1211444293,5.58802260003
3960,Bree,Stationswal,10,51.1410263971,5.60185218919
3960,Bree,Brugstraat,37,51.1401705535,5.61094322196
3960,Bree,Veeweidestraat,1,51.1465266247,5.61059070965
3960,Bree,Bocholterkiezel,43,51.1496924037,5.5943522805
3960,Bree,Kuilenstraat,42,51.1556785624,5.62579916719
3960,Bree,Dirixstraat,3,51.1550442677,5.60607269792
3960,Bree,Opitterkiezel,49,51.1353911827,5.61192116969
3960,Bree,Schootstraat,58,51.1574504642,5.58347569085
3960,Bree,Peerderbaan,80,51.1397961421,5.57562789674
3960,Bree,Malta,2,51.1419176204,5.60119319238
3960,Bree,Caubergstraat,43,51.1133922748,5.65090808252
3960,Bree,Dorpstraat,49,51.1277702374,5.66264797381
3960,Bree,Opitterkiezel,134,51.1257750516,5.62887970334
3960,Bree,Oudestraat,4,51.1392405713,5.59858700021
3960,Bree,Opitterpoort,50,51.1387832596,5.60422968243
3960,Bree,Peerderbaan,62,51.1399265864,5.57877786369
3960,Bree,Jef van Hoofstraat,8,51.1542347637,5.60358094528
3960,Bree,Beerselerdijk,21,51.152928382,5.67830098441
3960,Bree,Hansweg,41,51.1328745769,5.57510076759
3960,Bree,Markt,16,51.1415822265,5.59633756651
3960,Bree,Veldstraat,1,51.1389345678,5.64527659534
3960,Bree,Veeweidestraat,17,51.1478059133,5.60985350497
3960,Bree,Gerkenbergstraat,34,51.1302381091,5.5646775875
3960,Bree,Poststraat,26,51.1306052674,5.66092484945
3960,Bree,Graevenstraat,34,51.1546157092,5.59707396772
3960,Bree,Meeuwerkiezel,110,51.1303779823,5.57535715691
3960,Bree,Opitterkiezel,67,51.1339244605,5.61441034527
3960,Bree,Leeuwerikstraat,9,51.1392645511,5.6011387237
3960,Bree,Maaseikerbaan,76,51.1136579712,5.66275278315
3960,Bree,Caubergstraat,61,51.1119269369,5.65140786318
3960,Bree,Stukkenstraat,5,51.1221744442,5.60759636819
3960,Bree,Bremstraat,7,51.1451110771,5.58967969673
3960,Bree,Solterveldstraat,3,51.1126727226,5.6549176451
3960,Bree,Nieuwstadpoort,27,51.139884881,5.59311660214
3960,Bree,Hubesheide,11,51.1231990293,5.66669926104
3960,Bree,Rozenlaan,1,51.1242080369,5.59100785433
3960,Bree,Boneputterveld,6,51.1377258152,5.59261942229
3960,Bree,Maalbosstraat,18,51.1366462,5.6149092245
3960,Bree,Lindehofstraat,36,51.1454682778,5.5966229987
3960,Bree,Groenstraat,5,51.1273889222,5.66334846165
3960,Bree,Kloosterstraat,6,51.1406424945,5.59709069271
3960,Bree,Herenstraat,41,51.1359904016,5.61236937681
3960,Bree,Wolstraat,64,51.1578740086,5.59430513142
3960,Bree,Genastraat,22,51.1589077942,5.59928507045
3960,Bree,Gruitroderstraat,15,51.1357151864,5.59639462593
3960,Bree,Opitterkiezel,116,51.126844917,5.62674431082
3960,Bree,Siemenstraat,14,51.1448836304,5.59093014966
3960,Bree,Gruitroderkiezel,208,51.121768515,5.59108713789
3960,Bree,Barrierstraat,47,51.1446544543,5.58113152671
3960,Bree,Velkuilenstraat,26,51.1388103196,5.5938785162
3960,Bree,Gerdingerpoort,41,51.1454006851,5.59195771192
3960,Bree,Hoogveldstraat,7,51.1514104328,5.60479867431
3960,Bree,Itterplein,12A,51.116422456,5.64769822919
3960,Bree,Omselweg,27,51.1144620124,5.65315385548
3960,Bree,Pater Coninxlaan,33,51.1275595994,5.58937347817
3960,Bree,Gruitroderkiezel,96,51.1301942623,5.59190808065
3960,Bree,Hoogstraat,4,51.1407497216,5.59814559394
3960,Bree,Groenstraat,29,51.128564889,5.66659768
3960,Bree,Solterveldstraat,73,51.1121053243,5.65212429574
3960,Bree,Opitterkiezel,32,51.1348947113,5.61140526473
3960,Bree,Nieuwstadpoort,55,51.1399298445,5.58982841582
3960,Bree,Boogschuttersstraat,35,51.1409605136,5.59084600975
3960,Bree,Houterstraat,27,51.1545501699,5.63979460968
3960,Bree,Schoolstraat,18,51.1425767761,5.59072712153
3960,Bree,Omselweg,55,51.1133369278,5.65583044683
3960,Bree,Hulsbosstraat,18,51.1359527689,5.63992400518
3960,Bree,Nieuwstadpoort,3,51.1406025665,5.59475884093
3960,Bree,Waterstraat,19,51.169512317,5.61242076936
3960,Bree,Genattestraat,5,51.1593235918,5.58859007156
3960,Bree,Wiekersbeekstraat,8,51.1365361263,5.60562058731
3960,Bree,Vostertstraat,26,51.1241541807,5.58805618767
3960,Bree,Pater Neyenslaan,10,51.118935192,5.64548243176
3960,Bree,Pater Coninxlaan,15,51.129005351,5.59066753499
3960,Bree,Graevenstraat,16,51.155203856,5.60041706338
3960,Bree,Kerkstraat,54,51.1595280022,5.6063512875
3960,Bree,Opitterkiezel,85,51.1330695813,5.61609685563
3960,Bree,Industrieterrein Kanaal-Noord,1144,51.1472473241,5.62789437485
3960,Bree,Barrierstraat,35,51.1455338133,5.58372065652
3960,Bree,Brugstraat,50,51.141417324,5.61427203151
3960,Bree,Luytenstraat,34,51.1158294132,5.60997159852
3960,Bree,Gruitroderkiezel,189,51.1196013026,5.59237912676
3960,Bree,Bocholterstraat,15,51.1459344198,5.59746750007
3960,Bree,Gerdingerpoort,31,51.1441583275,5.59308020948
3960,Bree,Keerpuntstraat,10,51.1368920337,5.5945815153
3960,Bree,Hansweg,13,51.1312733392,5.57403310854
3960,Bree,Tulpenlaan,16,51.1265308391,5.5889781415
3960,Bree,Millenstraat,25,51.1409016072,5.60690795912
3960,Bree,Steyvenstraat,17,51.146293622,5.60845236834
3960,Bree,Herenstraat,13,51.1377793969,5.6103044298
3960,Bree,Solterveldstraat,27,51.1121218689,5.65454956604
3960,Bree,Rorenweg,56,51.1215370957,5.63994915278
3960,Bree,Opitterpoort,22,51.1395932432,5.60248683453
3960,Bree,Berkenlaan,44,51.1223747124,5.58637737503
3960,Bree,Gerdingerpoort,13,51.1432095352,5.59334015053
3960,Bree,Vennestraat,9,51.1578835197,5.59237514789
3960,Bree,Gruitroderstraat,43,51.1347683389,5.59509273377
3960,Bree,Veeweidestraat,45,51.1501524067,5.60747141623
3960,Bree,Neyenstraat,12,51.112342459,5.57788059132
3960,Bree,Filterstraat,67,51.1381965694,5.57713012951
3960,Bree,Teelestraat,9,51.113965217,5.65818597775
3960,Bree,Glycinestraat,13,51.1437019681,5.59646548829
3960,Bree,Muizendijkstraat,116,51.1094078896,5.57059128537
3960,Bree,Rorenweg,8,51.1330183522,5.62968117654
3960,Bree,Filterstraat,49,51.138362695,5.58075820226
3960,Bree,Beukenhofstraat,19,51.1322750282,5.5721543768
3960,Bree,Schoolstraat,48,51.1454068178,5.58869156109
3960,Bree,Heerbaan,8,51.1220439206,5.63744820215
3960,Bree,Klein Stukkenstraat,9,51.1222766733,5.60294886744
3960,Bree,Opitterstraat,5,51.141382523,5.59967109081
3960,Bree,Nieuwstadstraat,14,51.1411202456,5.59502295505
3960,Bree,Meeuwerkiezel,213,51.1223431346,5.55863314363
3960,Bree,Sint-Jansstraat,9,51.1483719646,5.5825534827
3960,Bree,Kerkhofstraat,1,51.1267750791,5.65881215968
3960,Bree,Anjerstraat,1,51.1364533887,5.604705875
3960,Bree,Opitterkiezel,14,51.1359912829,5.60889610928
3960,Bree,Opstraat,87,51.1104731588,5.63153113968
3960,Bree,Maaseikerbaan,23,51.1167198504,5.65074404414
3960,Bree,Witte Torenstraat,21,51.1434765892,5.59910606227
3960,Bree,Pater Coninxlaan,43,51.1269130538,5.58888612486
3960,Bree,Beerselerdijk,1,51.1432355068,5.65323187597
3960,Bree,Korenbloemstraat,1A,51.1516908465,5.60576608965
3960,Bree,Herenstraat,31,51.1367684462,5.6114599996
3960,Bree,Siemenstraat,32,51.1435550618,5.58785913118
3960,Bree,Dorpstraat,14,51.1268101742,5.66063210119
3960,Bree,Hoogveldstraat,59,51.1475773981,5.6075775886
3960,Bree,Molenstraat,43,51.1162351996,5.63788945446
3960,Bree,Tongerlostraat,13,51.1186937892,5.64663770016
3960,Bree,Watertorenstraat,35,51.1329388364,5.59173908565
3960,Bree,Peerderbaan,9,51.1398349711,5.58616116972
3960,Bree,'t Hasseltkiezel,11,51.1432419598,5.65125066379
3960,Bree,Kruittorenwal,24,51.1416654624,5.59383955408
3960,Bree,Veeweidestraat,81,51.1531003466,5.60348517332
3960,Bree,Kluitshofweg,4,51.1279971315,5.57931891205
3960,Bree,Pater Coninxlaan,11B,51.1291755703,5.59093258665
3960,Bree,Zijstraat,6,51.1395367931,5.5899165943
3960,Bree,Bruglaan,33,51.1420230243,5.61120702923
3960,Bree,Bosstraat,87,51.1333271676,5.66727003152
3960,Bree,Keyartstraat,36,51.1264867885,5.65917178689
3960,Bree,Roermonderstraat,27,51.1417401602,5.64894354009
3960,Bree,Groenstraat,118,51.1400675213,5.70626995234
3960,Bree,'t Hasselt,1,51.1384822143,5.65450323817
3960,Bree,Berkenlaan,62,51.1211479103,5.58644180882
3960,Bree,Maaseikerbaan,58,51.114524414,5.65885042853
3960,Bree,Steyvenstraat,6,51.1452499928,5.60723626216
3960,Bree,Kanaallaan,17,51.1441950877,5.60531961571
3960,Bree,Truyenhofstraat,1A,51.1432047667,5.57578262872
3960,Bree,Molenstraat,61,51.1146548302,5.63893357759
3960,Bree,Gruitroderkiezel,290,51.1129872171,5.59186722207
3960,Bree,Keyartstraat,18,51.1250356769,5.65763693476
3960,Bree,Veeweidestraat,47,51.1502715489,5.60731477585
3960,Bree,Bruglaan,15,51.14250392,5.60796556876
3960,Bree,Regenboogstraat,3,51.1401350033,5.60294816007
3960,Bree,Boneputterveld,17,51.1361602394,5.59112701941
3960,Bree,Bosstraat,24,51.1278197204,5.65967509208
3960,Bree,Swennenstraat,25,51.1455253431,5.60620066904
3960,Bree,Rozenlaan,21,51.124188548,5.58922678858
3960,Bree,Kipdorpstraat,9,51.1203347141,5.58984600472
3960,Bree,Bergstraat,8,51.1133523234,5.66270218203
3960,Bree,Tongerlostraat,31,51.1204843282,5.64852027207
3960,Bree,Conenstraat,16,51.1406221272,5.59305734118
3960,Bree,Witte Torenwal,28,51.14272366,5.59657195089
3960,Bree,Meinestraat,22,51.1420826236,5.59905374224
3960,Bree,Rorenweg,38,51.1237960969,5.64000893359
3960,Bree,Gruitroderkiezel,182,51.1238364787,5.59146783564
3960,Bree,Meeuwerkiezel,109,51.1300495543,5.57597474031
3960,Bree,Veldekensweg,1,51.131301865,5.56524619606
3960,Bree,Berkenlaan,9,51.1247522079,5.58710651505
3960,Bree,Mussenburgveld,22,51.140905941,5.60916515632
3960,Bree,Stukkenstraat,22,51.1222685235,5.60646220221
3960,Bree,Barrierstraat,6,51.147635872,5.58826358581
3960,Bree,Sint-Jobstraat,19,51.1384911083,5.59968773356
3960,Bree,Kolisboomstraat,4,51.1404684056,5.58129904024
3960,Bree,Kruittorenwal,4,51.1422146912,5.59470128913
3960,Bree,Roterstraat,41,51.1336257141,5.60767747291
3960,Bree,Vrijheidslaan,54,51.1532825042,5.6030877449
3960,Bree,Vostertstraat,44,51.1226441603,5.5884455989
3960,Bree,Swennenstraat,43,51.1460570138,5.60572839715
3960,Bree,Boneputstraat,68,51.1347036728,5.58717632241
3960,Bree,Bloemenstraat,6,51.1447895376,5.59617424218
3960,Bree,Peerderbaan,79,51.1393550558,5.57629098941
3960,Bree,Muizendijkstraat,14,51.1131622763,5.5890369288
3960,Bree,Caubergstraat,78,51.1107265814,5.65142417349
3960,Bree,Industrieterrein Kanaal-Noord,1449,51.1459002216,5.61698657132
3960,Bree,Jef van Hoofstraat,28,51.1536998163,5.60607435977
3960,Bree,Keerpuntstraat,6,51.1366416274,5.59429100946
3960,Bree,Gruitroderkiezel,164,51.1252966451,5.59143106935
3960,Bree,Brugstraat,85,51.1427119166,5.61841590688
3960,Bree,Nieuwstadstraat,3,51.1411392244,5.59604195816
3960,Bree,Opitterpoort,49,51.139205188,5.60444977248
3960,Bree,Kruittorenwal,42,51.1409421373,5.59442792619
3960,Bree,Millenstraat,43,51.1395187177,5.60822343049
3960,Bree,Opitterkiezel,3,51.1377193204,5.60705705032
3960,Bree,Swennenstraat,5,51.1458515808,5.60700654103
3960,Bree,Brugstraat,49,51.1406323533,5.61190012521
3960,Bree,Wijkstraat,8,51.1470992793,5.59155401305
3960,Bree,Barrierstraat,53,51.1441165299,5.580393825
3960,Bree,Veestraat,29A,51.1338475479,5.67609627003
3960,Bree,Thijsstraat,5,51.1482544679,5.58873269296
3960,Bree,Meeuwerkiezel,69,51.1333941747,5.58500188922
3960,Bree,Ter Rivierenwal,4,51.1404984765,5.59499976164
3960,Bree,Kuilenstraat,95,51.1619985895,5.61758152422
3960,Bree,Toleikstraat,15,51.1454060069,5.60187756848
3960,Bree,Hoogveldstraat,24,51.148727913,5.60736457223
3960,Bree,Veestraat,17,51.1348956004,5.67448222437
3960,Bree,Maalbosstraat,11,51.1380296376,5.61380482051
3960,Bree,Houterstraat,20,51.1529617533,5.64201946403
3960,Bree,Hubesheide,18,51.1227346726,5.66825174824
3960,Bree,Filterstraat,3,51.1395611496,5.58684810729
3960,Bree,Neyenstraat,9,51.1117465965,5.57728532751
3960,Bree,Riekskensstraat,19,51.1363271934,5.5826304069
3960,Bree,Stationswal,15,51.1411634203,5.60081815282
3960,Bree,Gruitroderkiezel,201,51.1192045034,5.59294037866
3960,Bree,Lindehofstraat,11,51.1455724658,5.59771122844
3960,Bree,Boolenstraat,1,51.1339746807,5.59461993782
3960,Bree,Genastraat,29,51.1581896372,5.59919493738
3960,Bree,Passtraat,4,51.1427204646,5.5919212022
3960,Bree,Dirixstraat,20,51.1563209656,5.6063338486
3960,Bree,Hubesheide,36,51.1231495605,5.67065640549
3960,Bree,Opitterkiezel,180,51.1223883467,5.63497936542
3960,Bree,Opitterpoort,67,51.1388142619,5.6052003725
3960,Bree,Schoolstraat,11,51.1420962545,5.59032911191
3960,Bree,Kromstraat,16,51.1414227738,5.58277563731
3960,Bree,Barrierstraat,71,51.1425274866,5.57727383189
3960,Bree,Keyartstraat,7,51.1247345885,5.65562130253
3960,Bree,Industrieterrein Kanaal-Noord,2002,51.1402959762,5.62696432841
3960,Bree,Bosstraat,141,51.1384246367,5.67520598714
3960,Bree,Bocholterkiezel,104,51.1551902934,5.59538468841
3960,Bree,Nieuwstadweg,32,51.1416269824,5.59263610523
3960,Bree,Opitterkiezel,39,51.13590091,5.61062427745
3960,Bree,Nieuwstadpoort,20,51.1403567694,5.59373046833
3960,Bree,Witte Torenwal,21,51.1424647504,5.59759939454
3960,Bree,Schoolstraat,46,51.1451303843,5.58876065513
3960,Bree,Bocholterkiezel,122,51.1570507275,5.59434769611
3960,Bree,Roterstraat,48,51.1341042776,5.60696416517
3960,Bree,Parkstraat,16,51.1388518682,5.59733423573
3960,Bree,Steyvenstraat,10,51.1453203365,5.60737776256
3960,Bree,Grauwe Torenwal,16,51.1389984302,5.59930656023
3960,Bree,Oudestraat,16,51.1386251356,5.59790444234
3960,Bree,Hubesheide,8,51.12263634,5.66683804631
3960,Bree,Kuilenstraat,24,51.1497603064,5.63064321225
3960,Bree,Meeuwerkiezel,155,51.126366219,5.57009445688
3960,Bree,Gruitroderkiezel,136,51.127423113,5.59138860357
3960,Bree,Bocholterkiezel,25,51.147860605,5.59425086528
3960,Bree,Geussensstraat,16,51.1560292134,5.60522207886
3960,Bree,Beekstraat,1,51.1258894919,5.66073963514
3960,Bree,Wilgenstraat,6,51.1377298585,5.59828998517
3960,Bree,Wiekersbeekstraat,21,51.1371141868,5.60528537944
3960,Bree,Genastraat,10A,51.1580274358,5.60131632842
3960,Bree,Korenbloemstraat,13,51.1509670799,5.60413513349
3960,Bree,Opitterpoort,14,51.1397439291,5.60220172262
3960,Bree,Malta,23,51.1430624641,5.60309516493
3960,Bree,Solterweg,55,51.1201106224,5.66675998581
3960,Bree,Hoogstraat,34,51.1414560063,5.59983994628
3960,Bree,Houbornstraat,5,51.1356265027,5.59722763501
3960,Bree,Driehoevenstraat,22,51.1474183548,5.60398646033
3960,Bree,Bergstraat,56,51.1119609277,5.65616572129
3960,Bree,Solterweg,40,51.1218436705,5.66427254767
3960,Bree,Muizendijkstraat,67,51.110183674,5.57608539388
3960,Bree,Meeuwerkiezel,87,51.1320896057,5.5829823031
3960,Bree,Spilstraat,14,51.1179778415,5.64861656741
3960,Bree,Muizendijkstraat,69A,51.1098981313,5.5753939451
3960,Bree,Herenstraat,38,51.1349607489,5.61303753485
3960,Bree,Opitterpoort,29,51.1395469382,5.60355281224
3960,Bree,Pater Coninxlaan,5A,51.1303081516,5.59144986494
3960,Bree,Dwarsstraat,3,51.1132524117,5.58032441117
3960,Bree,Hansweg,38,51.1326093761,5.57618124076
3960,Bree,Kanaalkom,15,51.1484806911,5.61168123918
3960,Bree,Brugstraat,29,51.1399172751,5.61028026398
3960,Bree,Stift,10,51.1437904185,5.59601720056
3960,Bree,Beukenhofstraat,12,51.1323910437,5.57373462412
3960,Bree,Steenbergstraat,17,51.1252420822,5.62544667388
3960,Bree,Kanaallaan,81,51.1460901166,5.61061239679
3960,Bree,Peerderbaan,26,51.1403337049,5.58414106599
3960,Bree,Wolstraat,11,51.1555882617,5.59984853875
3960,Bree,Opitterstraat,22,51.1406307377,5.60007212602
3960,Bree,De Houborn,20,51.1353378661,5.6016273471
3960,Bree,Gerdingerstraat,13,51.1416962708,5.59539922019
3960,Bree,Meinestraat,29,51.1424136154,5.59915007135
3960,Bree,Bosstraat,80,51.1316603752,5.66626851388
3960,Bree,Muizendijkstraat,85,51.1092162176,5.57279418922
3960,Bree,Sint-Jobstraat,9,51.1385950658,5.59894339242
3960,Bree,Genastraat,40,51.1599095621,5.59778976546
3960,Bree,Goudbloemstraat,13,51.1486953772,5.60565868054
3960,Bree,Glycinestraat,2,51.1431300982,5.59724490574
3960,Bree,Hoogveldstraat,42,51.1475889954,5.60653266401
3960,Bree,Schutterijstraat,20,51.1499120677,5.59759780814
3960,Bree,Hoogstraat,16,51.141136435,5.59854534606
3960,Bree,Panhovenstraat,13,51.1381219981,5.62129921178
3960,Bree,Vrijthof,9,51.1417937945,5.59774136139
3960,Bree,Muizendijkstraat,32,51.1119283524,5.58739070167
3960,Bree,Herenstraat,2,51.1380423324,5.60900747065
3960,Bree,Wolstraat,46,51.1570871613,5.5963257441
3960,Bree,'t Hasseltkiezel,18,51.1423917312,5.65563804612
3960,Bree,Gerdingerpoort,2,51.1425174904,5.595486255
3960,Bree,Witte Torenstraat,28,51.1448342024,5.59911841019
3960,Bree,Oudestraat,34,51.1378361827,5.59721404968
3960,Bree,Siemenstraat,39,51.1426340098,5.58790653136
3960,Bree,Kloosterstraat,10,51.1404705781,5.59685180319
3960,Bree,Maaseikerbaan,41,51.1161791691,5.65380926275
3960,Bree,Beukenhofstraat,30,51.1333182422,5.5716756033
3960,Bree,Roermonderstraat,20,51.1390711188,5.63703510976
3960,Bree,Kookshofstraat,24,51.1483796177,5.59384999655
3960,Bree,Kanaallaan,63,51.1455670975,5.6093807863
3960,Bree,Hansweg,2,51.1303275932,5.57490465805
3960,Bree,Carloweg,5,51.123274507,5.64842688351
3960,Bree,Eetseveldstraat,14,51.1163659929,5.60774410172
3960,Bree,Schraalerstraatje,2,51.1564297603,5.59513021721
3960,Bree,Gruitroderkiezel,43,51.1346203298,5.59342634504
3960,Bree,Panhovenstraat,31,51.1363323581,5.61845261681
3960,Bree,Hongerbeek,1,51.1447640239,5.59182754944
3960,Bree,Boneputterveld,10,51.1374466982,5.59216698214
3960,Bree,Riekskensstraat,9,51.1381880607,5.58464136354
3960,Bree,Stift,81,51.1464101366,5.60016013684
3960,Bree,Berkenlaan,26,51.1236142541,5.58630669877
3960,Bree,Peerderbaan,97,51.138955809,5.57237776209
3960,Bree,Neyenstraat,19,51.1123395638,5.57700560559
3960,Bree,Poststraat,18,51.1297580474,5.6612527329
3960,Bree,Solterweg,29,51.1237861143,5.66401472266
3960,Bree,Meeuwerkiezel,120,51.1295296245,5.57309529038
3960,Bree,Wilgenstraat,10,51.1376121241,5.59857996638
3960,Bree,Meinestraat,14,51.1419352961,5.59870730279
3960,Bree,Pater Coninxlaan,25,51.1282091525,5.59026466911
3960,Bree,Opitterpoort,40,51.1391681379,5.60328328199
3960,Bree,Omselweg,19,51.1149328241,5.65265033071
3960,Bree,Spilstraat,3,51.1177438978,5.646961234
3960,Bree,Mussenburgstraat,14,51.1422614295,5.6065816052
3960,Bree,Stift,43,51.1445318071,5.59694208182
3960,Bree,'t Hasseltkiezel,1,51.1432169465,5.62518874
3960,Bree,Nieuwstadpoort,19,51.1401083621,5.59393116137
3960,Bree,Muizendijkstraat,93,51.1087172841,5.57120815542
3960,Bree,Bergstraat,18,51.1128411395,5.66127678151
3960,Bree,Dorpstraat,57,51.1283610172,5.66289808182
3960,Bree,Graevenstraat,24,51.1552085181,5.59921196584
3960,Bree,Bocholterkiezel,5,51.1443323561,5.59376577669
3960,Bree,Gruitroderstraat,25,51.1354106671,5.59614713383
3960,Bree,Opitterkiezel,57,51.1344289349,5.61339244029
3960,Bree,Peerderbaan,72,51.1398610449,5.57676994365
3960,Bree,Caubergstraat,5,51.1160040822,5.64825110478
3960,Bree,Bergstraat,36,51.1127653675,5.65891181708
3960,Bree,Truyenhofstraat,4,51.1430470202,5.57654427795
3960,Bree,Riekskensstraat,20,51.1367567202,5.58195854208
3960,Bree,Hubesheide,21,51.1236313826,5.66923498494
3960,Bree,Kleine Schoolstraat,5,51.1418587123,5.58955046727
3960,Bree,Beukenhofstraat,9,51.1318833727,5.57342790535
3960,Bree,Maaseikerbaan,13,51.1168202679,5.64989235973
3960,Bree,Watertorenstraat,10,51.1343722027,5.59190223221
3960,Bree,Schoolstraat,2,51.1418463532,5.59117788767
3960,Bree,Rorenweg,11,51.1299396966,5.63697823459
3960,Bree,Maalbosstraat,2,51.1385363496,5.61097032881
3960,Bree,Toleikstraat,6,51.1442461558,5.60380018157
3960,Bree,Opitterkiezel,179,51.1224151588,5.63629932994
3960,Bree,Anjerstraat,11,51.1358186497,5.60537966709
3960,Bree,Genastraat,32,51.1595241153,5.59840751165
3960,Bree,Wolstraat,28,51.1564104162,5.59886268422
3960,Bree,Peerderbaan,54,51.139957577,5.57991017902
3960,Bree,Stift,6,51.1436317817,5.59586696983
3960,Bree,Maaseikerbaan,66,51.1139388152,5.661097916
3960,Bree,Groenstraat,39,51.1285456123,5.66781769725
3960,Bree,Beerselerdijk,11,51.1453258861,5.65823152489
3960,Bree,Dijkstraat,49,51.1338041211,5.5595506549
3960,Bree,Opstraat,59,51.1134570064,5.64151640925
3960,Bree,Stationswal,6,51.1409529612,5.6016704716
3960,Bree,St.-Antoniusstraat,15,51.1134242596,5.66243866259
3960,Bree,Roterstraat,13,51.1361462539,5.60789683119
3960,Bree,Roterstraat,66,51.1312446603,5.6066138582
3960,Bree,Solterveldstraat,83,51.1128822811,5.65138610928
3960,Bree,Houbornstraat,15,51.1303169833,5.60609177204
3960,Bree,Solterveldstraat,37,51.1118766742,5.65384371091
3960,Bree,Opitterkiezel,126,51.1261814293,5.6278333396
3960,Bree,Opitterkiezel,197,51.1201194458,5.64098361634
3960,Bree,Herenstraat,23,51.1373988462,5.61080888069
3960,Bree,Itterplein,20,51.1167764343,5.64591991331
3960,Bree,Omselweg,37,51.1137982446,5.65449259415
3960,Bree,Wolstraat,2,51.1554516676,5.60248597095
3960,Bree,Gerdingerpoort,23,51.1438985397,5.59332950107
3960,Bree,Nieuwstadpoort,37,51.1398095842,5.5922031872
3960,Bree,Genattestraat,39,51.1627923985,5.58985915498
3960,Bree,Maaseikerbaan,31,51.116531985,5.65228664167
3960,Bree,Gruitroderkiezel,264,51.1171550597,5.59171070233
3960,Bree,Schoolstraat,28,51.1434463532,5.5903551562
3960,Bree,Eetseveldstraat,3,51.1176505045,5.6077249009
3960,Bree,Gijbelsstraat,13,51.1411226057,5.58499189944
3960,Bree,Hubesheide,48,51.1232816127,5.67278906659
3960,Bree,Brugstraat,14,51.1392786971,5.61008608098
3960,Bree,Brugstraat,40,51.1403703158,5.6127851665
3960,Bree,Kerkstraat,44,51.1585267503,5.60550742066
3960,Bree,Opitterkiezel,75,51.133614672,5.61493747164
3960,Bree,Meeuwerkiezel,102,51.130629542,5.5767248294
3960,Bree,Bruglaan,25,51.1423213266,5.60928351399
3960,Bree,Opitterpoort,32,51.1393219325,5.60279576445
3960,Bree,Korenbloemstraat,4,51.1520995094,5.60503005139
3960,Bree,Rooyerstraat,1,51.1205162132,5.59382454734
3960,Bree,Meeuwerkiezel,60,51.1343130733,5.58531160169
3960,Bree,Kruittorenwal,16,51.1419287957,5.59414057471
3960,Bree,Industrieterrein Kanaal-Noord,1432,51.1472819728,5.61958364127
3960,Bree,Berkenlaan,54,51.1216683186,5.58641752405
3960,Bree,Neyenstraat,20,51.1131353334,5.57768274252
3960,Bree,Filterstraat,57,51.1381428938,5.57969904968
3960,Bree,Gruitroderkiezel,5,51.1373204005,5.59409719979
3960,Bree,Panhovenstraat,41,51.1341784445,5.6166367323
3960,Bree,Maalbosstraat,15A,51.1379641021,5.6146816143
3960,Bree,Kloosterpoort,6,51.1396890794,5.59601469242
3960,Bree,Abroxweg,17,51.1587937546,5.6018732508
3960,Bree,Veestraat,35,51.1334872345,5.67670359586
3960,Bree,Bosstraat,77,51.1326830863,5.6663990984
3960,Bree,Rorenweg,46,51.1225394223,5.64061355957
3960,Bree,Regenboogstraat,19,51.1395911743,5.60671700756
3960,Bree,Itterplein,9,51.1169350392,5.64818990797
3960,Bree,Bosstraat,113,51.1354298216,5.67130036446
3960,Bree,Brugstraat,32,51.1399880434,5.61143110122
3960,Bree,Barrierstraat,10,51.1475995278,5.58768320841
3960,Bree,Cosijnstraat,11,51.1392456128,5.59537469288
3960,Bree,Swennenstraat,33,51.1457265553,5.60603606909
3960,Bree,Beekstraat,8,51.1260246703,5.65997105376
3960,Bree,Gruitroderkiezel,15,51.1369825098,5.59388570546
3960,Bree,Opstraat,77,51.1128295693,5.63921800377
3960,Bree,De Houborn,37,51.135546209,5.60021165576
3960,Bree,Dijkstraat,39,51.1346284754,5.56053102424
3960,Bree,Heerbaan,18,51.1225934361,5.63674201189
3960,Bree,Vrijheidslaan,7,51.1479582355,5.60068994226
3960,Bree,Vaesstraat,1A,51.1410262485,5.59840453724
3960,Bree,Muizendijkstraat,3,51.1122316177,5.59138984238
3960,Bree,Bergstraat,82,51.1104764637,5.653051977
3960,Bree,'t Hasseltkiezel,21,51.1430383498,5.65940155133
3960,Bree,Weegbreestraat,11,51.1506444892,5.6008802045
3960,Bree,Rode Kruislaan,55,51.1382636293,5.60336382106
3960,Bree,Schutterijstraat,37,51.1521268027,5.60003867718
3960,Bree,Solterveldstraat,19,51.1122560781,5.65513582946
3960,Bree,Bloemenstraat,10,51.1451964468,5.59586051371
3960,Bree,Caubergstraat,51,51.1126891367,5.65077795081
3960,Bree,Witte Torenstraat,11,51.1431033717,5.59958456184
3960,Bree,Veeweidestraat,53,51.1506588335,5.60684364093
3960,Bree,Hongerbeek,8,51.1439508525,5.59184854465
3960,Bree,Bosstraat,16,51.1275188326,5.65881985017
3960,Bree,Panhovenstraat,4,51.1378637728,5.61997261401
3960,Bree,Boogschuttersstraat,10C,51.1425481345,5.59301253632
3960,Bree,Filterstraat,75,51.1381377782,5.57634866976
3960,Bree,Keyartstraat,26,51.1255874081,5.65811289474
3960,Bree,De Houborn,19,51.1353066987,5.60175369633
3960,Bree,Bocholterkiezel,51,51.1506648782,5.59457321405
3960,Bree,Bosstraat,131,51.136465227,5.66966122784
3960,Bree,Passtraat,16,51.1431264672,5.5919972961
3960,Bree,Conenstraat,59,51.1415026188,5.59134766484
3960,Bree,Wijkstraat,21,51.1472479954,5.59075351934
3960,Bree,Hoogveldstraat,16,51.1493617926,5.60685897342
3960,Bree,Gerdingerstraat,4,51.1417088663,5.59602921105
3960,Bree,Stift,17,51.1437609191,5.5954047448
3960,Bree,Waterstraat,9,51.1682494136,5.61363284335
3960,Bree,Peerderbaan,90,51.1397497725,5.5739996045
3960,Bree,Berkenbroekstraat,1,51.1493988217,5.70017982772
3960,Bree,Witte Torenwal,18,51.1430391964,5.59803154021
3960,Bree,Goudbloemstraat,4,51.1502396596,5.60540987797
3960,Bree,Bosstraat,59,51.1306352012,5.66445662075
3960,Bree,Beukenhofstraat,27,51.1327450866,5.57130163153
3960,Bree,Gruitroderkiezel,146,51.1270186196,5.59130543689
3960,Bree,Millenstraat,15,51.1417022541,5.60587923703
3960,Bree,Wiekersbeekstraat,18,51.1358719893,5.60590835185
3960,Bree,Bosstraat,34,51.1282127549,5.66060375822
3960,Bree,Maaseikerbaan,61A,51.1151587453,5.65779115074
3960,Bree,Swennenstraat,15,51.1458688349,5.60646746552
3960,Bree,Ter Rivierenwal,16,51.1400344511,5.59585243008
3960,Bree,Rozenlaan,11,51.123919128,5.59014630466
3960,Bree,Sint-Jozefstraat,9,51.1158544836,5.6463033452
3960,Bree,Truyenhofstraat,2A,51.1424103452,5.577019704
3960,Bree,Neerstraat,15,51.1561397769,5.61658958875
3960,Bree,Veeweidestraat,71,51.1526199588,5.60468433635
3960,Bree,Kerkstraat,7,51.154611507,5.60275809147
3960,Bree,Hoogstraat,42,51.1415832005,5.60022872751
3960,Bree,Stift,39A,51.1447222209,5.59644901996
3960,Bree,Hulsbosstraat,21,51.1341443014,5.64197793239
3960,Bree,Industrieterrein Kanaal-Noord,1179,51.1497850299,5.62352069692
3960,Bree,Kuilenstraat,87,51.1616929042,5.61941796119
3960,Bree,Opitterpoort,57,51.1389653825,5.60484011922
3960,Bree,Nieuwstadpoort,12,51.1406072191,5.59418133616
3960,Bree,Genastraat,3,51.1561447353,5.60214676687
3960,Bree,Riekskensstraat,27,51.1358331742,5.5824232293
3960,Bree,Industrieterrein Peerderbaan,1314,51.143089087,5.56506744561
3960,Bree,Schoolstraat,21,51.1429025791,5.58985802142
3960,Bree,Omselweg,12,51.116330078,5.64978121518
3960,Bree,Barrierstraat,45,51.1446110477,5.58143624388
3960,Bree,Dirixstraat,12,51.1556518939,5.60695524546
3960,Bree,Stationswal,25,51.1415131844,5.60065775154
3960,Bree,Heuvelstraat,9,51.1308254732,5.56948481812
3960,Bree,Lindehofstraat,21,51.1453265655,5.59805033622
3960,Bree,Hovestraat,12,51.1292617974,5.63282165289
3960,Bree,Stukkenstraat,32,51.1210215515,5.60694768631
3960,Bree,Ellikommerstraat,3,51.1333797384,5.5565704363
3960,Bree,Tulpenlaan,4,51.1266921937,5.59064643243
3960,Bree,Roterstraat,2,51.1372124801,5.60659348279
3960,Bree,Dorpstraat,40,51.1280916141,5.66335408591
3960,Bree,Velkuilenstraat,7,51.1395401749,5.5940548645
3960,Bree,Panhovenstraat,23,51.1373849259,5.62053579829
3960,Bree,Hongerbeek,10,51.1438044646,5.59195575438
3960,Bree,Opitterpoort,75,51.1386278557,5.6054790927
3960,Bree,Watertorenstraat,17,51.13428102,5.5926325668
3960,Bree,Groenstraat,67,51.1302710718,5.67193312908
3960,Bree,Opitterkiezel,154,51.1242509944,5.63093729306
3960,Bree,Maalbosstraat,21,51.1372227846,5.61555007402
3960,Bree,Gruitroderkiezel,174,51.1246577839,5.59148662715
3960,Bree,Jef van Hoofstraat,18,51.1541237513,5.60455005347
3960,Bree,Maaseikerbaan,2,51.1166102265,5.64840540307
3960,Bree,Gruitroderkiezel,51,51.133893456,5.5932050944
3960,Bree,Bruglaan,43,51.1413490925,5.61316452309
3960,Bree,Gerdingerstraat,23,51.1419808166,5.59522477275
3960,Bree,Meeuwerkiezel,24,51.1360817578,5.58773070255
3960,Bree,Peerderbaan,89,51.1390955736,5.57355158151
3960,Bree,Sint-Jacobstraat,7,51.135981963,5.60399307847
3960,Bree,Weegbreestraat,8,51.1512934057,5.60053312811
3960,Bree,Pater Neyenslaan,30B,51.1203299501,5.64211183281
3960,Bree,Vostertstraat,54,51.1226906208,5.58781269579
3960,Bree,Wolstraat,21,51.1559955369,5.59854339689
3960,Bree,Vostertstraat,7,51.1255847181,5.58872826981
3960,Bree,Meeuwerkiezel,137,51.1280175604,5.57136545776
3960,Bree,Opitterkiezel,40,51.1344394593,5.61196841385
3960,Bree,Barrierstraat,81,51.139454142,5.57062963031
3960,Bree,Opitterstraat,14,51.1408865771,5.59955654865
3960,Bree,Beerselerdijk,18,51.1522257198,5.67710997987
3960,Bree,Bremstraat,16,51.1459691316,5.58974316113
3960,Bree,Solterveldstraat,30,51.1128647561,5.65339186672
3960,Bree,Hoogveldstraat,34,51.148166934,5.60608904411
3960,Bree,Verbindingsstraat,27,51.1140901196,5.65533616743
3960,Bree,Anjerstraat,18,51.1351624998,5.6052229688
3960,Bree,Bocholterstraat,5,51.1454097531,5.59827162515
3960,Bree,Groenstraat,32,51.1279746686,5.66788967785
3960,Bree,Driehoevenstraat,14,51.1473655477,5.60259824022
3960,Bree,Graevenstraat,42,51.1543470088,5.59564770391
3960,Bree,Kerkhofstraat,18,51.1291250813,5.65668184222
3960,Bree,Wiekersbeekstraat,1,51.1363795448,5.60361078391
3960,Bree,Beukenlaan,9,51.1237281881,5.58699122762
3960,Bree,Bruglaan,5,51.1431421535,5.60636043474
3960,Bree,Muizendijkstraat,108,51.1096735034,5.57230442446
3960,Bree,Sint-Jobstraat,27,51.1384098039,5.60013901034
3960,Bree,Steyvenstraat,35,51.1480877386,5.60745063499
3960,Bree,Lieve Vrouwstraat,7,51.1262859541,5.65386167986
3960,Bree,Peerderbaan,115,51.1384663039,5.56024832327
3960,Bree,Kanaalkom,6,51.1475587401,5.61192367638
3960,Bree,Meeuwerkiezel,119,51.129147717,5.5740561017
3960,Bree,Nieuwstadweg,22,51.1413608493,5.5934967248
3960,Bree,Boneputstraat,6,51.1348937896,5.59211094085
3960,Bree,Opitterkiezel,29,51.1362636001,5.60981800406
3960,Bree,Kanaalkaai,5,51.1438756446,5.61681266488
3960,Bree,Luytenstraat,58,51.1158620488,5.63301731729
3960,Bree,Maaseikerbaan,38,51.1155872252,5.65398579871
3960,Bree,Industrieterrein Peerderbaan,1006,51.1395453369,5.56184178481
3960,Bree,Solterweg,47,51.1211061158,5.66657852425
3960,Bree,Rozenlaan,8,51.1244649737,5.59023529614
3960,Bree,Itterplein,19,51.1167158655,5.64619150006
3960,Bree,Opitterkiezel,190,51.12168414,5.63620263484
3960,Bree,Omselweg,30,51.1155207863,5.65054259076
3960,Bree,Kipdorpstraat,14A,51.1212262156,5.58868525884
3960,Bree,Gruitroderkiezel,211,51.1181977329,5.59261860019
3960,Bree,Wolstraat,48,51.1572084389,5.59614380519
3960,Bree,Anjerstraat,8,51.1358116304,5.60460843649
3960,Bree,Molenstraat,33,51.1170267393,5.63739147111
3960,Bree,Regenboogstraat,12,51.1387529787,5.60678323473
3960,Bree,Hoogstraat,24,51.1411622309,5.59897689348
3960,Bree,Kerkhofstraat,8,51.1283504735,5.65719438414
3960,Bree,Beekstraat,10,51.1262686235,5.65999908646
3960,Bree,Siemenstraat,29,51.1433319817,5.58916725948
3960,Bree,Kanaallaan,53,51.1452033645,5.60844027532
3960,Bree,Kerkstraat,26,51.1565015995,5.60441832181
3960,Bree,Opitterpoort,39,51.1392684768,5.60397772622
3960,Bree,Bergstraat,46,51.1124455236,5.6575206065
3960,Bree,Industrieterrein Kanaal-Noord,1126,51.1458890873,5.63013636284
3960,Bree,Nieuwstadweg,39,51.1413224591,5.59231029263
3960,Bree,Schaafdijkstraat,11,51.1666748212,5.63286775595
3960,Bree,Gruitroderkiezel,128,51.1282044588,5.591506928
3960,Bree,Opitterkiezel,226,51.1189602647,5.64195007239
3960,Bree,Dingensstraat,9,51.1269518528,5.61313270209
3960,Bree,Opitterkiezel,93,51.1313261676,5.61932176944
3960,Bree,De Houborn,30,51.135457273,5.60072200148
3960,Bree,Veestraat,6,51.1353430496,5.67283961248
3960,Bree,Cosijnstraat,8,51.1397671685,5.5943059026
3960,Bree,Meinestraat,3,51.1420888266,5.59787231851
3960,Bree,Opitterstraat,32,51.1404693684,5.60061462772
3960,Bree,Schutterijstraat,12,51.1494148939,5.59627987968
3960,Bree,Bergstraat,99,51.1079645616,5.65352001872
3960,Bree,Bocholterkiezel,112,51.1561402474,5.59492647584
3960,Bree,Cosijnstraat,18,51.139489081,5.5945251026
3960,Bree,Wiekersbeekstraat,47,51.1347850563,5.60653012092
3960,Bree,Meeuwerkiezel,77,51.1329983691,5.58413671116
3960,Bree,Jennenstraat,10,51.1525520006,5.61997690364
3960,Bree,Gruitroderstraat,5,51.1363279269,5.59677568844
3960,Bree,Opstraat,60,51.1133234783,5.63961049387
3960,Bree,Brugstraat,39,51.1402247588,5.6110545588
3960,Bree,De Houborn,12,51.1357582725,5.6015807213
3960,Bree,Bergstraat,1,51.1136218819,5.66497401277
3960,Bree,Oudestraat,24,51.1383196817,5.59738453417
3960,Bree,'t Hasseltkiezel,28,51.1422601777,5.66207709761
3960,Bree,Bosstraat,52,51.1288357501,5.66359717052
3960,Bree,Opitterpoort,3,51.1402862584,5.60190380446
3960,Bree,Ter Rivierenwal,11A,51.1403957363,5.59626892271
3960,Bree,Grauwe Torenwal,24,51.1396989323,5.60070947674
3960,Bree,Dreelweg,3,51.1210397653,5.64681003095
3960,Bree,Rode Kruislaan,37,51.1374213945,5.59945561361
3960,Bree,Beukenhofstraat,20,51.1327662432,5.57283172334
3960,Bree,Parkstraat,24,51.1387320088,5.59766446828
3960,Bree,Solterveldstraat,12,51.1126570455,5.65421195481
3960,Bree,Rorenweg,1,51.1362709588,5.61881720984
3960,Bree,Witte Torenstraat,18,51.1445238567,5.59972306341
3960,Bree,Herenstraat,34C,51.1351936381,5.61256405941
3960,Bree,Pater Coninxlaan,5,51.1304317424,5.59139980914
3960,Bree,Hoogveldstraat,52,51.1470678995,5.60703352229
3960,Bree,Bocholterkiezel,15,51.1456399218,5.59381009969
3960,Bree,Soezenstraat,1,51.1269835466,5.65766227098
3960,Bree,Caubergstraat,68,51.1114440445,5.65057625059
3960,Bree,Schutterijstraat,30,51.1505141094,5.59867710923
3960,Bree,Nieuwstadweg,3,51.1405355654,5.59354123695
3960,Bree,Weegbreestraat,18,51.1505144626,5.59965180386
3960,Bree,Muizendijkstraat,22,51.1122241685,5.58875077508
3960,Bree,Wiekersbeekstraat,11,51.1368183706,5.6044578984
3960,Bree,Wolstraat,56,51.1575319997,5.59519978649
3960,Bree,Renkensweg,7,51.1337832876,5.58369062547
3960,Bree,Conenstraat,42,51.1413197354,5.59205284332
3960,Bree,Meinestraat,39,51.1420593576,5.59950015407
3960,Bree,Bocholterkiezel,68,51.1508016026,5.59553434322
3960,Bree,Lieve Vrouwstraat,17,51.1256693021,5.65223779205
3960,Bree,Muizendijkstraat,75,51.1095770383,5.57428415129
3960,Bree,Meeuwerkiezel,95,51.1316996764,5.58209503037
3960,Bree,Bocholterstraat,61,51.1515662257,5.596153218
3960,Bree,Bosstraat,70,51.1308051435,5.66545177094
3960,Bree,Swennenstraat,51,51.1463287704,5.60550620626
3960,Bree,Groenstraat,49,51.1292408847,5.66910833304
3960,Bree,Stukkenstraat,14,51.1236781567,5.60557915137
3960,Bree,Industrieterrein Peerderbaan,1411,51.1425429944,5.56338710479
3960,Bree,Caubergstraat,33,51.1141498251,5.65032514772
3960,Bree,Caubergstraat,86,51.1100777798,5.65233965199
3960,Bree,Heuvelstraat,8A,51.1367643719,5.5679897232
3960,Bree,Groenstraat,92A,51.1285914864,5.68102635613
3960,Bree,Molenstraat,4A,51.1197893377,5.63883167731
3960,Bree,Veeweidestraat,35,51.1494355309,5.60816691445
3960,Bree,Markt,4,51.1415374897,5.59693032038
3960,Bree,Graevenstraat,23,51.1543946328,5.59904283963
3960,Bree,Bocholterkiezel,147,51.1627745765,5.59081661399
3960,Bree,Caubergstraat,39,51.1137578343,5.65064974746
3960,Bree,Hoogveldstraat,57,51.1474762433,5.60722830407
3960,Bree,Kipdorpstraat,27,51.1205533431,5.58692654746
3960,Bree,Tongerlostraat,15,51.118822194,5.64674305948
3960,Bree,Groenstraat,42,51.1284467706,5.66913465095
3960,Bree,Kruittorenwal,22,51.1417283016,5.59390879958
3960,Bree,Zijstraat,4,51.1396529635,5.58996664849
3960,Bree,Siemenstraat,25,51.1437637293,5.59038661491
3960,Bree,Watertorenstraat,20,51.1323583534,5.59199092426
3960,Bree,Opstraat,14,51.1158535343,5.64413255575
3960,Bree,Omselweg,80,51.1129304717,5.65500800867
3960,Bree,Jef van Hoofstraat,10,51.1542010724,5.60383664565
3960,Bree,Groenstraat,60,51.1277275973,5.67350228305
3960,Bree,Boneputstraat,40,51.1346805585,5.59024523736
3960,Bree,Kookshofstraat,29,51.1489547989,5.59340742748
3960,Bree,Berkenlaan,27,51.1228619022,5.58721033301
3960,Bree,Gerdingerstraat,7,51.1415781557,5.59576110645
3960,Bree,Peerderbaan,3,51.1396453202,5.58717640844
3960,Bree,Mussenburgstraat,33,51.1422836286,5.60581947398
3960,Bree,Solterveldstraat,44,51.1125888256,5.65230468276
3960,Bree,Kloosterpoort,40,51.1387295555,5.59501517053
3960,Bree,Nieuwstadpoort,53,51.1398142558,5.59014763995
3960,Bree,Kerkstraat,19,51.1557350536,5.60271561193
3960,Bree,Bergstraat,2,51.1135341576,5.66367157848
3960,Bree,Gruitroderkiezel,49,51.1340637101,5.5933277266
3960,Bree,Mussenburgstraat,15,51.141741726,5.60379393964
3960,Bree,'t Hasseltkiezel,35,51.1431223175,5.68177100701
3960,Bree,Tongerlostraat,33,51.1205667563,5.64889393234
3960,Bree,Rode Kruislaan,35,51.1374004863,5.59924514734
3960,Bree,Bocholterkiezel,39,51.1492914678,5.59429058168
3960,Bree,Opitterkiezel,96,51.1289407245,5.62258549609
3960,Bree,Pater Neyenslaan,12,51.1190673724,5.64512294091
3960,Bree,Bosstraat,6,51.1268133043,5.65738812628
3960,Bree,Keyartstraat,29,51.1265200546,5.65857167214
3960,Bree,Meinestraat,24,51.1420450863,5.59908433614
3960,Bree,Gijbelsstraat,8,51.1406348504,5.58558997114
3960,Bree,Herenstraat,24,51.1364552063,5.61048984136
3960,Bree,Gerdingerpoort,33,51.1447096027,5.59261946514
3960,Bree,Vrijthof,10,51.1419539254,5.59735100175
3960,Bree,Filterstraat,25,51.1394857245,5.58596857461
3960,Bree,Hansweg,15,51.1313603767,5.57451528032
3960,Bree,Genatteweg,6,51.1473221217,5.59374791657
3960,Bree,Neerstraat,32,51.1555958849,5.61273318962
3960,Bree,Meeuwerkiezel,156,51.1274063577,5.56888400703
3960,Bree,Opitterpoort,24,51.1395584805,5.60250992352
3960,Bree,Markt,14,51.1415690714,5.59642682463
3960,Bree,Gerdingerpoort,15,51.1434405462,5.59381911657
3960,Bree,Peerderbaan,27,51.139639659,5.58421359589
3960,Bree,Peerderbaan,73,51.1392860906,5.57743327586
3960,Bree,Pater Neyenslaan,30,51.1201661983,5.64208251282
3960,Bree,Schoolstraat,44,51.1451007216,5.58894281713
3960,Bree,Gruitroderstraat,41,51.134847297,5.59516796685
3960,Bree,Maaseikerbaan,105,51.1142759596,5.66644886809
3960,Bree,Mariahofstraat,7,51.1656300946,5.6177633779
3960,Bree,Bergstraat,45,51.1122391275,5.65888342798
3960,Bree,Muizendijkstraat,52,51.1111896107,5.58369277336
3960,Bree,Kloosterpoort,5,51.138475057,5.59556793761
3960,Bree,Solterveldstraat,62,51.1133098051,5.65291793205
3960,Bree,Boneputterveld,17A,51.1359277358,5.59153703248
3960,Bree,Gruitroderkiezel,85,51.1295822568,5.59278914389
3960,Bree,Gruitroderkiezel,6,51.1374005683,5.59358001856
3960,Bree,Anjerstraat,10,51.1356861188,5.60472971527
3960,Bree,Conenstraat,32,51.1410481235,5.59243686309
3960,Bree,Stift,5,51.1434445242,5.59484663623
3960,Bree,Veestraat,30,51.1336017382,5.67550597732
3960,Bree,Klein Stukkenstraat,3,51.1287202199,5.5993274176
3960,Bree,Dijkstraat,7,51.1380179088,5.56384532078
3960,Bree,Hansweg,33,51.1320575169,5.57514180839
3960,Bree,Molenstraat,39,51.1165105147,5.63783566007
3960,Bree,Korenbloemstraat,7,51.1516691534,5.60434454396
3960,Bree,Bremstraat,9,51.1452450719,5.58953627978
3960,Bree,Ter Rivierenwal,22,51.1398640954,5.59627552065
3960,Bree,Opstraat,67,51.1130703662,5.64083131793
3960,Bree,Velkuilenstraat,20,51.1389804767,5.59378538038
3960,Bree,Rooierhagen,2,51.1183903592,5.59095744049
3960,Bree,Eetseveldstraat,8,51.1182956977,5.60622864455
3960,Bree,Conenstraat,14,51.1405767618,5.59311474283
3960,Bree,Hoogveldstraat,5,51.1512305145,5.60456992356
3960,Bree,Meeuwerkiezel,41,51.1356354323,5.58862411892
3960,Bree,Opitterkiezel,149,51.124381933,5.63239369616
3960,Bree,Maaseikerbaan,34,51.1157758443,5.65343251512
3960,Bree,Gruitroderkiezel,14,51.1370306061,5.59345285189
3960,Bree,Groenstraat,7,51.1272275472,5.66349614144
3960,Bree,Houterstraat,9,51.1501564871,5.64478609061
3960,Bree,Gruitroderstraat,13,51.135775283,5.59644221734
3960,Bree,Gerkenbergstraat,49,51.1315600987,5.56088318923
3960,Bree,Filterstraat,1,51.1396148516,5.58696683194
3960,Bree,Bosstraat,85,51.1332231282,5.66706809767
3960,Bree,Barrierstraat,20,51.1472462433,5.5862451475
3960,Bree,Molenstraat,6,51.1197480235,5.63875284667
3960,Bree,'t Hasseltkiezel,47,51.1453031146,5.70591116989
3960,Bree,Stift,57,51.1447585923,5.59770451974
3960,Bree,Boneputterveld,4,51.1379338001,5.59293524951
3960,Bree,Vostertstraat,11,51.1253436433,5.58879440103
3960,Bree,Solterveldstraat,9,51.1124448384,5.6557153157
3960,Bree,Gerdingerpoort,43,51.1457140656,5.59152472532
3960,Bree,Roterstraat,34,51.1343307878,5.60696760075
3960,Bree,Opitterkiezel,167,51.1234804749,5.63480169639
3960,Bree,Gerdingerpoort,61,51.1463787104,5.59009046127
3960,Bree,Thijsstraat,14,51.1486760515,5.58797131553
3960,Bree,Steyvenstraat,37,51.1481701978,5.60770538045
3960,Bree,Teelestraat,18,51.1128824025,5.65776274947
3960,Bree,Hoogveldstraat,29,51.1496224434,5.60728397076
3960,Bree,Gruitroderkiezel,130,51.1280560307,5.59120387597
3960,Bree,Stationswal,5,51.1408571032,5.6010707305
3960,Bree,'t Hasseltkiezel,45,51.1450515974,5.70343195991
3960,Bree,Kloosterstraat,4,51.1406830116,5.5972228042
3960,Bree,Sportlaan,15,51.1470806295,5.59850273209
3960,Bree,Opstraat,49,51.1140043283,5.64248968907
3960,Bree,Industrieterrein Kanaal-Noord,1461,51.1470476649,5.61578222973
3960,Bree,Brugstraat,52,51.1414717777,5.61458088285
3960,Bree,Bergstraat,63,51.1117929934,5.65704614913
3960,Bree,Hansweg,61,51.135956362,5.57424217885
3960,Bree,Witte Torenwal,2,51.1421630012,5.60093056943
3960,Bree,Gruitroderkiezel,112,51.1292053863,5.59151656756
3960,Bree,Grauwe Torenwal,6,51.1394325382,5.59802330476
3960,Bree,Omselweg,9,51.1156297986,5.65161224958
3960,Bree,Kleine Schoolstraat,6,51.1424450532,5.58900101544
3960,Bree,Hulsbosstraat,9,51.1373666927,5.64167656528
3960,Bree,Peerderbaan,91,51.1390801135,5.57326966774
3960,Bree,Truyenhofstraat,7,51.1454846372,5.57209092529
3960,Bree,Millenstraat,23,51.1411301319,5.60660805423
3960,Bree,Leeuwerikstraat,27,51.1383629437,5.60248118446
3960,Bree,Roterstraat,16,51.1360497252,5.60694446124
3960,Bree,De Houborn,38,51.1355845445,5.60010464136
3960,Bree,Steyvenstraat,19,51.1464627384,5.60836524559
3960,Bree,Swennenstraat,23,51.1454700269,5.60624622364
3960,Bree,Opitterkiezel,21B,51.1365901647,5.6093261265
3960,Bree,Rorenweg,54,51.1216865048,5.64001635948
3960,Bree,Dorpstraat,25,51.1277267596,5.6605045909
3960,Bree,Gruitroderkiezel,165,51.1221612934,5.59287146988
3960,Bree,Boneputterveld,28,51.1361461941,5.59020056561
3960,Bree,Bocholterkiezel,6,51.1445413255,5.59435865521
3960,Bree,Opitterpoort,52,51.138686844,5.60422527297
3960,Bree,Rozenlaan,10,51.1245240114,5.59036798312
3960,Bree,Schoolstraat,9,51.1419164506,5.59040786588
3960,Bree,Beukenhofstraat,2,51.1318844775,5.57506118266
3960,Bree,Dirixstraat,9,51.1556481312,5.60575405754
3960,Bree,Bergstraat,81,51.110810461,5.6544526268
3960,Bree,Maaseikerbaan,16,51.1162412181,5.65069448369
3960,Bree,Poststraat,19,51.1298097715,5.6599449978
3960,Bree,Kuilenstraat,109,51.1638815797,5.61483684561
3960,Bree,Caubergstraat,50,51.1127900443,5.64957515167
3960,Bree,Dorpstraat,1,51.1268366065,5.659154024
3960,Bree,Weegbreestraat,10,51.1511291702,5.60038585463
3960,Bree,Beukenhofstraat,17,51.1321980113,5.57247772896
3960,Bree,Boogschuttersstraat,20,51.1422400208,5.59214898888
3960,Bree,Industrieterrein Kanaal-Noord,1443,51.1455377585,5.61761416725
3960,Bree,Opstraat,85,51.1124733872,5.63652869663
3960,Bree,Genattestraat,42,51.1612920868,5.58889473493
3960,Bree,Opitterkiezel,25,51.1364827435,5.60965007067
3960,Bree,Leeuwerikstraat,3,51.1394608629,5.60070247928
3960,Bree,Gerkenbergstraat,32,51.1300940357,5.56481605591
3960,Bree,Hansweg,43,51.1330350322,5.57514606379
3960,Bree,Bocholterkiezel,50,51.1491871568,5.59507197017
3960,Bree,Stadsbeekstraat,18,51.1363700427,5.59484459299
3960,Bree,Veldweg,4,51.1416451,5.59031587601
3960,Bree,Bloemenstraat,11,51.1448797994,5.59537012196
3960,Bree,Tulpenlaan,14,51.1265948805,5.58944397763
3960,Bree,Nieuwstadweg,43,51.1415505707,5.59226325277
3960,Bree,Keyartstraat,9A,51.1249472802,5.65626489252
3960,Bree,Vostertstraat,46,51.1228107595,5.58843537947
3960,Bree,Genastraat,15,51.1572034909,5.60063009916
3960,Bree,Jef van Hoofstraat,2,51.154269531,5.60314501519
3960,Bree,Bosstraat,49,51.1296172172,5.66378086228
3960,Bree,Imkerstraat,3,51.1464216149,5.59356535024
3960,Bree,Kluitshofweg,14,51.1196003052,5.5803409709
3960,Bree,Conenstraat,50,51.1415555075,5.59181321865
3960,Bree,Goudbloemstraat,15,51.1485640057,5.60547281901
3960,Bree,Hoogveldstraat,40,51.1476842639,5.6064578664
3960,Bree,Panhovenstraat,15,51.1378862325,5.6211768521
3960,Bree,Hansweg,8,51.1305255578,5.57418296827
3960,Bree,Molenstraat,67,51.1140875031,5.63961428605
3960,Bree,Vrijheidslaan,4,51.1478139477,5.60173122685
3960,Bree,Lindehofstraat,31,51.1451342666,5.59765395607
3960,Bree,Caubergstraat,32,51.1141942537,5.64952110665
3960,Bree,Gruitroderkiezel,212,51.1212844186,5.5914761526
3960,Bree,Sint-Jobstraat,3,51.1386746939,5.59872142294
3960,Bree,Keyartstraat,30,51.1257464702,5.65914589945
3960,Bree,Schutterijstraat,26,51.1502643012,5.59833019541
3960,Bree,Gerdingerpoort,8,51.1426930779,5.59499196165
3960,Bree,Solterveldstraat,79,51.1125815093,5.65166363757
3960,Bree,Berkenlaan,20,51.1240169949,5.58628134319
3960,Bree,Stift,30,51.1443331768,5.59728300189
3960,Bree,Nieuwstadweg,8,51.1407680622,5.59376455549
3960,Bree,Lindehofstraat,13,51.1455410896,5.5976250782
3960,Bree,Bocholterkiezel,32,51.1472521709,5.5949516661
3960,Bree,Pater Coninxlaan,6,51.129513024,5.59045808335
3960,Bree,Riekskensstraat,3,51.1388932452,5.58476161955
3960,Bree,Regenboogstraat,1,51.1401559875,5.60281567022
3960,Bree,Kookshofstraat,22,51.1483007821,5.59358107732
3960,Bree,Opitterkiezel,232,51.1185568394,5.64274455094
3960,Bree,Kerkstraat,12,51.1552765138,5.60320238697
3960,Bree,Kipdorpstraat,20,51.1211334729,5.58757806147
3960,Bree,Pater Neyenslaan,5,51.1187365954,5.64481036368
3960,Bree,Heidestraat,2,51.1128820001,5.57681426124
3960,Bree,Filterstraat,61,51.1382100102,5.57925609084
3960,Bree,Wilgenstraat,4,51.1377877286,5.59814575371
3960,Bree,Tongerlostraat,8,51.1181458555,5.64706793747
3960,Bree,Veeweidestraat,56,51.1522093821,5.60634902988
3960,Bree,Cosijnstraat,3,51.1395831302,5.59500801246
3960,Bree,Vrijheidslaan,38,51.1515202279,5.60289805137
3960,Bree,Muizendijkstraat,16,51.1123992853,5.58955042698
3960,Bree,Bergstraat,10,51.113247336,5.66292993562
3960,Bree,Dingensstraat,2,51.1215582474,5.61405034408
3960,Bree,Meeuwerkiezel,138,51.1283127447,5.5706995815
3960,Bree,Muizendijkstraat,69,51.1101024735,5.57574511534
3960,Bree,Peerderbaan,20,51.140196918,5.58441645437
3960,Bree,Opitterstraat,15,51.1410263788,5.60001225186
3960,Bree,Gruitroderkiezel,39,51.1353922862,5.59405016417
3960,Bree,Kerkstraat,30,51.1569725983,5.60481977924
3960,Bree,Verbindingsstraat,3,51.1147640198,5.65573951269
3960,Bree,Opitterkiezel,157A,51.1240762179,5.63317870771
3960,Bree,Bocholterstraat,38,51.1490241124,5.59752268676
3960,Bree,Driehoevenstraat,15,51.1480504873,5.60357769005
3960,Bree,Anjerstraat,17,51.1352851526,5.60576877179
3960,Bree,Solterveldstraat,26,51.1126963593,5.65383841249
3960,Bree,Opitterkiezel,142,51.1250298354,5.62978275236
3960,Bree,Korenbloemstraat,24,51.1506122605,5.6034470755
3960,Bree,Stift,12,51.1438651736,5.59604703479
3960,Bree,Kloosterpoort,22,51.1392837561,5.59563149013
3960,Bree,Boneputstraat,22,51.1359356637,5.59216825056
3960,Bree,Bocholterkiezel,140,51.1589378471,5.59343226787
3960,Bree,Millenstraat,7,51.142339234,5.6052490143
3960,Bree,Steenbergstraat,28,51.1236057162,5.62047756246
3960,Bree,Wolstraat,1,51.1553438955,5.60142642365
3960,Bree,Industrieterrein Peerderbaan,1010,51.139257818,5.56071494926
3960,Bree,Meeuwerkiezel,58,51.1344411001,5.58553712731
3960,Bree,Toleikstraat,22,51.1455772129,5.60377308873
3960,Bree,Vostertstraat,18,51.124747135,5.58799738493
3960,Bree,Gruitroderkiezel,265,51.1120249863,5.59266737449
3960,Bree,Pastorijstraat,5,51.1263178384,5.66152167058
3960,Bree,Hoogveldstraat,22,51.1488859085,5.60724913125
3960,Bree,Nieuwstadpoort,35,51.1398482734,5.59251201609
3960,Bree,Ter Rivierenwal,6,51.1404558368,5.59508024072
3960,Bree,Boneputstraat,5,51.1345445382,5.59139078028
3960,Bree,Pater Coninxlaan,29,51.1277142625,5.58991698578
3960,Bree,Wijkstraat,2,51.1467957401,5.59194825168
3960,Bree,Stift,65,51.1455201662,5.59899428584
3960,Bree,Itterplein,18,51.1164272401,5.64631172779
3960,Bree,Kanaalkom,5,51.147272043,5.61185629638
3960,Bree,Muizendijkstraat,87,51.1090948049,5.572464455
3960,Bree,Vostertstraat,36,51.1231195446,5.58886300264
3960,Bree,Swennenstraat,7,51.1459767083,5.60696483989
3960,Bree,Meeuwerkiezel,76,51.1331470855,5.58322684546
3960,Bree,Gruitroderstraat,38,51.1340563485,5.59367303224
3960,Bree,Barrierstraat,27,51.1462399595,5.5857098058
3960,Bree,Boneputterveld,21,51.1352483324,5.58996145357
3960,Bree,Mussenburgstraat,8,51.1417202004,5.60640519276
3960,Bree,Hoogstraat,23,51.1420719526,5.60020560845
3960,Bree,Wolstraat,35,51.1564209623,5.59657268451
3960,Bree,Beekstraat,11,51.1258806301,5.65972648892
3960,Bree,Bruglaan,6,51.1425559774,5.6055580163
3960,Bree,Opitterpoort,69,51.1387796321,5.60528791097
3960,Bree,Kanaallaan,21,51.1441647012,5.6056798202
3960,Bree,Stift,50,51.1450825253,5.59905592569
3960,Bree,Schoolstraat,26,51.143102152,5.59048334509
3960,Bree,Teelestraat,11,51.1138087698,5.65823707539
3960,Bree,Stift,83,51.1464267928,5.60045914499
3960,Bree,Rooierhagen,10,51.1173542437,5.58925015762
3960,Bree,Abroxweg,20,51.1585100397,5.60301644834
3960,Bree,Gruitroderkiezel,247,51.114232689,5.59298431204
3960,Bree,Omselweg,26,51.1157822343,5.65014412275
3960,Bree,Steyvenstraat,30,51.1457832686,5.60832376036
3960,Bree,Vennestraat,11,51.1580334638,5.59194219574
3960,Bree,Molenstraat,14,51.1188487662,5.63790805603
3960,Bree,Herenstraat,69,51.1344099738,5.61563013104
3960,Bree,Rozenlaan,17,51.1239476927,5.58961034507
3960,Bree,Vostertstraat,4,51.1256782931,5.58787740962
3960,Bree,Kruittorenwal,6,51.1421644131,5.59460850558
3960,Bree,Dorpstraat,43,51.1276341046,5.66210101445
3960,Bree,Opitterkiezel,214,51.1195474165,5.64074962574
3960,Bree,Rorenweg,36,51.1240547612,5.6405655466
3960,Bree,Graevenstraat,7,51.1549533111,5.60114006903
3960,Bree,Caubergstraat,49,51.1128464902,5.65035380027
3960,Bree,Witte Torenwal,10,51.1429395335,5.59894227562
3960,Bree,De Houborn,31,51.1356347913,5.60083699809
3960,Bree,Mussenburgveld,24,51.1407960902,5.60894230295
3960,Bree,Nieuwstadweg,25,51.1410023324,5.59289053686
3960,Bree,Steyvenstraat,12,51.1453530076,5.60744265825
3960,Bree,Meeuwerkiezel,94,51.1309168089,5.57778240073
3960,Bree,Boogschuttersstraat,27,51.1411945473,5.5912511359
3960,Bree,Bosstraat,42,51.1284770879,5.66173346854
3960,Bree,Bruglaan,40,51.1414969646,5.61003431702
3960,Bree,Dorpstraat,61,51.1285340651,5.66313661592
3960,Bree,Kleine Neyenstraat,2,51.1161803088,5.58017055017
3960,Bree,Bocholterkiezel,111,51.1557556884,5.5940066206
3960,Bree,Maaseikerbaan,9,51.1168170629,5.64945919526
3960,Bree,Spilstraat,16,51.1181023593,5.64882309705
3960,Bree,Bocholterkiezel,49,51.1504819878,5.59447292867
3960,Bree,Berkenlaan,3,51.1251734112,5.58708664752
3960,Bree,Rorenweg,18,51.1289194744,5.6363377463
3960,Bree,Malta,25,51.1432203978,5.60307118725
3960,Bree,Opitterkiezel,43,51.1356675042,5.61116462906
3960,Bree,Opitterpoort,16,51.1396838327,5.60229187881
3960,Bree,Opitterkiezel,61,51.1342063597,5.61382531325
3960,Bree,Roterstraat,9,51.1365376662,5.60777790138
3960,Bree,Swennenstraat,41,51.1459938997,5.60578032062
3960,Bree,Oudestraat,23,51.138151393,5.59805730243
3960,Bree,De Houborn,13,51.1355644316,5.60140184693
3960,Bree,Opstraat,39,51.1148468142,5.6436432994
3960,Bree,Nieuwstadstraat,9,51.1410382417,5.59569017986
3960,Bree,Caubergstraat,14,51.1152809711,5.64801447848
3960,Bree,Gerkenbergstraat,39,51.1310779329,5.56196273645
3960,Bree,Kleine Schoolstraat,14,51.142044696,5.58830929523
3960,Bree,Beukenhofstraat,10,51.1322959721,5.57397692407
3960,Bree,Industrieterrein Kanaal-Noord,1407,51.1425749388,5.62445760734
3960,Bree,Roterstraat,52,51.133889023,5.60693330824
3960,Bree,Solterweg,62,51.1168852294,5.66793644449
3960,Bree,Witte Torenstraat,3,51.1427648947,5.60003324394
3960,Bree,Groenstraat,121,51.1345807406,5.68477340091
3960,Bree,Schutterijstraat,44,51.1515333444,5.60021455887
3960,Bree,Bloemenstraat,4,51.144667879,5.59628037572
3960,Bree,Parkstraat,14,51.1388926524,5.59725942865
3960,Bree,Genastraat,8,51.1576725042,5.60148965418
3960,Bree,Weegbreestraat,17,51.150258566,5.60038832152
3960,Bree,Bocholterkiezel,14,51.1454462583,5.59449589685
3960,Bree,Ter Rivierenwal,10A,51.140258226,5.5955310597
3960,Bree,Genastraat,51,51.1595317472,5.59691502302
3960,Bree,Poststraat,20,51.1299982795,5.66116908541
3960,Bree,Kruittorenwal,40,51.1410340656,5.59435374158
3960,Bree,Vostertstraat,48,51.123003665,5.58822856817
3960,Bree,Opitterkiezel,124,51.1263014436,5.62766513945
3960,Bree,Witte Torenstraat,26,51.1447478149,5.59916100957
3960,Bree,Maaseikerbaan,59,51.1155698353,5.6571274738
3960,Bree,Solterveldstraat,72,51.1131608627,5.65171854148
3960,Bree,Boneputstraat,50,51.1342703278,5.58911841605
3960,Bree,Brugstraat,16,51.1393110699,5.6103072979
3960,Bree,Keyartstraat,19,51.125946527,5.65777065244
3960,Bree,Panhovenstraat,6,51.1375793258,5.61929494242
3960,Bree,Opitterkiezel,86,51.1294034153,5.62161495592
3960,Bree,Groenstraat,70,51.1306955291,5.67508273095
3960,Bree,Bocholterkiezel,29,51.1486985574,5.59445782112
3960,Bree,Herenstraat,16,51.1370332046,5.60975186907
3960,Bree,Opitterkiezel,68,51.1324216401,5.61593866326
3960,Bree,Solterveldstraat,54,51.1130099072,5.65248764268
3960,Bree,Rorenweg,23A,51.1247854482,5.64153417654
3960,Bree,Roodakkerstraat,15,51.1172736362,5.64170069378
3960,Bree,Maaseikerbaan,77,51.1146186244,5.66062425181
3960,Bree,Soezenstraat,3,51.1268342527,5.65798017032
3960,Bree,Filterstraat,33,51.1393210061,5.58510815355
3960,Bree,Steyvenstraat,5,51.145529473,5.60697226974
3960,Bree,Solterweg,3,51.1265117983,5.66068913556
3960,Bree,Millenstraat,31,51.1401253907,5.60787798907
3960,Bree,Conenstraat,57,51.1414485878,5.59140855786
3960,Bree,Kruittorenwal,32,51.1411961532,5.5940681799
3960,Bree,Kanaallaan,46,51.1451508226,5.60971816207
3960,Bree,Siemenstraat,33,51.143140226,5.5885677244
3960,Bree,Berkenlaan,37,51.1220741857,5.58726434702
3960,Bree,Oudestraat,38,51.1376625599,5.59694912185
3960,Bree,Molenstraat,40,51.1168423451,5.63674041993
3960,Bree,Driehoevenstraat,6,51.1469565864,5.60201472481
3960,Bree,Opitterpoort,60,51.1383651773,5.60460358921
3960,Bree,Gruitroderkiezel,104,51.1298130354,5.5918786628
3960,Bree,Gerdingerpoort,25,51.1439716573,5.59316206334
3960,Bree,Opitterkiezel,242,51.1173013378,5.64564016681
3960,Bree,Goudbloemstraat,6,51.1501222301,5.60515462776
3960,Bree,Bruglaan,32,51.1418343831,5.60856145124
3960,Bree,Omselweg,72,51.1134184612,5.65349864655
3960,Bree,Swennenstraat,13,51.1459900991,5.60642551755
3960,Bree,Meeuwerkiezel,7,51.1375771199,5.59122399417
3960,Bree,Bergstraat,53,51.1122893095,5.65794504707
3960,Bree,Gerdingerpoort,1,51.1423002781,5.59486531273
3960,Bree,Hoogveldstraat,49,51.1481339244,5.60670762604
3960,Bree,Velkuilenstraat,9A,51.1393650256,5.59415258519
3960,Bree,Kloosterpoort,50,51.1384741723,5.59470194204
3960,Bree,Kerkstraat,5,51.1545959784,5.60276439945
3960,Bree,Caubergstraat,29,51.1148551908,5.65049847226
3960,Bree,Wijshagerstraat,5,51.1257290597,5.58727114933
3960,Bree,Vrijheidslaan,11,51.1484364078,5.60054348258
3960,Bree,Opitterpoort,34,51.1393290677,5.60303317137
3960,Bree,Neyenstraat,26,51.114059428,5.56584981346
3960,Bree,Tongerlostraat,1,51.1179705356,5.64658820007
3960,Bree,Pater Neyenslaan,20,51.119585129,5.64343425343
3960,Bree,Berkenlaan,19,51.1234609145,5.58716553604
3960,Bree,Nieuwstadpoort,45,51.1398141902,5.59100448869
3960,Bree,Panhovenstraat,43,51.1336437017,5.61635824366
3960,Bree,Opitterstraat,6,51.1410361051,5.59940758009
3960,Bree,Kerkstraat,55,51.1604713006,5.60610324
3960,Bree,Schoolstraat,54,51.145518001,5.5885979954
3960,Bree,Maaseikerbaan,95,51.1141200289,5.66299339408
3960,Bree,Gerdingerpoort,51,51.1459898096,5.59068942067
3960,Bree,Herenstraat,34,51.135715561,5.61170589613
3960,Bree,Bosstraat,75,51.1321619399,5.66598982889
3960,Bree,Hoogstraat,38,51.1415302495,5.60012543626
3960,Bree,Swennenstraat,31,51.1456712406,5.60608148121
3960,Bree,Brugstraat,34,51.1399565663,5.61189298897
3960,Bree,Cosijnstraat,26,51.1393241381,5.59472197785
3960,Bree,Gruitroderkiezel,22,51.1367060543,5.59303880361
3960,Bree,Hubesheide,10,51.1223622446,5.66723698636
3960,Bree,Peerderbaan,37,51.1394018562,5.58247828751
3960,Bree,Maalbosstraat,17,51.1374828883,5.6149692841
3960,Bree,Tongerlostraat,38A,51.1203955518,5.6499647284
3960,Bree,Gruitroderstraat,23,51.1354675252,5.596212215
3960,Bree,Bocholterkiezel,93,51.1542911687,5.59505228631
3960,Bree,Bocholterkiezel,157,51.164037532,5.58962008593
3960,Bree,Peerderbaan,83,51.1391363592,5.57440775425
3960,Bree,Kerkstraat,27,51.1564976792,5.60338436627
3960,Bree,Siemenstraat,15,51.1445546955,5.59129412433
3960,Bree,Opitterkiezel,159,51.1239957362,5.63339024206
3960,Bree,Meinestraat,16,51.1420286838,5.59880379879
3960,Bree,Meeuwerkiezel,131,51.1282262762,5.57194116119
3960,Bree,Veestraat,20,51.134280264,5.67447916076
3960,Bree,Tongerlostraat,25,51.1201388683,5.64717520107
3960,Bree,Wolstraat,17,51.1557867517,5.59902164686
3960,Bree,Rode Kruislaan,53,51.1380665468,5.60318570129
3960,Bree,Opitterkiezel,33,51.1361267103,5.61003756382
3960,Bree,Ter Rivierenwal,14,51.1400386462,5.59569977542
3960,Bree,Steenbergstraat,11,51.1263819377,5.62021282634
3960,Bree,Veeweidestraat,64,51.1528578345,5.60529314546
3960,Bree,Dorpstraat,33,51.1278152657,5.66153426947
3960,Bree,Opitterkiezel,177,51.1226738635,5.63591722124
3960,Bree,Roterstraat,24,51.1352638349,5.60692647539
3960,Bree,Mussenburgstraat,1,51.1408482843,5.60214673175
3960,Bree,Wiekersbeekstraat,3,51.136492535,5.60383525829
3960,Bree,Maaseikerbaan,24,51.1160147751,5.6514120025
3960,Bree,Opitterkiezel,15,51.13683884,5.60886318134
3960,Bree,Opstraat,57,51.1135485686,5.64169557884
3960,Bree,Hoogveldstraat,39,51.1488189941,5.60800532277
3960,Bree,St.-Antoniusstraat,13,51.1135795527,5.66187837345
3960,Bree,Barrierstraat,30,51.1465002952,5.5845076
3960,Bree,Steyvenstraat,27,51.1469662699,5.60799657763
3960,Bree,Velkuilenstraat,30,51.1382556416,5.594077736
3960,Bree,Boogschuttersstraat,12,51.1424329973,5.59261179306
3960,Bree,Luytenstraat,31,51.1155680804,5.60766337448
3960,Bree,Hoogveldstraat,14,51.1500158709,5.60605587628
3960,Bree,Gruitroderkiezel,157,51.123223938,5.59228791532
3960,Bree,Leeuwerikstraat,19,51.1389123714,5.60151297309
3960,Bree,Maalbosstraat,8,51.1382051124,5.61177704149
3960,Bree,Spilstraat,11A,51.1182844227,5.64803489826
3960,Bree,Niskensstraat,3,51.1393970654,5.58835501752
3960,Bree,Wijkstraat,10,51.147197036,5.59147239065
3960,Bree,Kleine Swennenstraat,2,51.1467259821,5.60497075702
3960,Bree,Wolstraat,8,51.1557021241,5.60160013919
3960,Bree,Gijbelsstraat,15,51.1412785646,5.58510671675
3960,Bree,Kleine Genatteweg,16,51.1466111076,5.59253583505
3960,Bree,Brugstraat,42,51.1405067833,5.61307490226
3960,Bree,Opitterpoort,42,51.1390971401,5.60343573842
3960,Bree,Sint-Jacobstraat,12,51.1346968924,5.60398079605
3960,Bree,Kanaallaan,18,51.1437579549,5.60620683514
3960,Bree,Vostertstraat,56,51.1225522572,5.58782222601
3960,Bree,Bocholterkiezel,118,51.1566217972,5.59459246315
3960,Bree,Lindehofstraat,41,51.1454586271,5.5972909012
3960,Bree,Kanaalkom,10A,51.1477895099,5.6115141864
3960,Bree,Stift,49,51.144913057,5.59704672662
3960,Bree,Gruitroderkiezel,175,51.1208911933,5.59236921398
3960,Bree,Boneputterveld,18,51.1368708086,5.59122164534
3960,Bree,Broekstraat,7,51.1492904302,5.61926784396
3960,Bree,Opstraat,75,51.1127104293,5.63971207071
3960,Bree,Kloosterstraat,18,51.1401589531,5.59657022751
3960,Bree,Abroxweg,19,51.1589535003,5.60177897123
3960,Bree,Kanaallaan,99,51.1464253985,5.61164923121
3960,Bree,Rorenweg,44,51.12299554,5.64045027215
3960,Bree,Regenboogstraat,17,51.1398125294,5.60623500305
3960,Bree,Voortbemdenstraat,5,51.1411588741,5.56419040192
3960,Bree,Kanaallaan,36,51.1447795139,5.6088486294
3960,Bree,Opitterkiezel,195,51.120236864,5.64069955292
3960,Bree,Bergstraat,71,51.1114170246,5.65607532182
3960,Bree,Boneputterveld,36,51.1355717941,5.58938777836
3960,Bree,Bosstraat,111,51.135252405,5.67048993029
3960,Bree,Omselweg,90,51.1129166733,5.65706200285
3960,Bree,Bocholterkiezel,40,51.1478036615,5.59504176432
3960,Bree,Bruglaan,49,51.1411454032,5.61449957462
3960,Bree,Vostertstraat,21,51.124756153,5.58852490762
3960,Bree,Barrierstraat,12,51.1475478596,5.58742859192
3960,Bree,Geussensstraat,7,51.1564392141,5.60491572574
3960,Bree,Nieuwstadpoort,8,51.140713649,5.59438134121
3960,Bree,Spilstraat,9,51.11795195,5.64763069942
3960,Bree,Graevenstraat,13,51.1547140039,5.60037354313
3960,Bree,Solterweg,36,51.1221108811,5.66395111545
3960,Bree,Velkuilenstraat,12,51.1392770783,5.59360982062
3960,Bree,Genastraat,25,51.1578599775,5.59971233428
3960,Bree,Kruittorenwal,14,51.1419739876,5.59422107636
3960,Bree,Caubergstraat,40,51.1135963535,5.6495514155
3960,Bree,Barrierstraat,65,51.142849785,5.57798316272
3960,Bree,Opstraat,22,51.115245069,5.64355233229
3960,Bree,Korenbloemstraat,16,51.1514675713,5.60364323314
3960,Bree,Caubergstraat,22,51.1148536259,5.64839155482
3960,Bree,Beukenhofstraat,35,51.1349950351,5.56536542632
3960,Bree,Roterstraat,60,51.1318391034,5.6062085521
3960,Bree,Maaseikerbaan,42,51.1154133086,5.6543695136
3960,Bree,Geussensstraat,13,51.1567959356,5.60558448939
3960,Bree,Grauwe Torenwal,22,51.1397269024,5.60041569032
3960,Bree,Peerderbaan,12,51.1402544978,5.58575468589
3960,Bree,Parkstraat,22,51.1387602692,5.59756646788
3960,Bree,Keyartstraat,20,51.1251866284,5.6579486813
3960,Bree,Oudestraat,13,51.1388149271,5.59853263037
3960,Bree,Bosstraat,14,51.1274151974,5.65859611301
3960,Bree,Veeweidestraat,11,51.1472214757,5.61045197811
3960,Bree,Rorenweg,3,51.136092031,5.62008302516
3960,Bree,Opitterstraat,25,51.1407697774,5.60054895844
3960,Bree,Stadsplein,1,51.1393789915,5.59657872173
3960,Bree,Opitterpoort,9,51.140206684,5.60211148722
3960,Bree,De Houborn,23,51.1353204025,5.60187894438
3960,Bree,Witte Torenwal,35,51.1421234684,5.59600438427
3960,Bree,Hoogveldstraat,50,51.1470546191,5.60665427219
3960,Bree,Muizendijkstraat,24,51.1121632234,5.58847211421
3960,Bree,Meeuwerkiezel,141,51.1278655195,5.57111195392
3960,Bree,Dorpstraat,51,51.1279340138,5.66263365336
3960,Bree,Markt,6,51.1414852362,5.59694109278
3960,Bree,Peerderbaan,126,51.1394868915,5.56476334779
3960,Bree,Herenstraat,9,51.1379388166,5.61009675113
3960,Bree,Molenstraat,57,51.1149810377,5.63872049216
3960,Bree,Genastraat,43,51.1590244669,5.59788053632
3960,Bree,Bocholterkiezel,22,51.1458317564,5.59469367761
3960,Bree,Vrijthof,2,51.1414403938,5.59819936882
3960,Bree,Watertorenstraat,37,51.1327731545,5.59199893471
3960,Bree,Renkensweg,5,51.1340143347,5.5833582848
3960,Bree,Kuilenstraat,76,51.1628464474,5.6180973391
3960,Bree,Brugstraat,9,51.1396025652,5.60877354924
3960,Bree,Berkenlaan,30,51.1233135423,5.58632400025
3960,Bree,Oudestraat,31,51.1373311452,5.59756643116
3960,Bree,Nieuwstadpoort,10,51.1407139822,5.59424544583
3960,Bree,Kipdorpstraat,12,51.1212392374,5.58923384512
3960,Bree,Berkenlaan,12,51.1246101971,5.58624195315
3960,Bree,Rooyerstraat,3,51.1174227965,5.59641470992
3960,Bree,Anjerstraat,2,51.1362753317,5.60422218262
3960,Bree,Hoogstraat,13,51.1416552815,5.59908463709
3960,Bree,Itterplein,3,51.1174887696,5.64722564225
3960,Bree,Opitterpoort,77,51.1385773389,5.60554706105
3960,Bree,Veestraat,27,51.1342666079,5.67593110752
3960,Bree,Gruitroderkiezel,29,51.1362135535,5.59387324174
3960,Bree,Siemenstraat,8,51.1452716158,5.59103592286
3960,Bree,Watertorenstraat,19,51.1341156197,5.5923453159
3960,Bree,Kloosterpoort,32,51.138796518,5.5950855219
3960,Bree,Vaartstraat,6,51.1273269294,5.65566545937
3960,Bree,Ziepstraat,27,51.1153181877,5.66582765796
3960,Bree,Maalbosstraat,10,51.138107122,5.61200735785
3960,Bree,Molenstraat,22,51.1183083557,5.63713289308
3960,Bree,Hubesheide,17,51.1233010914,5.66845993711
3960,Bree,Vrijheidslaan,46,51.1524026017,5.60293925407
3960,Bree,Swennenstraat,38,51.1475052921,5.60595916208
3960,Bree,Opitterkiezel,232A,51.1187444421,5.64257997355
3960,Bree,Beukenlaan,3,51.1237924798,5.58791188841
3960,Bree,Bocholterkiezel,75,51.1522667261,5.59488116203
3960,Bree,Boogschuttersstraat,19,51.1417562699,5.59206285457
3960,Bree,Luytenstraat,38,51.1161978276,5.61155839887
3960,Bree,Hoogveldstraat,32,51.1484729013,5.60621364431
3960,Bree,Barrierstraat,37,51.1454428126,5.58345231231
3960,Bree,Boneputstraat,14,51.1360364525,5.59288621015
3960,Bree,Meinestraat,9,51.1421912965,5.59813254272
3960,Bree,Muizendijkstraat,42,51.111685394,5.58601202896
3960,Bree,Kanaalkom,14,51.1483031881,5.61177913601
3960,Bree,Muizendijkstraat,77,51.1094944416,5.57397440586
3960,Bree,Opitterkiezel,206,51.1202760342,5.63941800977
3960,Bree,Groenstraat,34,51.1280860523,5.66806950749
3960,Bree,Bocholterstraat,7,51.1454737621,5.59821114057
3960,Bree,Leliestraat,2,51.1364387309,5.60668642416
3960,Bree,Steenbergstraat,18,51.1262922236,5.61910208877
3960,Bree,Opstraat,40,51.1144639628,5.64210944725
3960,Bree,Toleikstraat,32,51.1460840733,5.60293024729
3960,Bree,Boogschuttersstraat,37,51.1407999253,5.59063187548
3960,Bree,Nieuwstadweg,33,51.1411603407,5.59249525312
3960,Bree,Pater Coninxlaan,39,51.1272247083,5.58909713721
3960,Bree,Filterstraat,8,51.1394791057,5.58373312155
3960,Bree,Rozenlaan,2,51.1245092579,5.59119302418
3960,Bree,Steenbergstraat,18A,51.1261753054,5.61956440529
3960,Bree,Steyvenstraat,20,51.1455521161,5.60783811883
3960,Bree,Malta,15,51.1429708094,5.60263570308
3960,Bree,Riekskensstraat,44,51.1346725656,5.58477242346
3960,Bree,Mariahofstraat,52,51.1702654482,5.62909480863
3960,Bree,Vostertstraat,28,51.1234984876,5.58787049935
3960,Bree,Wijkstraat,17,51.1469260109,5.59106281232
3960,Bree,Filterstraat,51,51.1382524479,5.58063001781
3960,Bree,Itterplein,26,51.116700474,5.64723820113
3960,Bree,Gerkenbergstraat,40,51.1306140643,5.56408357181
3960,Bree,Herenstraat,59,51.1349850567,5.61462668695
3960,Bree,Kleine Genatteweg,9,51.1475159897,5.59179390028
3960,Bree,Eetseveldstraat,1,51.1224198003,5.59809472307
3960,Bree,Sint-Jacobstraat,37,51.1342309124,5.60562224175
3960,Bree,Caubergstraat,75,51.1109425845,5.65252522879
3960,Bree,Thijsstraat,6,51.1485092055,5.58931836216
3960,Bree,Nieuwstadweg,15,51.1407496875,5.59320516544
3960,Bree,Abroxweg,30,51.1598918872,5.60327245364
3960,Bree,Gruitroderkiezel,150,51.1267017547,5.59115513413
3960,Bree,Kloosterpoort,14,51.1394748,5.59563065223
3960,Bree,Tulpenlaan,6,51.1265640503,5.59023349048
3960,Bree,Kloosterstraat,11,51.1403413915,5.59771512628
3960,Bree,Bruglaan,50,51.1410064317,5.61198468557
3960,Bree,Boogschuttersstraat,5,51.1423639364,5.59356634646
3960,Bree,Opitterkiezel,8,51.1367054154,5.60804342227
