PKANCODE,COMMUNE_NL,STREET_NL,HUISNR,LAT,LON
8301,Knokke-Heist,Heistlaan,317,51.3220017888,3.24337834905
8301,Knokke-Heist,Sasstraat,58,51.3152431334,3.24213328623
8301,Knokke-Heist,Heistlaan,428,51.3178845749,3.24502237568
8301,Knokke-Heist,Zeegrasstraat,40,51.3413426216,3.25856284357
8301,Knokke-Heist,Eeuwfeestlaan,51,51.3423163051,3.2784493042
8301,Knokke-Heist,Heistlaan,155,51.3319277599,3.23718302542
8301,Knokke-Heist,Acacialaan,36,51.3419382621,3.27352506338
8301,Knokke-Heist,Ramskapellestraat,51,51.3156527491,3.24941948299
8301,Knokke-Heist,Kursaalstraat,11,51.3397879833,3.23981138188
8301,Knokke-Heist,Pannenstraat,50,51.3385871032,3.24141368986
8301,Knokke-Heist,Kruindreef,4,51.3440685133,3.26491966872
8301,Knokke-Heist,Heistlaan,173,51.3307553587,3.23771459742
8301,Knokke-Heist,Elizabetlaan,248,51.3422444457,3.26672381338
8301,Knokke-Heist,August Beernaertstraat,36,51.3409947478,3.24386019366
8301,Knokke-Heist,Marktstraat,8,51.3371263283,3.23877152365
8301,Knokke-Heist,August Beernaertstraat,18,51.3413769136,3.24384593147
8301,Knokke-Heist,Astridplein,6,51.3402329619,3.26396657659
8301,Knokke-Heist,Pannenstraat,211,51.3373838368,3.24960498305
8301,Knokke-Heist,Dwarsstraat,28,51.3394249907,3.24092452983
8301,Knokke-Heist,Heestersstraat,9,51.3344902267,3.25392255732
8301,Knokke-Heist,Arcadelaan,35,51.3426439379,3.27124451919
8301,Knokke-Heist,Schoneveld,10,51.3320230499,3.23905054449
8301,Knokke-Heist,Onderwijsstraat,139,51.3360339197,3.2420905976
8301,Knokke-Heist,Pannenstraat,174,51.3372689675,3.24718893098
8301,Knokke-Heist,Heistlaan,335,51.3204878504,3.24426865235
8301,Knokke-Heist,Jozef Nellenslaan,51,51.3455028402,3.26838940278
8301,Knokke-Heist,Parkstraat,3,51.3414229891,3.24616654325
8301,Knokke-Heist,Bondgenotenlaan,59,51.335050387,3.23989258891
8301,Knokke-Heist,Varenstraat,5,51.3339836872,3.25726381958
8301,Knokke-Heist,Arcadelaan,17,51.3422168519,3.27018363259
8301,Knokke-Heist,Graaf d'Ursellaan,51,51.3404377465,3.24579076087
8301,Knokke-Heist,Moefe,6,51.3386536476,3.24236255577
8301,Knokke-Heist,Heistlaan,38,51.337821625,3.23285210148
8301,Knokke-Heist,Frans Vantorrestraat,25,51.3354580959,3.24300056387
8301,Knokke-Heist,Heidebloemstraat,14,51.3349518691,3.26012360678
8301,Knokke-Heist,Elizabetlaan,284,51.3404184333,3.26151148447
8301,Knokke-Heist,Weibroekstraat,3,51.3345776495,3.25083380332
8301,Knokke-Heist,Pannenstraat,156,51.3374578758,3.24648147641
8301,Knokke-Heist,Weidestraat,10,51.3131091787,3.25305942085
8301,Knokke-Heist,Schuttersstraat,4,51.3377047238,3.23406832389
8301,Knokke-Heist,Knokkestraat,196,51.339298193,3.25010730646
8301,Knokke-Heist,Steenstraat,25,51.3390181648,3.24336779364
8301,Knokke-Heist,Kapellaan,55,51.343387941,3.27705912419
8301,Knokke-Heist,Noordstraat,21,51.3390173814,3.2422247331
8301,Knokke-Heist,Vlamingstraat,41,51.3397115801,3.23706678755
8301,Knokke-Heist,Ommegang,8,51.3151910612,3.25099995011
8301,Knokke-Heist,IJzerstraat,19,51.3389215642,3.24582749368
8301,Knokke-Heist,Kerkstraat,22,51.3393116338,3.23856303093
8301,Knokke-Heist,Ramskapellestraat,10B,51.3159622149,3.24726701798
8301,Knokke-Heist,Izabellastraat,67,51.3276200181,3.24305541456
8301,Knokke-Heist,De Bolle,5,51.3395761172,3.23855646356
8301,Knokke-Heist,Bergdreef,8,51.3445603706,3.26381717731
8301,Knokke-Heist,Knokkestraat,54,51.3396722736,3.24251341691
8301,Knokke-Heist,Dudzelestraat,54,51.3023600437,3.28303610349
8301,Knokke-Heist,Onderwijsstraat,43,51.3385170839,3.2449378698
8301,Knokke-Heist,Acacialaan,48,51.3420341835,3.27445138787
8301,Knokke-Heist,Hazenpad,2,51.3421237284,3.25786807488
8301,Knokke-Heist,Zeedijk-Heist,149,51.340314469,3.23338870905
8301,Knokke-Heist,Vuurkruisersstraat,6,51.3355623206,3.23848733781
8301,Knokke-Heist,Elizabetlaan,303,51.3409727337,3.25940909836
8301,Knokke-Heist,De Bocht,3,51.331866893,3.24360614972
8301,Knokke-Heist,Knokkestraat,178,51.3393304397,3.24942828613
8301,Knokke-Heist,Felix Timmermansstraat,28,51.3362676972,3.24452235832
8301,Knokke-Heist,Pannenstraat,299,51.3384135784,3.25267301661
8301,Knokke-Heist,De Krab,7,51.3337071889,3.24606035954
8301,Knokke-Heist,Vissersstraat,21,51.3392919127,3.24119440375
8301,Knokke-Heist,Laurierstraat,34,51.3335988273,3.25676073163
8301,Knokke-Heist,Sint-Antoniusstraat,33,51.3381660091,3.23452563736
8301,Knokke-Heist,Zomerpad,10,51.3425246222,3.26540781773
8301,Knokke-Heist,Albrecht Rodenbachstraat,20,51.3352130485,3.2405969648
8301,Knokke-Heist,August Beernaertstraat,48,51.3407015258,3.24376524101
8301,Knokke-Heist,Steendiep,14,51.3320575564,3.24522815747
8301,Knokke-Heist,Vuurtorenstraat,13,51.3398041331,3.23688428125
8301,Knokke-Heist,Kapellaan,20,51.3445672053,3.27370531434
8301,Knokke-Heist,IJzerstraat,37,51.3384385186,3.24576337651
8301,Knokke-Heist,Acacialaan,18,51.3418758818,3.2717938055
8301,Knokke-Heist,Begoniapad,2,51.3425991193,3.27866700346
8301,Knokke-Heist,Duinendreef,34,51.3422321148,3.26090313548
8301,Knokke-Heist,Zeedijk-Heist,239,51.3414562375,3.24140746902
8301,Knokke-Heist,Zeegrasstraat,5,51.3440825376,3.25717069495
8301,Knokke-Heist,Heistlaan,109,51.3363174871,3.23449506515
8301,Knokke-Heist,Pannenstraat,246,51.3373273563,3.25058348312
8301,Knokke-Heist,Fonteinestraat,82,51.3055262808,3.27370741636
8301,Knokke-Heist,Bondgenotenlaan,24,51.3363079454,3.23914642596
8301,Knokke-Heist,Invalidenlaan,6,51.3346983448,3.24046536869
8301,Knokke-Heist,Sint-Jozefsstraat,71,51.3366810483,3.23592944164
8301,Knokke-Heist,Stadhuisstraat,20,51.3378418774,3.23723725455
8301,Knokke-Heist,Leeuwerikenlaan,24,51.3442248749,3.26688717559
8301,Knokke-Heist,Zeedijk-Heist,96,51.3398107306,3.22990122916
8301,Knokke-Heist,Zeetrapper,8,51.3321771951,3.23784161492
8301,Knokke-Heist,Elizabetlaan,321,51.3400877073,3.25298131886
8301,Knokke-Heist,Heistlaan,363,51.3178272851,3.245930059
8301,Knokke-Heist,Engelsestraat,51,51.3455773108,3.26291288572
8301,Knokke-Heist,Zonnebloemstraat,15,51.3359386828,3.25856734455
8301,Knokke-Heist,Westkapellestraat,402,51.3235633954,3.2754623307
8301,Knokke-Heist,Pannenstraat,39,51.338807658,3.24146675603
8301,Knokke-Heist,Pannenstraat,128,51.337567768,3.24473979318
8301,Knokke-Heist,Zonnebloemstraat,33,51.3366451662,3.25822602543
8301,Knokke-Heist,Zeerobbenlaan,1,51.3471838075,3.27272466065
8301,Knokke-Heist,Steenstraat,8,51.3394983182,3.24332589966
8301,Knokke-Heist,Kerkstraat,50,51.3395282849,3.23703751945
8301,Knokke-Heist,Zeegrasstraat,29,51.3411126023,3.25932266641
8301,Knokke-Heist,Bakkersstraat,4,51.3389188002,3.24135729023
8301,Knokke-Heist,Kardinaal Mercierstraat,22,51.3400300503,3.23801772956
8301,Knokke-Heist,Frans Vantorrestraat,8,51.3353012111,3.24195651217
8301,Knokke-Heist,Onderwijsstraat,149,51.3357709203,3.24214934345
8301,Knokke-Heist,Pannenstraat,264,51.3375409547,3.25129144193
8301,Knokke-Heist,Zeedijk-Heist,114,51.3400072936,3.23126613711
8301,Knokke-Heist,Polderstraat,48,51.3382731596,3.24654619807
8301,Knokke-Heist,De Wulk,10,51.3329014108,3.24677229897
8301,Knokke-Heist,Serweytens de Mercxstraat,15,51.3413567184,3.24320474177
8301,Knokke-Heist,Poststraat,11,51.3430492395,3.26338273185
8301,Knokke-Heist,Lommergang,6,51.3419058016,3.2636576125
8301,Knokke-Heist,Parkstraat,27,51.3407964132,3.2460668451
8301,Knokke-Heist,Kursaalstraat,64,51.3375446036,3.23917911965
8301,Knokke-Heist,Polderstraat,54,51.3381230536,3.2463952578
8301,Knokke-Heist,Westkapellestraat,65,51.335945471,3.24409877187
8301,Knokke-Heist,Stationsplein,10,51.3348289373,3.23891498579
8301,Knokke-Heist,Zeedijk-Heist,132,51.3401228021,3.23206313115
8301,Knokke-Heist,Onderwijsstraat,61,51.3380933241,3.24487893201
8301,Knokke-Heist,Ruitingen,6,51.331723006,3.24057179472
8301,Knokke-Heist,Achtmeilaan,38,51.3408952155,3.26457888761
8301,Knokke-Heist,Elizabetlaan,231,51.3450825924,3.26925047897
8301,Knokke-Heist,Kwinte,16,51.3314870507,3.23951468661
8301,Knokke-Heist,Duinbergenlaan,72,51.3420376017,3.26214621439
8301,Knokke-Heist,Vlamingstraat,6,51.3399641451,3.2394596561
8301,Knokke-Heist,Duinbergenlaan,90,51.3428419954,3.26194107648
8301,Knokke-Heist,Vredestraat,14,51.3370750691,3.23530248254
8301,Knokke-Heist,Sint-Antoniusstraat,43,51.3380548627,3.23407011878
8301,Knokke-Heist,Elizabetlaan,266,51.3407044666,3.26323707725
8301,Knokke-Heist,Blauwvoetlaan,47,51.3357643192,3.23320037431
8301,Knokke-Heist,Albatrosstraat,21,51.3409130674,3.24257494959
8301,Knokke-Heist,Zeedijk-Heist,468,51.3469531788,3.27199805781
8301,Knokke-Heist,Elizabetlaan,213,51.3459956109,3.27263236985
8301,Knokke-Heist,Mimosastraat,19,51.342898536,3.25808466934
8301,Knokke-Heist,Zeedijk-Heist,415,51.3457731375,3.26279268722
8301,Knokke-Heist,Trapegeer,3,51.3318908006,3.24198685183
8301,Knokke-Heist,De Alikruik,19,51.3333145957,3.24499275592
8301,Knokke-Heist,Steenstraat,53,51.3382899239,3.24265292777
8301,Knokke-Heist,De Garre,8,51.3394642727,3.2415959419
8301,Knokke-Heist,Petunialaan,4,51.3433221832,3.26210475518
8301,Knokke-Heist,Sint-Jozefsstraat,8,51.3396362668,3.23509155778
8301,Knokke-Heist,Badersstraat,17,51.3388499172,3.24398652566
8301,Knokke-Heist,Knokkestraat,497,51.3401080806,3.26759861809
8301,Knokke-Heist,Petunialaan,28,51.3443341492,3.26256653057
8301,Knokke-Heist,Pinksterbloemhof,18,51.3377843573,3.25753712126
8301,Knokke-Heist,Koudekerkelaan,25,51.3348743699,3.23829640165
8301,Knokke-Heist,De Benne,3,51.3338643655,3.24445241671
8301,Knokke-Heist,Knokkestraat,286,51.3390668163,3.25440447191
8301,Knokke-Heist,Pannenstraat,228,51.3370166272,3.24979448884
8301,Knokke-Heist,Moefe,13,51.3389387603,3.2425878576
8301,Knokke-Heist,Onderwijsstraat,114,51.3365867177,3.24221096086
8301,Knokke-Heist,Middeldiep,4,51.3314698031,3.24571614836
8301,Knokke-Heist,Elizabetlaan,241,51.3445306573,3.26778531575
8301,Knokke-Heist,Eeuwfeestlaan,58,51.3420147849,3.27794715671
8301,Knokke-Heist,Onderwijsstraat,86,51.3372677095,3.24337410587
8301,Knokke-Heist,Jozef Nellenslaan,58,51.3457555126,3.27018304173
8301,Knokke-Heist,Jonckheerestraat,11,51.3142000368,3.25331154617
8301,Knokke-Heist,Margrietenpad,6,51.3420486058,3.26736568691
8301,Knokke-Heist,Onderwijsstraat,132,51.3359743486,3.24169597035
8301,Knokke-Heist,Jozef Nellenslaan,76,51.3461255779,3.27209607957
8301,Knokke-Heist,Schildeken,39,51.3388711591,3.26407511269
8301,Knokke-Heist,De Kinkhoorn,22,51.3407552847,3.24435351376
8301,Knokke-Heist,De Bocht,10,51.33310877,3.24311837796
8301,Knokke-Heist,Noordhinder,21,51.3339031144,3.24278548041
8301,Knokke-Heist,Hendrik Consciencestraat,33,51.336659242,3.24641893854
8301,Knokke-Heist,Jozef Nellenslaan,94,51.3467831075,3.27380789207
8301,Knokke-Heist,Knokkestraat,268,51.3390252297,3.2539104932
8301,Knokke-Heist,Vlamingstraat,13,51.3397562185,3.23902425418
8301,Knokke-Heist,Knokkestraat,36,51.3396884774,3.2418344863
8301,Knokke-Heist,Onderwijsstraat,8,51.3393886986,3.24461041719
8301,Knokke-Heist,Kinderpad,1,51.3420918261,3.26365262035
8301,Knokke-Heist,Aaishove,1,51.3113843588,3.25187602478
8301,Knokke-Heist,Koudekerkelaan,17,51.3352897404,3.2376635153
8301,Knokke-Heist,Duinenstraat,7,51.3407242783,3.23918847245
8301,Knokke-Heist,Ramskapellestraat,58,51.3134793446,3.25127441025
8301,Knokke-Heist,Hendrik Consciencestraat,15,51.3370846957,3.24659997191
8301,Knokke-Heist,Aaishove,35,51.3126487858,3.24940076476
8301,Knokke-Heist,Pannenstraat,75,51.3381354913,3.24306939996
8301,Knokke-Heist,Zeedijk-Heist,150,51.3403331239,3.23352516922
8301,Knokke-Heist,Oud-strijdersstraat,6,51.3361498847,3.23862388978
8301,Knokke-Heist,Louis Parentstraat,24,51.3405698311,3.24500683792
8301,Knokke-Heist,Kursaalstraat,28,51.3395608921,3.23923235656
8301,Knokke-Heist,Knokkestraat,426,51.3391953883,3.26252207029
8301,Knokke-Heist,Zeegrasstraat,30,51.3430223134,3.25750876403
8301,Knokke-Heist,Bocheldreef,2,51.3437552083,3.26428754606
8301,Knokke-Heist,Albrecht Rodenbachstraat,3,51.3355487313,3.23988250933
8301,Knokke-Heist,Knokkestraat,18,51.3399075344,3.2406803388
8301,Knokke-Heist,Pannenstraat,93,51.3381472302,3.24391826525
8301,Knokke-Heist,Noordstraat,38,51.3382550363,3.24140279122
8301,Knokke-Heist,Vardenaarspolder,5,51.3404840653,3.26911745478
8301,Knokke-Heist,Polderstraat,2,51.339214854,3.24771637023
8301,Knokke-Heist,Heestersstraat,26,51.3340930664,3.25535499021
8301,Knokke-Heist,Scheurleg,16,51.3329153058,3.23857946212
8301,Knokke-Heist,Vuurkruisersstraat,13,51.3351989055,3.2384224047
8301,Knokke-Heist,Polderstraat,36,51.338529481,3.24683608019
8301,Knokke-Heist,Kapellaan,19,51.3442596662,3.2745302317
8301,Knokke-Heist,Pannenstraat,103,51.3379227864,3.24419434927
8301,Knokke-Heist,Noordstraat,4,51.3396142395,3.24223310225
8301,Knokke-Heist,Zeedijk-Heist,322,51.3441452793,3.25682530241
8301,Knokke-Heist,Emanuel Hielstraat,23,51.3376859244,3.24865888522
8301,Knokke-Heist,Kerkstraat,5,51.3389400544,3.23845250976
8301,Knokke-Heist,Kerkstraat,39,51.3392090278,3.23712565167
8301,Knokke-Heist,Albrecht Rodenbachstraat,19,51.3356909104,3.24056930795
8301,Knokke-Heist,Matrozenplein,23,51.3391742729,3.24982541201
8301,Knokke-Heist,Zonnebloemstraat,43,51.3373454152,3.25831335724
8301,Knokke-Heist,Zuidstraat,24,51.3383213057,3.24871075417
8301,Knokke-Heist,IJzerstraat,20,51.3390513454,3.24534129765
8301,Knokke-Heist,Guido Gezellestraat,23,51.3386893478,3.24067097874
8301,Knokke-Heist,Anemonenlaan,9,51.3413724649,3.25767001354
8301,Knokke-Heist,Aaishove,17,51.3108820982,3.25029862778
8301,Knokke-Heist,Felix Timmermansstraat,11,51.3368012133,3.24391765085
8301,Knokke-Heist,Peter Benoitlaan,16,51.3380845394,3.24932048548
8301,Knokke-Heist,Bondgenotenlaan,52,51.3352578221,3.23918124368
8301,Knokke-Heist,Felix Timmermansstraat,46,51.3360723585,3.24523297185
8301,Knokke-Heist,Heistlaan,345,51.3194024709,3.24491845653
8301,Knokke-Heist,Knokkestraat,408,51.3393986614,3.26195710503
8301,Knokke-Heist,Zeedijk-Heist,304,51.3435858414,3.25572662826
8301,Knokke-Heist,Leenstraat,59,51.3349393297,3.24203386747
8301,Knokke-Heist,Aaishove,63,51.3117696868,3.25138600939
8301,Knokke-Heist,Dalgang,5,51.342916979,3.26494296812
8301,Knokke-Heist,Vandaelelaan,7,51.3434587192,3.26592632938
8301,Knokke-Heist,Vrijestraat,39,51.3118224448,3.24728253775
8301,Knokke-Heist,Weibroekstraat,10,51.3347365612,3.2520250485
8301,Knokke-Heist,Vissersstraat,4,51.3397566463,3.24116635115
8301,Knokke-Heist,Acacialaan,54,51.3419856244,3.27493662634
8301,Knokke-Heist,Bakkersstraat,11,51.3391799262,3.24128121618
8301,Knokke-Heist,Westkapellestraat,199,51.3330527589,3.25360284782
8301,Knokke-Heist,Sasstraat,6,51.3163914704,3.24523829239
8301,Knokke-Heist,Kwinte,9,51.3317696206,3.23904751275
8301,Knokke-Heist,Heistlaan,92,51.3364692109,3.23362014695
8301,Knokke-Heist,Duinendreef,16,51.3424936428,3.25891686488
8301,Knokke-Heist,Prinsjespad,8,51.3433607183,3.26569197856
8301,Knokke-Heist,Molenstraat,1,51.3375469364,3.23830122222
8301,Knokke-Heist,Zeedijk-Heist,443,51.345792759,3.26738484839
8301,Knokke-Heist,Knokkestraat,351,51.3394738033,3.25697768762
8301,Knokke-Heist,de Vrièrestraat,17,51.3385436267,3.23799845346
8301,Knokke-Heist,Westkapellestraat,164,51.3344358312,3.24818880223
8301,Knokke-Heist,Zeedijk-Heist,204,51.341092283,3.23883882403
8301,Knokke-Heist,Meerlaan,137,51.3456459164,3.27544465636
8301,Knokke-Heist,Stadhuisstraat,3,51.3375851719,3.23895555322
8301,Knokke-Heist,Bondgenotenlaan,7,51.3366536306,3.23987005683
8301,Knokke-Heist,Elizabetlaan,194,51.345581364,3.2733191703
8301,Knokke-Heist,Heistlaan,102,51.3362183083,3.23389993012
8301,Knokke-Heist,Zeegrasstraat,26B,51.3433756971,3.25725274217
8301,Knokke-Heist,Pannenstraat,22,51.3388833128,3.24048014087
8301,Knokke-Heist,de Vrièrestraat,35,51.3380331458,3.23780090296
8301,Knokke-Heist,Heistlaan,74,51.3369316083,3.2333950427
8301,Knokke-Heist,Eieburg,13,51.337347007,3.23158589198
8301,Knokke-Heist,Leenstraat,24,51.3357579717,3.24096661998
8301,Knokke-Heist,Laurierstraat,16,51.333166697,3.25398080842
8301,Knokke-Heist,Poststraat,28,51.3428322377,3.26264888197
8301,Knokke-Heist,Nicolas Mengélaan,7,51.3401080977,3.23903896066
8301,Knokke-Heist,IJzerstraat,55,51.3379733676,3.2456430036
8301,Knokke-Heist,Meerlaan,119,51.3447466415,3.27602727485
8301,Knokke-Heist,Westkapellestraat,146,51.3346262457,3.24742137603
8301,Knokke-Heist,Knokkestraat,82,51.3396235491,3.24418037085
8301,Knokke-Heist,Duinbergenlaan,97,51.3434988384,3.2593452828
8301,Knokke-Heist,Achtmeilaan,21,51.3409138283,3.26523633252
8301,Knokke-Heist,de Vrièrestraat,1,51.3390876657,3.2378313871
8301,Knokke-Heist,Pannenstraat,121,51.3377887196,3.24511001913
8301,Knokke-Heist,Van Cailliedreef,13,51.342633274,3.26394690078
8301,Knokke-Heist,Heistlaan,227,51.3282552663,3.23884886638
8301,Knokke-Heist,Hermans-Lybaertstraat,17,51.3385884617,3.23646049777
8301,Knokke-Heist,Bocheldreef,18,51.3440938731,3.26312554301
8301,Knokke-Heist,Van Hoenackerpad,6,51.3420145365,3.25901340074
8301,Knokke-Heist,Blauwvoetlaan,35,51.3362666791,3.23310273055
8301,Knokke-Heist,Hendrik Consciencestraat,8,51.3373983957,3.24602842197
8301,Knokke-Heist,Garnaalstraat,10,51.3396014382,3.24065920001
8301,Knokke-Heist,Hendrik Consciencestraat,53,51.3360784613,3.2464757096
8301,Knokke-Heist,Klaprozenpad,6,51.3442052078,3.26336258955
8301,Knokke-Heist,Weststraat,20,51.3379014146,3.23453940564
8301,Knokke-Heist,Hulststraat,27,51.3341533617,3.25845940512
8301,Knokke-Heist,Eerste Geniestraat,5,51.3411280801,3.24555135873
8301,Knokke-Heist,Onderwijsstraat,15,51.3392114542,3.24502973966
8301,Knokke-Heist,Heistlaan,56,51.3373631954,3.2330784102
8301,Knokke-Heist,O.-L.-Vrouwstraat,3,51.3411359486,3.24101854137
8301,Knokke-Heist,Polderstraat,18,51.338907563,3.24726439024
8301,Knokke-Heist,Duinenstraat,24,51.3409847379,3.23846699449
8301,Knokke-Heist,Van Maerlantstraat,13,51.3384748489,3.23672502694
8301,Knokke-Heist,Hendrik Consciencestraat,71,51.3356122772,3.24635062503
8301,Knokke-Heist,Zeedijk-Heist,393,51.3451541618,3.26060634947
8301,Knokke-Heist,Ramskapellestraat,23,51.3168252967,3.24739497879
8301,Knokke-Heist,Leeuwerikenlaan,7,51.3451847833,3.26604358833
8301,Knokke-Heist,Invalidenlaan,13,51.3348457197,3.24116953756
8301,Knokke-Heist,O.-L.-Vrouwstraat,19,51.3413643499,3.24179318094
8301,Knokke-Heist,Dwarsstraat,11,51.3395642103,3.24092244713
8301,Knokke-Heist,Eeuwfeestlaan,23,51.3448117933,3.27543023987
8301,Knokke-Heist,Roompot,5,51.3328440178,3.24447075263
8301,Knokke-Heist,Emanuel Hielstraat,43,51.3381532983,3.24795864393
8301,Knokke-Heist,Majoor Quaillestraat,8,51.3451709998,3.26335528931
8301,Knokke-Heist,Sint-Jozefsstraat,78,51.3364048544,3.23543475879
8301,Knokke-Heist,Duinbergenlaan,79,51.3428110003,3.26136499096
8301,Knokke-Heist,Vlamingstraat,31,51.3397498433,3.23732748523
8301,Knokke-Heist,Duinbergenlaan,26,51.3398854217,3.26309536874
8301,Knokke-Heist,Onderwijsstraat,33,51.3387799794,3.24497242159
8301,Knokke-Heist,Sint-Jozefsstraat,25,51.3383986374,3.23561581809
8301,Knokke-Heist,Blauwvoetlaan,17,51.3368832995,3.23253690436
8301,Knokke-Heist,Pannenstraat,192,51.3370443438,3.24783668018
8301,Knokke-Heist,Roompot,12,51.332585311,3.2447833597
8301,Knokke-Heist,IJzerstraat,27,51.3386958365,3.24579749345
8301,Knokke-Heist,Vlamingstraat,38,51.3399278333,3.23807302726
8301,Knokke-Heist,Louis Parentstraat,7,51.3412413325,3.24550298572
8301,Knokke-Heist,Vandaelelaan,14,51.3437709501,3.26609561039
8301,Knokke-Heist,Duinbergenlaan,34,51.3399902946,3.26281273515
8301,Knokke-Heist,Westkapellestraat,108,51.3354666018,3.24485468856
8301,Knokke-Heist,Knokkestraat,188,51.3393136802,3.24980512524
8301,Knokke-Heist,Pannenstraat,221,51.3375214404,3.24996517945
8301,Knokke-Heist,Achtmeilaan,6,51.3404496032,3.26747629706
8301,Knokke-Heist,Duinbergenlaan,48,51.3402264269,3.26259988593
8301,Knokke-Heist,Oostenhem,1,51.3329442139,3.2482571467
8301,Knokke-Heist,Elizabetlaan,258,51.3407956228,3.26358523823
8301,Knokke-Heist,Arcadelaan,1,51.3420358312,3.26666775759
8301,Knokke-Heist,Mimosastraat,3,51.3436600111,3.25859596241
8301,Knokke-Heist,Ramskapellestraat,61,51.3149488585,3.25072907232
8301,Knokke-Heist,Spelemanstraat,6,51.3157275109,3.25017849539
8301,Knokke-Heist,Jonckheerestraat,18,51.3137512043,3.25288080746
8301,Knokke-Heist,Breed Veertien,8,51.3318189751,3.24270575683
8301,Knokke-Heist,Onderwijsstraat,51,51.3383318448,3.24491191918
8301,Knokke-Heist,Engelsestraat,33,51.3450919206,3.26129534548
8301,Knokke-Heist,Heistlaan,307,51.3229606352,3.24387880891
8301,Knokke-Heist,Felix Timmermansstraat,36,51.3361809828,3.24483843994
8301,Knokke-Heist,Dwarsstraat,18,51.3393995111,3.24050436421
8301,Knokke-Heist,Steenstraat,88,51.3371691673,3.24204617811
8301,Knokke-Heist,Waterloostraat,3,51.3444431731,3.2763978162
8301,Knokke-Heist,Blauwvoetlaan,25,51.3366093961,3.2327894173
8301,Knokke-Heist,Elizabetlaan,294,51.3405097779,3.26120519865
8301,Knokke-Heist,Heistlaan,41,51.3383850659,3.2332568261
8301,Knokke-Heist,Serweytens de Mercxstraat,8,51.3414085357,3.24280177536
8301,Knokke-Heist,De Bocht,19,51.3328507915,3.2432516096
8301,Knokke-Heist,Heistlaan,501,51.3029126064,3.26373999979
8301,Knokke-Heist,Nicolas Mengélaan,14,51.3401268157,3.23839957144
8301,Knokke-Heist,Krommedijk,61,51.3376520984,3.25643096128
8301,Knokke-Heist,Izabellastraat,5,51.3278045303,3.2384782995
8301,Knokke-Heist,Achtmeilaan,56,51.3403443105,3.26675661552
8301,Knokke-Heist,Acacialaan,28,51.3419146642,3.27302358284
8301,Knokke-Heist,de Vrièrestraat,25,51.3383084621,3.23796886426
8301,Knokke-Heist,Oud-strijdersstraat,15,51.3356100467,3.23768529159
8301,Knokke-Heist,Dudzelestraat,64,51.3019499842,3.27995186412
8301,Knokke-Heist,Graaf d'Ursellaan,43,51.3404472361,3.24481863376
8301,Knokke-Heist,Heistlaan,436,51.3160771023,3.24616605903
8301,Knokke-Heist,Polderstraat,9,51.3391304667,3.24825112348
8301,Knokke-Heist,Zeedijk-Heist,476,51.3474253354,3.27364895272
8301,Knokke-Heist,Rozenlaan,3,51.3466842823,3.27187722392
8301,Knokke-Heist,Pannenstraat,166,51.337344468,3.24687455192
8301,Knokke-Heist,Zonnebloemstraat,8,51.3355129063,3.25904129879
8301,Knokke-Heist,Heliospad,18,51.3404131888,3.26249082271
8301,Knokke-Heist,Kardinaal Mercierstraat,30,51.339641758,3.23810595476
8301,Knokke-Heist,Kapellaan,10,51.3452930957,3.27311539681
8301,Knokke-Heist,Gallischpad,2,51.3439452518,3.262215666
8301,Knokke-Heist,Logenhoek,5,51.3390023505,3.26072601161
8301,Knokke-Heist,Knokkestraat,46,51.3396924565,3.24216820562
8301,Knokke-Heist,Jozef Dhoorelaan,8,51.3397977953,3.23184173266
8301,Knokke-Heist,Landvast,5,51.3336526101,3.24348835895
8301,Knokke-Heist,Duinbergenlaan,107,51.3440292237,3.25859031068
8301,Knokke-Heist,Westkapellestraat,172,51.3343721332,3.24843026516
8301,Knokke-Heist,Acacialaan,4,51.3417668021,3.27035141292
8301,Knokke-Heist,De Wandelaar,3,51.3452543381,3.26490100881
8301,Knokke-Heist,Kapellaan,45,51.3431091512,3.27539518394
8301,Knokke-Heist,Ramskapellestraat,43,51.3159341131,3.2489156938
8301,Knokke-Heist,Anemonenlaan,2,51.3432297862,3.25635876342
8301,Knokke-Heist,Leenstraat,42,51.335044719,3.24116772936
8301,Knokke-Heist,Hermans-Lybaertstraat,25,51.3382544878,3.23649474324
8301,Knokke-Heist,Zuidstraat,7,51.3388052418,3.24918360241
8301,Knokke-Heist,Hermans-Lybaertstraat,78,51.3366785883,3.2362836738
8301,Knokke-Heist,Sint-Antoniusstraat,23,51.3381779628,3.23498615805
8301,Knokke-Heist,Sint-Michielsplein,4,51.3428506369,3.25728939691
8301,Knokke-Heist,IJzerstraat,3,51.3394298369,3.24571735151
8301,Knokke-Heist,Eeuwfeestlaan,43,51.3425693718,3.27756286226
8301,Knokke-Heist,Zeedijk-Heist,106,51.3399160674,3.23058336565
8301,Knokke-Heist,Theresialaan,7,51.3431187513,3.27161581279
8301,Knokke-Heist,Pannenstraat,274,51.3376145736,3.25154899344
8301,Knokke-Heist,Westkapellestraat,50,51.3360520976,3.24243341829
8301,Knokke-Heist,Elizabetlaan,205,51.3464390143,3.27415875103
8301,Knokke-Heist,Bondgenotenlaan,14,51.3365592214,3.23914994131
8301,Knokke-Heist,Stadhuisstraat,10,51.3378801567,3.23807470594
8301,Knokke-Heist,Krommedijk,58,51.3382436204,3.25559293085
8301,Knokke-Heist,Brouwersstraat,3,51.3398102584,3.24045192442
8301,Knokke-Heist,Leeuwerikenlaan,14,51.3447371195,3.26584851977
8301,Knokke-Heist,Kwinte,2,51.3313624665,3.2386940809
8301,Knokke-Heist,Duinbergenlaan,80,51.3425991624,3.26189805485
8301,Knokke-Heist,Paul Van der Meerschenlaan,4,51.3460340343,3.26895585494
8301,Knokke-Heist,Visserskapelstraat,6,51.3409414889,3.24332486471
8301,Knokke-Heist,Heistlaan,353,51.3186967879,3.2453692851
8301,Knokke-Heist,Elizabetlaan,311,51.3408721833,3.25805855075
8301,Knokke-Heist,Knokkestraat,100,51.3395275955,3.24499168007
8301,Knokke-Heist,Sint-Antoniusstraat,51,51.3380606364,3.23370589283
8301,Knokke-Heist,Patriottenstraat,38,51.3438068123,3.25702313394
8301,Knokke-Heist,Knokkestraat,469,51.3401259956,3.26498061414
8301,Knokke-Heist,Heestersstraat,34,51.3343710117,3.2575600763
8301,Knokke-Heist,Kursaalstraat,54,51.3378179273,3.23926074312
8301,Knokke-Heist,Sint-Antoniusstraat,8,51.3384904011,3.2357743163
8301,Knokke-Heist,Noordstraat,31,51.3388674241,3.24209948934
8301,Knokke-Heist,Vissersstraat,13,51.3395153155,3.24129174663
8301,Knokke-Heist,Sint-Jozefsstraat,63,51.3369316672,3.23587354391
8301,Knokke-Heist,Trapegeer,19,51.3323336065,3.24314243565
8301,Knokke-Heist,Pannenstraat,29,51.3389560698,3.24101324849
8301,Knokke-Heist,Aaishove,25,51.3117589853,3.24981314227
8301,Knokke-Heist,Pannenstraat,5,51.3391817522,3.23993272025
8301,Knokke-Heist,Westkapellestraat,75,51.335850825,3.24450731617
8301,Knokke-Heist,Patriottenstraat,68,51.3435159553,3.25592335227
8301,Knokke-Heist,Sasstraat,15,51.3158736144,3.24500163176
8301,Knokke-Heist,Evendijk,6,51.3357190827,3.23396821413
8301,Knokke-Heist,Westkapellestraat,301,51.3276118078,3.26598299507
8301,Knokke-Heist,Knokkestraat,487,51.3399793257,3.26568918298
8301,Knokke-Heist,Vredestraat,24,51.3371112827,3.2359315968
8301,Knokke-Heist,Westkapellestraat,93,51.3357112839,3.24538619626
8301,Knokke-Heist,Zeedijk-Heist,260,51.3416401833,3.24316186114
8301,Knokke-Heist,Duinbergenlaan,44,51.3402174492,3.26283245163
8301,Knokke-Heist,Logenhoek,24,51.3385640634,3.25874709944
8301,Knokke-Heist,Parkstraat,37,51.3404569551,3.24603470702
8301,Knokke-Heist,Heistlaan,117,51.3361285738,3.23472439718
8301,Knokke-Heist,Zeedijk-Heist,242,51.341362656,3.24179465716
8301,Knokke-Heist,Zeedijk-Heist,405,51.3453559015,3.26140833705
8301,Knokke-Heist,Oudjespad,6,51.3418763483,3.26095294002
8301,Knokke-Heist,Zeedijk-Heist,458,51.3466055503,3.27070266393
8301,Knokke-Heist,Pastuurdijk,13,51.3401249541,3.25903090994
8301,Knokke-Heist,Polderstraat,64,51.337867952,3.24617739279
8301,Knokke-Heist,Weststraat,3,51.3376542259,3.23493520057
8301,Knokke-Heist,De Alikruik,3,51.3323803083,3.24580251391
8301,Knokke-Heist,Badersstraat,1,51.3389926489,3.24327440991
8301,Knokke-Heist,Engelsestraat,43,51.3451586357,3.26170167322
8301,Knokke-Heist,Zeedijk-Heist,88,51.339758845,3.22955289534
8301,Knokke-Heist,Polderstraat,11,51.3390904932,3.24820644894
8301,Knokke-Heist,Pinksterbloemhof,4,51.3379362343,3.25705360028
8301,Knokke-Heist,Sint-Jozefsstraat,81,51.3363975527,3.23577131218
8301,Knokke-Heist,Bondgenotenlaan,67,51.3348131157,3.23984941097
8301,Knokke-Heist,Noordstraat,13,51.3392350973,3.24235752231
8301,Knokke-Heist,Weidestraat,1,51.3136868581,3.2525673677
8301,Knokke-Heist,Serweytens de Mercxstraat,23,51.3408195612,3.24314095282
8301,Knokke-Heist,Elizabetlaan,276,51.3405688818,3.26228892422
8301,Knokke-Heist,Pannenstraat,203,51.3372073946,3.24906332567
8301,Knokke-Heist,Noordhinder,6,51.3342519988,3.24762684222
8301,Knokke-Heist,Polderstraat,46,51.3383133216,3.24659172694
8301,Knokke-Heist,Duinbergenlaan,62,51.3410139805,3.26231421992
8301,Knokke-Heist,Pannenstraat,40,51.338699092,3.24111907362
8301,Knokke-Heist,De Kinkhoorn,5,51.3413133255,3.24449632199
8301,Knokke-Heist,Petunialaan,18,51.3441781326,3.26184714488
8301,Knokke-Heist,Parkstraat,19,51.3410989076,3.24610647736
8301,Knokke-Heist,Elizabetlaan,223,51.3453670024,3.27015288729
8301,Knokke-Heist,Florapad,2,51.3416950674,3.25757289692
8301,Knokke-Heist,Marktstraat,17,51.3367137133,3.23840153947
8301,Knokke-Heist,Bondgenotenlaan,60,51.3350248196,3.23910496041
8301,Knokke-Heist,Heestersstraat,2,51.3336432034,3.25293895023
8301,Knokke-Heist,Steendiep,5,51.3322461787,3.24460558452
8301,Knokke-Heist,IJzerstraat,10,51.3392982209,3.24537379913
8301,Knokke-Heist,Westkapellestraat,101,51.3355066362,3.24578820606
8301,Knokke-Heist,De Kinkhoorn,12,51.3412604708,3.24503708948
8301,Knokke-Heist,Matrozenplein,15,51.3392647172,3.24882696733
8301,Knokke-Heist,Jozef Nellenslaan,86,51.346306335,3.27296077652
8301,Knokke-Heist,Zeedijk-Heist,285,51.3415544922,3.24488445897
8301,Knokke-Heist,Zuidstraat,14,51.3385884222,3.24878311251
8301,Knokke-Heist,De Kreeft,5,51.3334898169,3.24789258972
8301,Knokke-Heist,Noordstraat,41,51.3386297879,3.24193259844
8301,Knokke-Heist,Albrecht Rodenbachstraat,27,51.3355547517,3.24091213501
8301,Knokke-Heist,Zeedijk-Heist,332,51.3443329281,3.25775160216
8301,Knokke-Heist,Phillippartpad,4,51.3450135042,3.26481184874
8301,Knokke-Heist,Spelemanstraat,13,51.3160984889,3.24980696108
8301,Knokke-Heist,Onderwijsstraat,76,51.3374134598,3.24372877664
8301,Knokke-Heist,Bondgenotenlaan,42,51.3356588368,3.23918284658
8301,Knokke-Heist,Onderwijsstraat,124,51.3362307376,3.24182135421
8301,Knokke-Heist,Kapellaan,27,51.343720774,3.27384751931
8301,Knokke-Heist,Guido Gezellestraat,33,51.3385831659,3.24110351336
8301,Knokke-Heist,Westkapellestraat,39,51.3362192837,3.24310470247
8301,Knokke-Heist,Zeedijk-Heist,267,51.3415654317,3.24359207855
8301,Knokke-Heist,Kerkstraat,65,51.3397475279,3.23495753063
8301,Knokke-Heist,Westkapellestraat,372,51.3260931147,3.26863418702
8301,Knokke-Heist,Onderwijsstraat,94,51.3371251416,3.24300443558
8301,Knokke-Heist,Elizabetlaan,251,51.3430679147,3.26641352909
8301,Knokke-Heist,Knokkestraat,416,51.339319846,3.26217094862
8301,Knokke-Heist,Beiaardlaan,2,51.3423662168,3.2717440689
8301,Knokke-Heist,Badersstraat,25,51.3387570391,3.24425914717
8301,Knokke-Heist,Jozef Nellenslaan,8,51.3432223451,3.26482836716
8301,Knokke-Heist,Emanuel Hielstraat,33,51.3379804995,3.24842160556
8301,Knokke-Heist,Marktstraat,35,51.3364702055,3.23763826705
8301,Knokke-Heist,Steenstraat,81,51.337231564,3.24244505275
8301,Knokke-Heist,Graaf d'Ursellaan,8,51.3406510882,3.24153920692
8301,Knokke-Heist,Zeedijk-Heist,433,51.3454598086,3.26602042043
8301,Knokke-Heist,Kursaalstraat,18,51.3396998902,3.23941469095
8301,Knokke-Heist,Onderwijsstraat,106,51.3368276576,3.24247018379
8301,Knokke-Heist,Achtmeilaan,31,51.3407032981,3.26657919391
8301,Knokke-Heist,Pannenstraat,131,51.3377238623,3.24562706859
8301,Knokke-Heist,Zomerpad,1,51.3415575883,3.26453791011
8301,Knokke-Heist,Beiaardlaan,16,51.3425538405,3.2739164565
8301,Knokke-Heist,Pannenstraat,65,51.3382231794,3.24260072657
8301,Knokke-Heist,Dudzelestraat,48,51.3039646276,3.28606695658
8301,Knokke-Heist,Eeuwfeestlaan,8,51.3452619245,3.2743348541
8301,Knokke-Heist,Van Cailliedreef,6,51.3423404587,3.26542926385
8301,Knokke-Heist,Ramskapellestraat,8,51.3162985481,3.24734856774
8301,Knokke-Heist,Acacialaan,46,51.3420096769,3.27420166336
8301,Knokke-Heist,Eieburg,6,51.3381351054,3.23262100365
8301,Knokke-Heist,Leenstraat,14,51.3359919919,3.2407057993
8301,Knokke-Heist,Schoneveld,1,51.3322697202,3.23829710644
8301,Knokke-Heist,Laurierstraat,7,51.3339068952,3.25564127166
8301,Knokke-Heist,Acacialaan,11,51.342177083,3.27194744902
8301,Knokke-Heist,Heestersstraat,16,51.3338422245,3.25416308271
8301,Knokke-Heist,Duinendreef,7,51.3429302915,3.25866346296
8301,Knokke-Heist,Felix Timmermansstraat,54,51.3360237424,3.24569005618
8301,Knokke-Heist,Krommedijk,68,51.338761207,3.25537288799
8301,Knokke-Heist,Rondeweg,5,51.3422775257,3.26427870321
8301,Knokke-Heist,Pannenstraat,30,51.3388051314,3.24077551898
8301,Knokke-Heist,Begoniapad,9,51.34275718,3.27725347082
8301,Knokke-Heist,Pannenstraat,113,51.3378467715,3.2447192771
8301,Knokke-Heist,Hendrik Consciencestraat,23,51.3369162515,3.24642996075
8301,Knokke-Heist,Aaishove,53,51.3126613161,3.25121472607
8301,Knokke-Heist,Leenstraat,49,51.3351297024,3.2417201575
8301,Knokke-Heist,Pannenstraat,83,51.3380854924,3.24338934499
8301,Knokke-Heist,Pannenstraat,321,51.3386636959,3.25358563425
8301,Knokke-Heist,Stationsplein,1,51.3339593487,3.23910456329
8301,Knokke-Heist,Westkapellestraat,57,51.3360393757,3.2437828036
8301,Knokke-Heist,Achtmeilaan,13,51.3410166549,3.2664440403
8301,Knokke-Heist,Knokkestraat,28,51.3397698377,3.24151391226
8301,Knokke-Heist,Eieburg,21,51.3372626009,3.23122975934
8301,Knokke-Heist,Acacialaan,64,51.3421536539,3.27584647807
8301,Knokke-Heist,Meerlaan,147,51.3475415876,3.27416797781
8301,Knokke-Heist,Kursaalstraat,36,51.3393140442,3.23934454872
8301,Knokke-Heist,Zeedijk-Heist,142,51.3402642131,3.23303114295
8301,Knokke-Heist,Westkapellestraat,154,51.3345342052,3.24783098694
8301,Knokke-Heist,Vlamingstraat,56,51.3400427288,3.23728290597
8301,Knokke-Heist,IJzerstraat,7A,51.3393116278,3.24570743169
8301,Knokke-Heist,Pannenstraat,303,51.3384720926,3.25289233285
8301,Knokke-Heist,Graaf d'Ursellaan,33,51.3405235246,3.24383900697
8301,Knokke-Heist,Kapellaan,47,51.3430404683,3.27562844602
8301,Knokke-Heist,Heliospad,4,51.3401531562,3.26128860207
8301,Knokke-Heist,Knokkestraat,444,51.3395017195,3.26376479229
8301,Knokke-Heist,Peter Benoitlaan,7,51.3389716628,3.2502448914
8301,Knokke-Heist,Knokkestraat,361,51.3395324723,3.25753096739
8301,Knokke-Heist,Paul Van der Meerschenlaan,11,51.3456374535,3.27053848847
8301,Knokke-Heist,Schildeken,40,51.3387986363,3.26413495649
8301,Knokke-Heist,Eeuwfeestlaan,33,51.3436861274,3.27606595921
8301,Knokke-Heist,IJzerstraat,45,51.3382446317,3.24567850508
8301,Knokke-Heist,Vredestraat,5,51.3372905469,3.23453262503
8301,Knokke-Heist,Ramskapellestraat,33,51.3163206681,3.24825244088
8301,Knokke-Heist,Poststraat,18,51.3428232411,3.26241673052
8301,Knokke-Heist,Elizabetlaan,318,51.3402818454,3.25822778283
8301,Knokke-Heist,Westdiep,18,51.3329534803,3.23936904467
8301,Knokke-Heist,Graaf d'Ursellaan,15,51.3406465297,3.24178789029
8301,Knokke-Heist,Patriottenstraat,21,51.3432904934,3.2561321204
8301,Knokke-Heist,Westdiep,4,51.3325196613,3.23837741803
8301,Knokke-Heist,Zeedijk-Heist,385,51.3444727028,3.25940329959
8301,Knokke-Heist,Elizabetlaan,186,51.3459656895,3.27445436957
8301,Knokke-Heist,Heistlaan,217,51.328517194,3.23828164234
8301,Knokke-Heist,Heistlaan,110,51.3360168018,3.23405308363
8301,Knokke-Heist,Onderwijsstraat,142,51.3356920965,3.2417151474
8301,Knokke-Heist,Jozef Nellenslaan,15,51.3437779372,3.2649621569
8301,Knokke-Heist,August Beernaertstraat,46,51.3407571603,3.24375499781
8301,Knokke-Heist,Westkapellestraat,201,51.3329619164,3.25367361457
8301,Knokke-Heist,Eeuwfeestlaan,15,51.3452893991,3.27516970318
8301,Knokke-Heist,Knokkestraat,462,51.3395308946,3.26431074345
8301,Knokke-Heist,Frans Vantorrestraat,35,51.3353882617,3.24341840783
8301,Knokke-Heist,Irispad,6,51.3411981467,3.25826274774
8301,Knokke-Heist,Heistlaan,84,51.3366977369,3.23359462517
8301,Knokke-Heist,Zeegrasstraat,22,51.3435348626,3.2572017198
8301,Knokke-Heist,Theresialaan,14,51.3436425047,3.273119961
8301,Knokke-Heist,Steenstraat,35,51.3387163338,3.2431140452
8301,Knokke-Heist,Zeedijk-Heist,232,51.3414427835,3.24117414388
8301,Knokke-Heist,Pannenstraat,184,51.3371291968,3.24758909609
8301,Knokke-Heist,Noordhinder,13,51.3342514527,3.24451151371
8301,Knokke-Heist,Guido Gezellestraat,8,51.3385133805,3.24000404216
8301,Knokke-Heist,Matrozenplein,8,51.3390176025,3.24905464171
8301,Knokke-Heist,Heistlaan,66,51.3371296262,3.233253162
8301,Knokke-Heist,Pannenstraat,12,51.3389549263,3.24013698779
8301,Knokke-Heist,Knokkestraat,278,51.339080109,3.25409718
8301,Knokke-Heist,Heistlaan,181,51.330396382,3.23784184088
8301,Knokke-Heist,Weststraat,10,51.3379028729,3.2349833888
8301,Knokke-Heist,Emanuel Hielstraat,8,51.3380088858,3.24900027008
8301,Knokke-Heist,Noordhinder,31,51.3331076316,3.24106829826
8301,Knokke-Heist,Lentelaan,3,51.3457989298,3.2684469901
8301,Knokke-Heist,Pinksterbloemhof,11,51.3382557096,3.25721746253
8301,Knokke-Heist,Jonckheerestraat,191,51.3172773577,3.26392004295
8301,Knokke-Heist,Kwade Helling,9,51.3425111875,3.26104388912
8301,Knokke-Heist,Meeuwendreef,8,51.3415547752,3.26097767486
8301,Knokke-Heist,Mimosastraat,10,51.3438615218,3.25833438409
8301,Knokke-Heist,Jozef Nellenslaan,68,51.3460620238,3.27106557017
8301,Knokke-Heist,Zeedijk-Heist,451,51.3464146865,3.26999078606
8301,Knokke-Heist,Moefe,21,51.3393545371,3.24294203327
8301,Knokke-Heist,Polderstraat,28,51.3386996735,3.24702944896
8301,Knokke-Heist,Heistlaan,163,51.331371469,3.23751696264
8301,Knokke-Heist,Arcadelaan,25,51.3426519068,3.27069722077
8301,Knokke-Heist,Kerselarendreef,1,51.3393680168,3.26155341333
8301,Knokke-Heist,Frans Vantorrestraat,17,51.3355137362,3.24260272188
8301,Knokke-Heist,Hendrik Consciencestraat,63,51.335806018,3.24639158612
8301,Knokke-Heist,Duinbergenlaan,69,51.3419891175,3.26150683135
8301,Knokke-Heist,Visserskapelstraat,13,51.3413021233,3.24361825137
8301,Knokke-Heist,Knokkestraat,343,51.3393992352,3.25659844067
8301,Knokke-Heist,Steenstraat,17,51.3392007581,3.24352224695
8301,Knokke-Heist,Onderwijsstraat,58,51.3379403969,3.24444004238
8301,Knokke-Heist,Kwelmpad,2,51.3437014705,3.27428831241
8301,Knokke-Heist,Azalealaan,1,51.3457973043,3.27545602641
8301,Knokke-Heist,Hulststraat,1,51.3329813577,3.25437440322
8301,Knokke-Heist,Westkapellestraat,3,51.3369685474,3.24028906234
8301,Knokke-Heist,Jozef Nellenslaan,33,51.3452861262,3.26668607337
8301,Knokke-Heist,Zeedijk-Heist,81,51.3396440824,3.22876981606
8301,Knokke-Heist,De Wulk,1,51.3329364472,3.24576340937
8301,Knokke-Heist,Stationsplein,12,51.3348052286,3.23881353295
8301,Knokke-Heist,Schuttersstraat,2,51.3377604242,3.23407442817
8301,Knokke-Heist,Blauwvoetlaan,33,51.3363326887,3.23307772837
8301,Knokke-Heist,Weibroekstraat,1,51.3344864508,3.2510859686
8301,Knokke-Heist,Walstraat,5,51.3352915922,3.2503801226
8301,Knokke-Heist,Parkstraat,29,51.3407340333,3.24605772984
8301,Knokke-Heist,Steenstraat,23,51.3390620236,3.24340490737
8301,Knokke-Heist,Heuvelpad,3,51.3432836465,3.26251227921
8301,Knokke-Heist,IJzerstraat,50,51.3383655428,3.24525237384
8301,Knokke-Heist,O.-L.-Vrouwstraat,22,51.3408971415,3.2417404872
8301,Knokke-Heist,Peter Benoitlaan,49,51.3377071811,3.24974903873
8301,Knokke-Heist,Engelsestraat,25,51.345015501,3.26103392899
8301,Knokke-Heist,Onderwijsstraat,17,51.3391621311,3.24502303754
8301,Knokke-Heist,De Bolle,7,51.339580558,3.2384281971
8301,Knokke-Heist,Zeegrasstraat,27,51.3411958063,3.25926140924
8301,Knokke-Heist,Knokkestraat,56,51.3396236875,3.24260328493
8301,Knokke-Heist,Zeedijk-Heist,130,51.3401129795,3.23199491372
8301,Knokke-Heist,Knokkestraat,198,51.3392911037,3.25018483062
8301,Knokke-Heist,Duinenstraat,26,51.3409638029,3.23830762293
8301,Knokke-Heist,Zeedijk-Heist,391,51.3451097424,3.26058559069
8301,Knokke-Heist,Hazenpad,4,51.3420777713,3.25770239973
8301,Knokke-Heist,De Bocht,1,51.3317558221,3.24367598843
8301,Knokke-Heist,Elizabetlaan,211,51.3461559744,3.27317746573
8301,Knokke-Heist,Prinsjespad,6,51.3432739299,3.26590946747
8301,Knokke-Heist,Elizabetlaan,305,51.3409611231,3.25940750943
8301,Knokke-Heist,Zeedijk-Heist,400,51.345253728,3.26106500135
8301,Knokke-Heist,Achtmeilaan,46,51.3404938836,3.26543157163
8301,Knokke-Heist,Krommedijk,71,51.3380964928,3.25639048882
8301,Knokke-Heist,Laurierstraat,32,51.3334564561,3.25633092126
8301,Knokke-Heist,Sasstraat,8,51.3163330443,3.24505839069
8301,Knokke-Heist,Pannenstraat,248,51.3373465841,3.25064932152
8301,Knokke-Heist,Noordhinder,18,51.3347228173,3.2458569142
8301,Knokke-Heist,Duinendreef,32,51.3422339615,3.26078325047
8301,Knokke-Heist,Blauwvoetlaan,15,51.3369561126,3.23249020891
8301,Knokke-Heist,Duinbergenlaan,24,51.3397745321,3.26309900817
8301,Knokke-Heist,Knokkestraat,495,51.3400688195,3.26653624198
8301,Knokke-Heist,Begoniapad,4,51.342705273,3.27837302103
8301,Knokke-Heist,Onderwijsstraat,35,51.3387308388,3.24496600221
8301,Knokke-Heist,Duinendreef,49,51.342739496,3.26267074937
8301,Knokke-Heist,Evendijk,18,51.3355107578,3.23277992932
8301,Knokke-Heist,Krekelpad,6,51.3418479234,3.25991179762
8301,Knokke-Heist,Knokkestraat,92,51.3395597855,3.24445200602
8301,Knokke-Heist,Stadhuisstraat,22,51.3378400501,3.23713052803
8301,Knokke-Heist,August Beernaertstraat,38,51.3407554288,3.24389468282
8301,Knokke-Heist,Eeuwfeestlaan,53,51.3423411951,3.27877107145
8301,Knokke-Heist,Westkapellestraat,324,51.3270285346,3.26260749948
8301,Knokke-Heist,Majoor Quaillestraat,6,51.3456525111,3.26316931369
8301,Knokke-Heist,Molenstraat,15,51.337034111,3.23830090797
8301,Knokke-Heist,Pannenstraat,19,51.3390780898,3.24056367868
8301,Knokke-Heist,Ramskapellestraat,53,51.3156065292,3.24956059205
8301,Knokke-Heist,Ramskapellestraat,71,51.3146153646,3.25123437783
8301,Knokke-Heist,Onderwijsstraat,147,51.3358167815,3.24205653481
8301,Knokke-Heist,Zeedijk-Heist,94,51.3397996556,3.22983376086
8301,Knokke-Heist,Duinendreef,14,51.3424913488,3.25872933496
8301,Knokke-Heist,Acacialaan,38,51.3419528802,3.27369665743
8301,Knokke-Heist,Elizabetlaan,323,51.3401141961,3.25295915632
8301,Knokke-Heist,de Vrièrestraat,15,51.3386712809,3.23779213865
8301,Knokke-Heist,Duinbergenlaan,117,51.3442798369,3.25835999586
8301,Knokke-Heist,Zeedijk-Heist,237,51.3414821224,3.24139765657
8301,Knokke-Heist,Westkapellestraat,162,51.3344570653,3.24811481967
8301,Knokke-Heist,Heistlaan,36,51.3378551456,3.23276675613
8301,Knokke-Heist,Westkapellestraat,404,51.3228568948,3.27509559315
8301,Knokke-Heist,Leenstraat,26,51.3357037901,3.24096893756
8301,Knokke-Heist,de Vrièrestraat,33,51.3380879361,3.23795671488
8301,Knokke-Heist,Kursaalstraat,9,51.3398709572,3.23986864071
8301,Knokke-Heist,Laurierstraat,14,51.3334419356,3.25381780564
8301,Knokke-Heist,Parkstraat,1,51.3414886121,3.24618591401
8301,Knokke-Heist,Hermans-Lybaertstraat,68,51.3369148467,3.23619239436
8301,Knokke-Heist,Jozef Nellenslaan,53,51.3455497409,3.26856153698
8301,Knokke-Heist,Kardinaal Mercierstraat,20,51.3400718784,3.23797365827
8301,Knokke-Heist,Visserskapelstraat,18,51.3409603969,3.24371664421
8301,Knokke-Heist,Pannenstraat,176,51.3370722892,3.24716999261
8301,Knokke-Heist,Varenstraat,7,51.3340288025,3.2569559455
8301,Knokke-Heist,Heistlaan,82,51.3367446942,3.23355128893
8301,Knokke-Heist,De Wulk,12,51.3329500655,3.24694590164
8301,Knokke-Heist,Hendrik Consciencestraat,6,51.3374550093,3.24591268029
8301,Knokke-Heist,Pannenstraat,37,51.33881766,3.24141255313
8301,Knokke-Heist,Heistlaan,225,51.3283332601,3.23882674231
8301,Knokke-Heist,Van Hoenackerpad,8,51.341274858,3.25964042451
8301,Knokke-Heist,Garnaalstraat,1,51.3398039235,3.24104293049
8301,Knokke-Heist,Graaf van Vlaanderenstraat,2,51.339908779,3.23070438433
8301,Knokke-Heist,Frans Vantorrestraat,23,51.3354552649,3.24291065672
8301,Knokke-Heist,Onderwijsstraat,63,51.338043553,3.24487238454
8301,Knokke-Heist,Izabellastraat,19,51.3277354712,3.23963641009
8301,Knokke-Heist,Kerkstraat,20,51.3393070066,3.23866231137
8301,Knokke-Heist,Knokkestraat,4,51.3398853839,3.239967747
8301,Knokke-Heist,Polderstraat,56,51.3380660025,3.24631282412
8301,Knokke-Heist,Elizabetlaan,299,51.34096637,3.25977636997
8301,Knokke-Heist,Westkapellestraat,10,51.3366564238,3.24025802822
8301,Knokke-Heist,Zeedijk-Heist,165,51.3405938696,3.23575065477
8301,Knokke-Heist,Duinbergenlaan,70,51.3419067155,3.26215506801
8301,Knokke-Heist,Marktstraat,23,51.3366736859,3.23816300073
8301,Knokke-Heist,Scheurleg,14,51.3328935585,3.23846691694
8301,Knokke-Heist,Achtmeilaan,18,51.3414352273,3.26714583803
8301,Knokke-Heist,Heestersstraat,24,51.3340344149,3.25508231401
8301,Knokke-Heist,Poststraat,9,51.3430658021,3.26320192783
8301,Knokke-Heist,Steenstraat,76,51.3375276398,3.24208313428
8301,Knokke-Heist,Achtmeilaan,36,51.3410862645,3.26461152541
8301,Knokke-Heist,Onderwijsstraat,6,51.3394371366,3.24461857543
8301,Knokke-Heist,Pannenstraat,158,51.3374547594,3.2465606244
8301,Knokke-Heist,Noordstraat,34A,51.3387140673,3.24166376896
8301,Knokke-Heist,Logenhoek,12,51.3388070399,3.2597278028
8301,Knokke-Heist,Zeedijk-Heist,147,51.3402966386,3.23326327967
8301,Knokke-Heist,Pannenstraat,284,51.3374714864,3.25319343985
8301,Knokke-Heist,IJzerstraat,39,51.3381282223,3.24598211147
8301,Knokke-Heist,Zuidstraat,26,51.3382659692,3.24871452576
8301,Knokke-Heist,Peter Benoitlaan,14,51.3381472991,3.24927463115
8301,Knokke-Heist,Aaishove,15,51.3107342308,3.25048949318
8301,Knokke-Heist,Margrietenpad,8,51.3421395646,3.2673840575
8301,Knokke-Heist,Onderwijsstraat,81,51.337301038,3.24434814616
8301,Knokke-Heist,Trapegeer,1,51.3317982599,3.24202008625
8301,Knokke-Heist,Zeedijk-Heist,309,51.3436964841,3.25592664147
8301,Knokke-Heist,Steenstraat,51,51.3383379431,3.24277791163
8301,Knokke-Heist,Elizabetlaan,246,51.342343619,3.266900724
8301,Knokke-Heist,Hendrik Consciencestraat,58,51.335991591,3.24593048274
8301,Knokke-Heist,Albrecht Rodenbachstraat,22,51.3352307464,3.24068091446
8301,Knokke-Heist,Zomerpad,12,51.3426249307,3.26550360908
8301,Knokke-Heist,Jozef Nellenslaan,71,51.3455778832,3.26904701541
8301,Knokke-Heist,IJzerstraat,47,51.3381952214,3.24567209154
8301,Knokke-Heist,Onderwijsstraat,119,51.3365269251,3.24284354388
8301,Knokke-Heist,Petunialaan,2,51.3431432881,3.26195859582
8301,Knokke-Heist,Kapellaan,22,51.3444034932,3.27376112463
8301,Knokke-Heist,Vuurtorenstraat,11,51.3397495601,3.23684556796
8301,Knokke-Heist,Hermans-Lybaertstraat,86,51.3364984861,3.23630642538
8301,Knokke-Heist,Brieshelling,3,51.34481558,3.26031142124
8301,Knokke-Heist,Blauwvoetlaan,43,51.3359140616,3.23318007393
8301,Knokke-Heist,Kursaalstraat,13,51.3397669523,3.2397550601
8301,Knokke-Heist,Felix Timmermansstraat,41,51.3364119584,3.24537487874
8301,Knokke-Heist,Kursaalstraat,31,51.3391976262,3.23973055526
8301,Knokke-Heist,Felix Timmermansstraat,9,51.3368270799,3.24382058957
8301,Knokke-Heist,Bergdreef,23,51.344954006,3.26290186457
8301,Knokke-Heist,Heistlaan,361,51.3179954561,3.24582415499
8301,Knokke-Heist,Zonnebloemstraat,13,51.3357635813,3.25863494981
8301,Knokke-Heist,Knokkestraat,459,51.3400672762,3.26471750809
8301,Knokke-Heist,Pannenstraat,213,51.3374030557,3.24966981681
8301,Knokke-Heist,Engelsestraat,53,51.3455847913,3.26306930187
8301,Knokke-Heist,Hendrik Consciencestraat,35,51.3365955669,3.24641545156
8301,Knokke-Heist,Vlamingstraat,28,51.3399553165,3.23863652017
8301,Knokke-Heist,Zonnebloemstraat,31,51.3364728188,3.25829973798
8301,Knokke-Heist,Ooststraat,5,51.3408458554,3.26426876875
8301,Knokke-Heist,Schoneveld,12,51.3320355566,3.239165034
8301,Knokke-Heist,Zeerobbenlaan,3,51.3471043642,3.27300886921
8301,Knokke-Heist,Knokkestraat,110,51.3395269274,3.24535765769
8301,Knokke-Heist,Koudekerkelaan,15,51.3354087152,3.23754625261
8301,Knokke-Heist,Bakkersstraat,2,51.338872931,3.24132625476
8301,Knokke-Heist,Lentelaan,10,51.3446835468,3.26791962992
8301,Knokke-Heist,Pannenstraat,231,51.3376589353,3.25030442833
8301,Knokke-Heist,Hendrik Consciencestraat,17,51.3370880651,3.24638606561
8301,Knokke-Heist,De Kinkhoorn,19,51.3407360494,3.24463814433
8301,Knokke-Heist,Onderwijsstraat,137,51.3360779043,3.24214090705
8301,Knokke-Heist,Aaishove,33,51.3124683985,3.24947939856
8301,Knokke-Heist,Louis Parentstraat,26,51.3404380766,3.24498088584
8301,Knokke-Heist,Duinbergenlaan,52,51.340265812,3.26256278362
8301,Knokke-Heist,Heistlaan,107,51.3363667882,3.23447118971
8301,Knokke-Heist,Polderstraat,21,51.3389036046,3.24794875235
8301,Knokke-Heist,Kursaalstraat,66,51.3374814963,3.2391786424
8301,Knokke-Heist,Zeedijk-Heist,327,51.3442384643,3.2572632774
8301,Knokke-Heist,Spelemanstraat,89,51.325764832,3.26300912088
8301,Knokke-Heist,Oostenhem,8,51.3323896603,3.24830235341
8301,Knokke-Heist,Albrecht Rodenbachstraat,1,51.3355489297,3.23977114681
8301,Knokke-Heist,Westkapellestraat,91,51.3356669972,3.24546518711
8301,Knokke-Heist,Vardenaarspolder,7,51.3402426953,3.26958111769
8301,Knokke-Heist,Klaprozenpad,4,51.3441376319,3.26339376174
8301,Knokke-Heist,Kwinte,14,51.331459109,3.23941233905
8301,Knokke-Heist,Polderstraat,38,51.3384874142,3.24678873118
8301,Knokke-Heist,Polderstraat,4,51.3391781193,3.24778614153
8301,Knokke-Heist,August Beernaertstraat,9,51.3413936553,3.24433177283
8301,Knokke-Heist,Frans Vantorrestraat,6,51.3352974629,3.24187423314
8301,Knokke-Heist,Vredestraat,16,51.3371140636,3.23537586945
8301,Knokke-Heist,Noordstraat,18,51.3391647461,3.24187831227
8301,Knokke-Heist,Pannenstraat,105,51.3379108929,3.24427672404
8301,Knokke-Heist,Eerste Geniestraat,19,51.3410421299,3.24613841676
8301,Knokke-Heist,Westkapellestraat,45,51.3362135903,3.24339514906
8301,Knokke-Heist,Kapellaan,1,51.345296633,3.27404381745
8301,Knokke-Heist,Noordstraat,36,51.3385165584,3.24159536207
8301,Knokke-Heist,Van Maerlantstraat,11,51.3384954838,3.23683388062
8301,Knokke-Heist,Emanuel Hielstraat,25,51.3377372,3.24857728614
8301,Knokke-Heist,Badersstraat,33,51.3385905428,3.24451302402
8301,Knokke-Heist,Zeedijk-Heist,137,51.3401593288,3.23242289617
8301,Knokke-Heist,Heldenplein,2,51.3412104923,3.23958498272
8301,Knokke-Heist,Hermans-Lybaertstraat,3,51.3391195673,3.23653956626
8301,Knokke-Heist,Pannenstraat,241,51.3377971954,3.25064868362
8301,Knokke-Heist,Elizabetlaan,228,51.343641422,3.26770230018
8301,Knokke-Heist,Invalidenlaan,11,51.3348008223,3.24096656863
8301,Knokke-Heist,Guido Gezellestraat,25,51.3386717989,3.24074445167
8301,Knokke-Heist,Zonnebloemstraat,41,51.337328714,3.2579409242
8301,Knokke-Heist,Matrozenplein,25,51.3391790805,3.25002061773
8301,Knokke-Heist,Zeetrapper,6,51.3323464423,3.2377173991
8301,Knokke-Heist,Zeedijk-Heist,417,51.3458178786,3.26291549286
8301,Knokke-Heist,Sint-Jozefsstraat,76,51.3364213649,3.23533763432
8301,Knokke-Heist,Aaishove,61,51.3119506466,3.25137750728
8301,Knokke-Heist,Wilderozenpad,7,51.3431451875,3.27450706799
8301,Knokke-Heist,Invalidenlaan,8,51.3347378492,3.24065885296
8301,Knokke-Heist,Kerkstraat,55,51.3397588841,3.23528045042
8301,Knokke-Heist,Dalgang,7,51.342820561,3.26507213053
8301,Knokke-Heist,Badersstraat,15,51.3388734361,3.24391678423
8301,Knokke-Heist,Acacialaan,9,51.3421441478,3.27137987974
8301,Knokke-Heist,Vandaelelaan,5,51.3433129838,3.26630079669
8301,Knokke-Heist,Acacialaan,56,51.3421726448,3.27525414896
8301,Knokke-Heist,Meerlaan,139,51.3460417264,3.27536976062
8301,Knokke-Heist,Bakkersstraat,13,51.3392551868,3.24132144212
8301,Knokke-Heist,Onderwijsstraat,112,51.3366309541,3.24224992799
8301,Knokke-Heist,Zonnebloemstraat,1,51.3350445327,3.25839265401
8301,Knokke-Heist,Acacialaan,74,51.3421528725,3.27663026742
8301,Knokke-Heist,Koudekerkelaan,23,51.3349639711,3.23813407861
8301,Knokke-Heist,Vissersstraat,18,51.3393176065,3.24091866523
8301,Knokke-Heist,Bondgenotenlaan,26,51.3362440972,3.23914367068
8301,Knokke-Heist,Aaishove,43,51.3131089033,3.25017815249
8301,Knokke-Heist,Laurierstraat,42,51.3343337494,3.25637552952
8301,Knokke-Heist,Kardinaal Mercierstraat,19,51.3394059751,3.23853964297
8301,Knokke-Heist,Leeuwerikenlaan,26,51.344152257,3.26701433872
8301,Knokke-Heist,Sint-Jozefsstraat,6,51.3395955265,3.23523994005
8301,Knokke-Heist,Oostenhem,20,51.3330191168,3.25005935129
8301,Knokke-Heist,Acacialaan,21,51.3422853157,3.2736799355
8301,Knokke-Heist,Zeedijk-Heist,273,51.3415688364,3.24397950198
8301,Knokke-Heist,Zeedijk-Heist,202,51.3410738477,3.23865872445
8301,Knokke-Heist,Duinendreef,42,51.3422120092,3.26144541022
8301,Knokke-Heist,Kinderpad,3,51.3417141791,3.26229068119
8301,Knokke-Heist,Pannenstraat,20,51.3389060703,3.24036836686
8301,Knokke-Heist,Eieburg,11,51.3374549964,3.23204865046
8301,Knokke-Heist,Heistlaan,89,51.3369279958,3.23417293674
8301,Knokke-Heist,Aaishove,3,51.311411202,3.25154807954
8301,Knokke-Heist,Vlamingstraat,8,51.3399513651,3.23934472308
8301,Knokke-Heist,Duinenstraat,5,51.3407339945,3.23934036588
8301,Knokke-Heist,Hulststraat,29,51.334309724,3.25867536985
8301,Knokke-Heist,Pannenstraat,73,51.3381581846,3.24299795699
8301,Knokke-Heist,Knokkestraat,200,51.3392589575,3.25043632115
8301,Knokke-Heist,Duinbergenlaan,95,51.3437231799,3.25957359541
8301,Knokke-Heist,De Benne,1,51.334194014,3.24424613873
8301,Knokke-Heist,Ruitingen,8,51.3317936536,3.24054281894
8301,Knokke-Heist,Sasstraat,53,51.3144726918,3.24198324748
8301,Knokke-Heist,Pannenstraat,123,51.3377797879,3.24514453343
8301,Knokke-Heist,Heldenplein,18,51.3406487074,3.2396066525
8301,Knokke-Heist,Van Cailliedreef,11,51.3424240881,3.26441845995
8301,Knokke-Heist,Kerkstraat,37,51.339257785,3.23727084993
8301,Knokke-Heist,Pannenstraat,331,51.3387713342,3.25402980672
8301,Knokke-Heist,Heistlaan,48,51.3375689358,3.23301081931
8301,Knokke-Heist,Weidestraat,29,51.3122552654,3.25417296217
8301,Knokke-Heist,Westkapellestraat,27,51.3365827241,3.24192304237
8301,Knokke-Heist,Moefe,8,51.3387254058,3.24242209837
8301,Knokke-Heist,Hendrik Consciencestraat,51,51.336127235,3.24631036503
8301,Knokke-Heist,Vuurkruisersstraat,11,51.3350447364,3.238468769
8301,Knokke-Heist,Eerste Geniestraat,7,51.341122716,3.24563989605
8301,Knokke-Heist,Heistlaan,54,51.3374215875,3.23306521746
8301,Knokke-Heist,Zeedijk-Heist,320,51.3441115977,3.25669391794
8301,Knokke-Heist,O.-L.-Vrouwstraat,1,51.3410967154,3.2408062226
8301,Knokke-Heist,Duinbergenlaan,59,51.3411424177,3.26149382629
8301,Knokke-Heist,Leeuwerikenlaan,5,51.3452687685,3.26582429128
8301,Knokke-Heist,IJzerstraat,22,51.3390040076,3.24533540837
8301,Knokke-Heist,Felix Timmermansstraat,13,51.3367841212,3.24400158442
8301,Knokke-Heist,Ramskapellestraat,25,51.3166748837,3.24755380782
8301,Knokke-Heist,Astridplein,8,51.340212795,3.26388596893
8301,Knokke-Heist,Marktstraat,6,51.3371303731,3.2388658531
8301,Knokke-Heist,Eeuwfeestlaan,25,51.3447534402,3.27525306027
8301,Knokke-Heist,Kerkstraat,19,51.3390957123,3.2380625348
8301,Knokke-Heist,Duinbergenlaan,77,51.3425612187,3.2615501961
8301,Knokke-Heist,Anemonenlaan,14,51.3406625527,3.257462647
8301,Knokke-Heist,Onderwijsstraat,88,51.3371993203,3.24338537474
8301,Knokke-Heist,Roompot,7,51.3328442747,3.24462112782
8301,Knokke-Heist,Pannenstraat,55,51.3384032637,3.24215952113
8301,Knokke-Heist,Knokkestraat,288,51.3390821781,3.25448002224
8301,Knokke-Heist,Pinksterbloemhof,9,51.3383873619,3.2571081201
8301,Knokke-Heist,Zeedijk-Heist,302,51.3435139587,3.25574887204
8301,Knokke-Heist,Sint-Antoniusstraat,35,51.3381047897,3.23444059287
8301,Knokke-Heist,Weibroekstraat,12,51.3348295039,3.25174787296
8301,Knokke-Heist,Pannenstraat,194,51.3370052619,3.24789588519
8301,Knokke-Heist,Graaf d'Ursellaan,25,51.3405379889,3.24308016742
8301,Knokke-Heist,Albatrosstraat,2,51.3414547958,3.24216399974
8301,Knokke-Heist,Pannenstraat,313,51.3386166596,3.25324850543
8301,Knokke-Heist,Sint-Jozefsstraat,23,51.3385125297,3.23560658667
8301,Knokke-Heist,Steendiep,16,51.3320527195,3.24539128028
8301,Knokke-Heist,Knokkestraat,353,51.3394283611,3.25706846937
8301,Knokke-Heist,de Vrièrestraat,3,51.3389616737,3.23787262358
8301,Knokke-Heist,Jozef Nellenslaan,78,51.3461264776,3.27224203233
8301,Knokke-Heist,Moefe,11,51.3388324092,3.24251092566
8301,Knokke-Heist,Knokkestraat,300,51.3388472637,3.2559510476
8301,Knokke-Heist,Albatrosstraat,18,51.3406216789,3.2421431246
8301,Knokke-Heist,Heistlaan,153,51.3320694164,3.23721961532
8301,Knokke-Heist,Molenstraat,3,51.3374252819,3.23840147599
8301,Knokke-Heist,Heistlaan,100,51.3362655435,3.23383864979
8301,Knokke-Heist,Middeldiep,6,51.3316268478,3.2461535903
8301,Knokke-Heist,Heistlaan,171,51.3308698766,3.2376766599
8301,Knokke-Heist,Heistlaan,396,51.3191866734,3.24354739146
8301,Knokke-Heist,Heistlaan,325,51.3215666394,3.24364465619
8301,Knokke-Heist,Onderwijsstraat,130,51.3360506797,3.24176372097
8301,Knokke-Heist,Pinksterbloemhof,21,51.337730831,3.25682286647
8301,Knokke-Heist,Jonckheerestraat,13,51.3142269712,3.25350869918
8301,Knokke-Heist,Elizabetlaan,192,51.345555524,3.2733243717
8301,Knokke-Heist,Vlamingstraat,64,51.3401200233,3.2368860694
8301,Knokke-Heist,De Kinkhoorn,20,51.340789626,3.24456250757
8301,Knokke-Heist,Westkapellestraat,197,51.3331421756,3.25353340641
8301,Knokke-Heist,De Bocht,12,51.3330880316,3.24285599762
8301,Knokke-Heist,Spelemanstraat,48,51.3173716223,3.25042760567
8301,Knokke-Heist,Sint-Jozefsstraat,58,51.337501939,3.23532882327
8301,Knokke-Heist,Bondgenotenlaan,5,51.3367156664,3.23982406513
8301,Knokke-Heist,Vuurkruisersstraat,8,51.3355323801,3.23830739575
8301,Knokke-Heist,Arcadelaan,33,51.3428149935,3.27098185477
8301,Knokke-Heist,Jozef Nellenslaan,96,51.3468070843,3.27401961747
8301,Knokke-Heist,Vlamingstraat,11,51.3397464992,3.23910801598
8301,Knokke-Heist,Blauwvoetlaan,3,51.3373914174,3.2323085181
8301,Knokke-Heist,Heistlaan,431,51.3094703491,3.25120253263
8301,Knokke-Heist,Sint-Antoniusstraat,17,51.3381900143,3.23524073903
8301,Knokke-Heist,Elizabetlaan,399,51.3406216629,3.23600658813
8301,Knokke-Heist,IJzerstraat,57,51.3379020522,3.24577244807
8301,Knokke-Heist,Vlamingstraat,46,51.3399653228,3.23756450064
8301,Knokke-Heist,Achtmeilaan,48,51.3404042441,3.26567107323
8301,Knokke-Heist,Arcadelaan,15,51.342188429,3.26994878437
8301,Knokke-Heist,Oud-strijdersstraat,4,51.3361664523,3.23885323754
8301,Knokke-Heist,Ommegang,6,51.3150581142,3.25102867397
8301,Knokke-Heist,Ruitingen,11,51.3318817591,3.24000574918
8301,Knokke-Heist,Kardinaal Mercierstraat,7,51.3400684549,3.23832176821
8301,Knokke-Heist,Achtmeilaan,54,51.3403289736,3.2664990802
8301,Knokke-Heist,Krommedijk,63,51.3377051389,3.25643155906
8301,Knokke-Heist,Duinenstraat,16,51.3409243932,3.23889801213
8301,Knokke-Heist,Knokkestraat,485,51.3400023085,3.2655990847
8301,Knokke-Heist,Pannenstraat,27,51.3390082813,3.24094553669
8301,Knokke-Heist,Izabellastraat,7,51.32780863,3.2387952871
8301,Knokke-Heist,Noordstraat,9,51.3393451889,3.2424402481
8301,Knokke-Heist,de Vrièrestraat,23,51.3383667671,3.23797476648
8301,Knokke-Heist,Irispad,8,51.3413218604,3.2581502899
8301,Knokke-Heist,Oud-strijdersstraat,13,51.335673073,3.23791293343
8301,Knokke-Heist,Knokkestraat,66,51.3396001332,3.24331324764
8301,Knokke-Heist,Dudzelestraat,66,51.3022453696,3.27964912748
8301,Knokke-Heist,Witte Bankstraat,24,51.3353043903,3.2446597133
8301,Knokke-Heist,Zeedijk-Heist,240,51.3414751555,3.24164826851
8301,Knokke-Heist,Knokkestraat,524,51.3397143475,3.26796471174
8301,Knokke-Heist,O.-L.-Vrouwstraat,12,51.3408979931,3.24128149394
8301,Knokke-Heist,Krommedijk,6,51.334490223,3.25237406472
8301,Knokke-Heist,Duinbergenlaan,109,51.3440632679,3.25856854332
8301,Knokke-Heist,Pastuurdijk,11,51.3398633861,3.25891673884
8301,Knokke-Heist,Peter Benoitlaan,59,51.3373192261,3.24953090853
8301,Knokke-Heist,Eerste Geniestraat,10,51.340766921,3.24572411783
8301,Knokke-Heist,Polderstraat,13,51.3390523947,3.2481604377
8301,Knokke-Heist,Acacialaan,2,51.3413885551,3.27094446528
8301,Knokke-Heist,Pannenstraat,258,51.3374602734,3.25103807907
8301,Knokke-Heist,Frans Vantorrestraat,15,51.3355210682,3.24249448743
8301,Knokke-Heist,Gallischpad,4,51.3439985625,3.26238017256
8301,Knokke-Heist,Kursaalstraat,21,51.3394497288,3.23979260773
8301,Knokke-Heist,Landvast,7,51.3334273237,3.24352394023
8301,Knokke-Heist,Knokkestraat,345,51.3394318158,3.25672739835
8301,Knokke-Heist,Westkapellestraat,170,51.3344073363,3.2483029956
8301,Knokke-Heist,Noordstraat,11,51.3392931149,3.24239945903
8301,Knokke-Heist,Steenstraat,15,51.3392448878,3.24355949792
8301,Knokke-Heist,De Wandelaar,1,51.3452891203,3.26505505411
8301,Knokke-Heist,Heistlaan,438,51.3158070267,3.24593359824
8301,Knokke-Heist,Heistlaan,28,51.3383630777,3.23274416705
8301,Knokke-Heist,Westkapellestraat,47,51.3361485358,3.24337892776
8301,Knokke-Heist,Leenstraat,44,51.3350031611,3.24124034303
8301,Knokke-Heist,Zuidstraat,5,51.3387911285,3.24925971627
8301,Knokke-Heist,Hermans-Lybaertstraat,23,51.338383641,3.2364739488
8301,Knokke-Heist,Heldenplein,9,51.3412947529,3.24094910394
8301,Knokke-Heist,Bocheldreef,13,51.3432783073,3.26332806082
8301,Knokke-Heist,Felix Timmermansstraat,48,51.3360257673,3.24541979023
8301,Knokke-Heist,Sint-Michielsplein,2,51.3429137089,3.25746844399
8301,Knokke-Heist,Jozef Nellenslaan,35,51.3453379889,3.26686957011
8301,Knokke-Heist,IJzerstraat,1,51.3395176783,3.24572886536
8301,Knokke-Heist,Elizabetlaan,221,51.3456251367,3.27101415846
8301,Knokke-Heist,Zeegrasstraat,19,51.3419598274,3.25869996307
8301,Knokke-Heist,Sint-Antoniusstraat,25,51.3381949505,3.23488256011
8301,Knokke-Heist,Hermans-Lybaertstraat,58,51.3371160054,3.23623786957
8301,Knokke-Heist,Duinendreef,24,51.342297101,3.26017148971
8301,Knokke-Heist,Westkapellestraat,152,51.3345537384,3.24775776252
8301,Knokke-Heist,Duinbergenlaan,32,51.3399482363,3.2628427248
8301,Knokke-Heist,Louis Parentstraat,5,51.3413016196,3.24550942398
8301,Knokke-Heist,Graaf d'Ursellaan,35,51.3405071006,3.24416404031
8301,Knokke-Heist,Ramskapellestraat,81,51.3140415262,3.2517900507
8301,Knokke-Heist,Albrecht Rodenbachstraat,30,51.3353277955,3.24102727053
8301,Knokke-Heist,Stadhuisstraat,12,51.3378427831,3.23797314838
8301,Knokke-Heist,Heldenplein,11,51.3411994335,3.24089802499
8301,Knokke-Heist,Ramskapellestraat,35,51.3162294961,3.24841170456
8301,Knokke-Heist,Bondgenotenlaan,69,51.3347581951,3.23986853721
8301,Knokke-Heist,Elizabetlaan,313,51.3408120317,3.2579321121
8301,Knokke-Heist,Eeuwfeestlaan,35,51.343456837,3.27628246987
8301,Knokke-Heist,Steenstraat,68,51.3377300536,3.24220423429
8301,Knokke-Heist,Elizabetlaan,331,51.3405754817,3.2392987182
8301,Knokke-Heist,Meeuwendreef,6,51.3413369296,3.26106925984
8301,Knokke-Heist,Graaf d'Ursellaan,17,51.3406692898,3.24191277373
8301,Knokke-Heist,Ramskapellestraat,63,51.3149115391,3.25089908217
8301,Knokke-Heist,Onderwijsstraat,53,51.3382827014,3.24490521297
8301,Knokke-Heist,Emanuel Hielstraat,6,51.3379625813,3.24905620488
8301,Knokke-Heist,Jozef Nellenslaan,17,51.3439227609,3.26511803658
8301,Knokke-Heist,Felix Timmermansstraat,38,51.336106659,3.24487797646
8301,Knokke-Heist,Waterloostraat,1,51.3443631641,3.27613344951
8301,Knokke-Heist,Leenstraat,16,51.3359313241,3.24074443727
8301,Knokke-Heist,Elizabetlaan,292,51.3404907435,3.26128458595
8301,Knokke-Heist,Eeuwfeestlaan,17,51.3451994151,3.27494489573
8301,Knokke-Heist,Knokkestraat,84,51.3395003289,3.24418234417
8301,Knokke-Heist,Blauwvoetlaan,23,51.3367030138,3.23275627822
8301,Knokke-Heist,Kardinaal Mercierstraat,10,51.3406216402,3.23786945138
8301,Knokke-Heist,Kapellaan,30,51.3435342709,3.2733722446
8301,Knokke-Heist,Frans Vantorrestraat,33,51.3354231216,3.24334079145
8301,Knokke-Heist,Matrozenplein,6,51.3390085642,3.24918272891
8301,Knokke-Heist,Pastuurdijk,9,51.3400361295,3.25872203021
8301,Knokke-Heist,Dudzelestraat,84,51.3035202612,3.26953926864
8301,Knokke-Heist,IJzerstraat,9A,51.3391906446,3.24571781424
8301,Knokke-Heist,Steenstraat,33,51.3387535587,3.24315304106
8301,Knokke-Heist,Heistlaan,503,51.3037541685,3.26487873092
8301,Knokke-Heist,Jozef Nellenslaan,63,51.3455615622,3.26886698114
8301,Knokke-Heist,Pannenstraat,91,51.3380091622,3.2437290127
8301,Knokke-Heist,Logenhoek,22,51.338737164,3.25860017642
8301,Knokke-Heist,Zeedijk-Heist,478,51.3474911782,3.27391668033
8301,Knokke-Heist,Zeedijk-Heist,68,51.3395700456,3.22822153715
8301,Knokke-Heist,Zeedijk-Heist,193,51.3409433806,3.23782489098
8301,Knokke-Heist,Duinbergenlaan,42,51.3401623816,3.26290365258
8301,Knokke-Heist,Graaf d'Ursellaan,6,51.3406715299,3.24138227716
8301,Knokke-Heist,Steenstraat,86,51.3371512563,3.24193022754
8301,Knokke-Heist,Kerkstraat,10,51.3394513676,3.23891684404
8301,Knokke-Heist,Westdiep,21,51.3323006223,3.23972926886
8301,Knokke-Heist,Badersstraat,3,51.3389478801,3.24340666321
8301,Knokke-Heist,Weststraat,1,51.3376686897,3.23501894435
8301,Knokke-Heist,Polderstraat,66,51.3378302475,3.24613510614
8301,Knokke-Heist,De Alikruik,1,51.3322999978,3.24585539136
8301,Knokke-Heist,Pinksterbloemhof,2,51.3378983553,3.25680049438
8301,Knokke-Heist,Albatrosstraat,9,51.341475768,3.24259290502
8301,Knokke-Heist,Kapellaan,12,51.3451593902,3.27329594948
8301,Knokke-Heist,Pannenstraat,168,51.3373313813,3.24695451407
8301,Knokke-Heist,Pannenstraat,205,51.3372082688,3.24911783732
8301,Knokke-Heist,Bergdreef,33,51.344490302,3.26531886351
8301,Knokke-Heist,De Kinkhoorn,7,51.3413284785,3.24467248533
8301,Knokke-Heist,Sneppenpad,6,51.34374696,3.27699099371
8301,Knokke-Heist,Zeedijk-Heist,319,51.3441115977,3.25669391794
8301,Knokke-Heist,IJzerstraat,29,51.3386446262,3.24579083614
8301,Knokke-Heist,Albrecht Rodenbachstraat,12,51.3353095076,3.24021032957
8301,Knokke-Heist,Hendrik Consciencestraat,68,51.3357090817,3.24585607665
8301,Knokke-Heist,Peter Benoitlaan,24,51.3378380514,3.24929082478
8301,Knokke-Heist,Theresialaan,5,51.3430289924,3.27147440489
8301,Knokke-Heist,Breed Veertien,25,51.3313121949,3.24501068554
8301,Knokke-Heist,Marktstraat,15,51.3367492129,3.23846683341
8301,Knokke-Heist,Zeedijk-Heist,104,51.3398930664,3.23048145793
8301,Knokke-Heist,Elizabetlaan,256,51.3408647219,3.26374648988
8301,Knokke-Heist,Knokkestraat,120,51.339500786,3.24606193897
8301,Knokke-Heist,Emanuel Hielstraat,17,51.337580668,3.24889734623
8301,Knokke-Heist,Roompot,10,51.3325306315,3.24463831766
8301,Knokke-Heist,Spelemanstraat,28,51.3164268622,3.24996919217
8301,Knokke-Heist,Elizabetlaan,203,51.3465409433,3.27447973762
8301,Knokke-Heist,Zuidstraat,16,51.3386122827,3.24869212607
8301,Knokke-Heist,Matrozenplein,17,51.3392454429,3.24902289637
8301,Knokke-Heist,Moefe,18,51.3391928172,3.24280860364
8301,Knokke-Heist,Pannenstraat,223,51.3375482912,3.25002911252
8301,Knokke-Heist,Steenstraat,43,51.3385277949,3.24295830382
8301,Knokke-Heist,Knokkestraat,449,51.3399569928,3.2641586937
8301,Knokke-Heist,Vossenhul,3,51.3431270547,3.25944126699
8301,Knokke-Heist,Pannenstraat,294,51.3388689213,3.25499273074
8301,Knokke-Heist,Kwinte,4,51.3313872528,3.23884256453
8301,Knokke-Heist,Vlamingstraat,18,51.339967513,3.23905816056
8301,Knokke-Heist,Meeuwendreef,17,51.3423597119,3.25967656723
8301,Knokke-Heist,Heistlaan,351,51.3188746046,3.24525683246
8301,Knokke-Heist,Guido Gezellestraat,35,51.3385590583,3.24121517542
8301,Knokke-Heist,Achtmeilaan,28,51.3413116774,3.26580642795
8301,Knokke-Heist,Heestersstraat,32,51.3343781882,3.25671455779
8301,Knokke-Heist,Sint-Antoniusstraat,53,51.3380559105,3.23362535543
8301,Knokke-Heist,Westkapellestraat,20,51.3365642587,3.24074645921
8301,Knokke-Heist,Knokkestraat,414,51.3393159172,3.2621737688
8301,Knokke-Heist,Emanuel Hielstraat,35,51.3379220344,3.24822741
8301,Knokke-Heist,Marktstraat,33,51.3365006733,3.23771315372
8301,Knokke-Heist,IJzerstraat,40,51.3385896489,3.24528197982
8301,Knokke-Heist,Guido Gezellestraat,17,51.3386659945,3.24037992893
8301,Knokke-Heist,Sint-Jozefsstraat,61,51.3369937216,3.23586729749
8301,Knokke-Heist,Westkapellestraat,73,51.3359128942,3.24443621763
8301,Knokke-Heist,Zeedijk-Heist,435,51.3455211235,3.26635038306
8301,Knokke-Heist,Eieburg,8,51.3381060927,3.23252943489
8301,Knokke-Heist,Albatrosstraat,11,51.3414014433,3.2425565275
8301,Knokke-Heist,Polderstraat,31,51.3387300334,3.24770207441
8301,Knokke-Heist,Beiaardlaan,14,51.3424975525,3.27363217086
8301,Knokke-Heist,O.-L.-Vrouwstraat,30,51.3409930123,3.24209567079
8301,Knokke-Heist,Pannenstraat,7,51.3391639769,3.24007680831
8301,Knokke-Heist,Pannenstraat,341,51.3388857164,3.25435958412
8301,Knokke-Heist,Ramskapellestraat,6,51.3164108342,3.24722637512
8301,Knokke-Heist,Patriottenstraat,36,51.3438068123,3.25702313394
8301,Knokke-Heist,Zeedijk-Heist,175,51.3407819491,3.23680825513
8301,Knokke-Heist,Eeuwfeestlaan,6,51.3454288014,3.27423232256
8301,Knokke-Heist,Aaishove,23,51.3115149765,3.24996071284
8301,Knokke-Heist,Evendijk,8,51.335644277,3.23360008841
8301,Knokke-Heist,Noordhinder,11,51.3343112859,3.24478300192
8301,Knokke-Heist,Vredestraat,26,51.3371316643,3.23605150317
8301,Knokke-Heist,Schoneveld,3,51.3322821234,3.23842896144
8301,Knokke-Heist,Kapellaan,40,51.3427045724,3.27560131747
8301,Knokke-Heist,Pannenstraat,10,51.3389610422,3.24000509479
8301,Knokke-Heist,Knokkestraat,210,51.3392135564,3.25083609188
8301,Knokke-Heist,Sint-Antoniusstraat,6,51.338436257,3.23587465732
8301,Knokke-Heist,Weststraat,12,51.3379119102,3.23490380779
8301,Knokke-Heist,Laurierstraat,5,51.3338135464,3.25522492544
8301,Knokke-Heist,Zonnebloemstraat,38,51.3369670308,3.25936581852
8301,Knokke-Heist,Duinendreef,5,51.34297105,3.25837946015
8301,Knokke-Heist,Mimosastraat,12,51.3438452966,3.2581183322
8301,Knokke-Heist,Pinksterbloemhof,13,51.3381454148,3.25730376323
8301,Knokke-Heist,Heistlaan,386,51.3206820271,3.24164775038
8301,Knokke-Heist,Witte Bankstraat,5,51.3349299599,3.24259948514
8301,Knokke-Heist,Pannenstraat,115,51.3378410486,3.24480781695
8301,Knokke-Heist,Heestersstraat,42,51.3349512291,3.25925731393
8301,Knokke-Heist,Hendrik Consciencestraat,25,51.3368637231,3.2463220195
8301,Knokke-Heist,Aaishove,51,51.3128252041,3.25111168104
8301,Knokke-Heist,Visserskapelstraat,8,51.3408965065,3.24339670734
8301,Knokke-Heist,Visserskapelstraat,11,51.3413069153,3.24353589862
8301,Knokke-Heist,Heidebloemstraat,3,51.3344781912,3.25955113961
8301,Knokke-Heist,Acacialaan,66,51.3420047491,3.27585098015
8301,Knokke-Heist,Zeedijk-Heist,247,51.3414547958,3.24216399974
8301,Knokke-Heist,Heistlaan,646,51.3016886265,3.26073332377
8301,Knokke-Heist,Jonckheerestraat,9,51.3141665918,3.25314854369
8301,Knokke-Heist,Bondgenotenlaan,62,51.3349582934,3.2391136068
8301,Knokke-Heist,Duinbergenlaan,85,51.3431452632,3.26038910286
8301,Knokke-Heist,Westkapellestraat,169,51.3345857527,3.25001537789
8301,Knokke-Heist,Steendiep,7,51.3322882332,3.24473686832
8301,Knokke-Heist,Dwarsstraat,9,51.339625472,3.24055873109
8301,Knokke-Heist,Zeedijk-Heist,283,51.3415525226,3.24474299526
8301,Knokke-Heist,Polderstraat,41,51.3384534296,3.24755805165
8301,Knokke-Heist,Zeedijk-Heist,312,51.3438350005,3.25620421146
8301,Knokke-Heist,Elizabetlaan,238,51.3428828219,3.26746721834
8301,Knokke-Heist,Noordhinder,8,51.3343195012,3.24734108966
8301,Knokke-Heist,Ramskapellestraat,88,51.3097277055,3.25179370946
8301,Knokke-Heist,Kruindreef,9,51.3443524658,3.26500579527
8301,Knokke-Heist,Bondgenotenlaan,16,51.3365009506,3.23914762464
8301,Knokke-Heist,De Kreeft,7,51.3333387852,3.24773866956
8301,Knokke-Heist,Oostenhem,10,51.3325748606,3.24860970446
8301,Knokke-Heist,Paul Van der Meerschenlaan,13,51.3454868268,3.27073566844
8301,Knokke-Heist,Bondgenotenlaan,44,51.3356053116,3.23918802035
8301,Knokke-Heist,Vlamingstraat,89,51.3393726891,3.23445948489
8301,Knokke-Heist,Noordstraat,28,51.3389179626,3.24176101128
8301,Knokke-Heist,IJzerstraat,30,51.3388489373,3.24531532909
8301,Knokke-Heist,Phillippartpad,2,51.3450763376,3.26503412253
8301,Knokke-Heist,Zeedijk-Heist,265,51.3416678205,3.24339355303
8301,Knokke-Heist,Beiaardlaan,4,51.3423488957,3.27192201428
8301,Knokke-Heist,Westkapellestraat,370,51.3257455036,3.26701658768
8301,Knokke-Heist,Oudjespad,8,51.3418117655,3.26082329949
8301,Knokke-Heist,Onderwijsstraat,140,51.3357512144,3.24173093598
8301,Knokke-Heist,Badersstraat,23,51.3387815455,3.24418923866
8301,Knokke-Heist,Onderwijsstraat,104,51.3368900584,3.2425098598
8301,Knokke-Heist,Felix Timmermansstraat,21,51.3366433593,3.24450467253
8301,Knokke-Heist,Heistlaan,99,51.3366443265,3.2342694005
8301,Knokke-Heist,Pannenstraat,133,51.337743423,3.24572777018
8301,Knokke-Heist,Zomerpad,3,51.3417593573,3.26413858373
8301,Knokke-Heist,Serweytens de Mercxstraat,6,51.3414886936,3.24282767865
8301,Knokke-Heist,Poststraat,2,51.342879124,3.26198970913
8301,Knokke-Heist,Hulststraat,3,51.3330365244,3.25461085184
8301,Knokke-Heist,Pannenstraat,186,51.3371124912,3.24764761882
8301,Knokke-Heist,Heistlaan,64,51.3371505933,3.23314286727
8301,Knokke-Heist,Duinbergenlaan,49,51.3401184194,3.26210301903
8301,Knokke-Heist,Breed Veertien,6,51.3318847981,3.24285970826
8301,Knokke-Heist,Lentelaan,1,51.3459518023,3.26843418869
8301,Knokke-Heist,Spelemanstraat,8,51.3159100146,3.25014312723
8301,Knokke-Heist,Leenstraat,34,51.335337272,3.24114471212
8301,Knokke-Heist,Acacialaan,13,51.3421896337,3.27227438276
8301,Knokke-Heist,Heistlaan,46,51.3376254756,3.23299193129
8301,Knokke-Heist,Knokkestraat,298,51.3390097283,3.25581096914
8301,Knokke-Heist,Arcadelaan,23,51.3425549808,3.27057794419
8301,Knokke-Heist,Marktstraat,43,51.3363596196,3.23731562971
8301,Knokke-Heist,Hendrik Consciencestraat,61,51.3358518335,3.2463980868
8301,Knokke-Heist,Knokkestraat,310,51.3390914163,3.25623984037
8301,Knokke-Heist,Heistlaan,161,51.3315225637,3.23744986754
8301,Knokke-Heist,Pannenstraat,151,51.3376843875,3.24687941624
8301,Knokke-Heist,Albrecht Rodenbachstraat,29,51.3355520963,3.24105828457
8301,Knokke-Heist,Pannenstraat,323,51.3385908696,3.25379432262
8301,Knokke-Heist,Zeedijk-Heist,212,51.3412751259,3.23940588017
8301,Knokke-Heist,Achtmeilaan,8,51.3406036227,3.26742242094
8301,Knokke-Heist,Acacialaan,31,51.342487904,3.27529510726
8301,Knokke-Heist,Achtmeilaan,11,51.3411355926,3.26672610725
8301,Knokke-Heist,Azalealaan,3,51.345702289,3.27517291648
8301,Knokke-Heist,Vandaelelaan,16,51.343774003,3.26591153666
8301,Knokke-Heist,Jozef Nellenslaan,88,51.3463759675,3.27314228673
8301,Knokke-Heist,IJzerstraat,12,51.3392216253,3.24536330612
8301,Knokke-Heist,Weibroekstraat,22,51.3355023177,3.25140310478
8301,Knokke-Heist,Pannenstraat,98,51.337541476,3.24321852362
8301,Knokke-Heist,De Wulk,3,51.3330057209,3.24591197619
8301,Knokke-Heist,De Kinkhoorn,10,51.3413479067,3.24511965466
8301,Knokke-Heist,Pannenstraat,305,51.3385727192,3.25290613662
8301,Knokke-Heist,Heistlaan,315,51.3222433439,3.2434182734
8301,Knokke-Heist,Onderwijsstraat,78,51.3374102058,3.24364160255
8301,Knokke-Heist,Onderwijsstraat,25,51.3389779827,3.24499835149
8301,Knokke-Heist,Spelemanstraat,46,51.3172168538,3.25044911064
8301,Knokke-Heist,Vlamingstraat,54,51.3400711152,3.23736574216
8301,Knokke-Heist,Knokkestraat,442,51.3394963354,3.26367895545
8301,Knokke-Heist,Felix Timmermansstraat,2,51.3365709272,3.24329351626
8301,Knokke-Heist,Westkapellestraat,19,51.3366433372,3.24159481261
8301,Knokke-Heist,Knokkestraat,363,51.3395170222,3.25785840455
8301,Knokke-Heist,Peter Benoitlaan,5,51.3390035299,3.25030698391
8301,Knokke-Heist,Zeedijk-Heist,330,51.3442628852,3.25748085744
8301,Knokke-Heist,Vredestraat,7,51.3372672858,3.23460996858
8301,Knokke-Heist,Jozef Dhoorelaan,6,51.3398486857,3.23219009347
8301,Knokke-Heist,Vissersstraat,9,51.3396344768,3.24160042991
8301,Knokke-Heist,Westdiep,2,51.3324997123,3.23822723509
8301,Knokke-Heist,Onderwijsstraat,96,51.3371173773,3.24290617765
8301,Knokke-Heist,Westkapellestraat,187,51.3335344107,3.25304128808
8301,Knokke-Heist,Sint-Jozefsstraat,68,51.336831667,3.23541747585
8301,Knokke-Heist,Kerkstraat,27,51.3391371775,3.23787668209
8301,Knokke-Heist,Fonteinestraat,163,51.3061983727,3.2634592472
8301,Knokke-Heist,De Garre,1,51.3389040696,3.24153818584
8301,Knokke-Heist,Elizabetlaan,184,51.3460683861,3.27481968737
8301,Knokke-Heist,Bakkersstraat,9,51.3391177074,3.2412323506
8301,Knokke-Heist,Arcadelaan,58,51.3427396798,3.27256769998
8301,Knokke-Heist,Hendrik Consciencestraat,43,51.3364515247,3.24842698753
8301,Knokke-Heist,Zeedijk-Heist,471,51.3472097596,3.27294567075
8301,Knokke-Heist,Knokkestraat,355,51.3395047224,3.25714041122
8301,Knokke-Heist,Leeuwerikenlaan,20,51.3443414873,3.26668677522
8301,Knokke-Heist,Knokkestraat,94,51.3396211564,3.24459174159
8301,Knokke-Heist,Stadhuisstraat,24,51.3379773911,3.23654539953
8301,Knokke-Heist,Invalidenlaan,2,51.3346423007,3.24008301013
8301,Knokke-Heist,Bergdreef,21,51.3449512889,3.26260080208
8301,Knokke-Heist,Elizabetlaan,325,51.3405618403,3.2395936911
8301,Knokke-Heist,Onderwijsstraat,145,51.3359014472,3.24213111566
8301,Knokke-Heist,Ramskapellestraat,3,51.3173600087,3.24711442938
8301,Knokke-Heist,Zeedijk-Heist,92,51.3397848998,3.22972935566
8301,Knokke-Heist,Poststraat,24,51.3428244292,3.26249592751
8301,Knokke-Heist,Evendijk,16,51.3355320848,3.23286680164
8301,Knokke-Heist,Fonteinestraat,230,51.3140093297,3.26180289181
8301,Knokke-Heist,Leenstraat,28,51.3356363992,3.2410568157
8301,Knokke-Heist,Guido Gezellestraat,46,51.3383603757,3.24142994595
8301,Knokke-Heist,Sasstraat,10,51.316276825,3.24489321075
8301,Knokke-Heist,Leenstraat,4,51.3363817115,3.24051223571
8301,Knokke-Heist,de Vrièrestraat,13,51.3386260345,3.23785480487
8301,Knokke-Heist,Zonnebloemstraat,11,51.3359641668,3.25806332832
8301,Knokke-Heist,Jozef Dhoorelaan,20,51.339574334,3.23013678223
8301,Knokke-Heist,Theresialaan,4,51.3428804543,3.27205315149
8301,Knokke-Heist,Herfststraat,6,51.3369046438,3.23477652053
8301,Knokke-Heist,Knokkestraat,76,51.3396145781,3.24387891995
8301,Knokke-Heist,Westkapellestraat,151,51.334724202,3.24886491573
8301,Knokke-Heist,de Vrièrestraat,31,51.3381488574,3.23782220044
8301,Knokke-Heist,Pannenstraat,26,51.33886285,3.24061582569
8301,Knokke-Heist,Zeetrapper,12,51.3318101239,3.23794954322
8301,Knokke-Heist,Zeerobbenlaan,5,51.3470432578,3.27304002044
8301,Knokke-Heist,Noordstraat,8,51.3395005814,3.24197365318
8301,Knokke-Heist,Pannenstraat,277,51.3381425942,3.25148307443
8301,Knokke-Heist,Knokkestraat,112,51.339531953,3.2454422098
8301,Knokke-Heist,August Beernaertstraat,42,51.3408656294,3.2438089216
8301,Knokke-Heist,Patriottenstraat,54,51.3438314,3.25636662689
8301,Knokke-Heist,Lommergang,2,51.341543668,3.26374773239
8301,Knokke-Heist,Bondgenotenlaan,11,51.3365872489,3.23988443914
8301,Knokke-Heist,Zeedijk-Heist,473,51.3473121235,3.27324526276
8301,Knokke-Heist,Vossenhul,6,51.3434108816,3.25931164204
8301,Knokke-Heist,Knokkestraat,466,51.3395531509,3.26449994049
8301,Knokke-Heist,Kursaalstraat,68,51.3374197861,3.23922104012
8301,Knokke-Heist,Polderstraat,23,51.3388663396,3.24789583284
8301,Knokke-Heist,Frans Vantorrestraat,12,51.3353633197,3.24204110925
8301,Knokke-Heist,Knokkestraat,6,51.3398827834,3.24008176143
8301,Knokke-Heist,Stationsplein,14,51.3347869064,3.23871137541
8301,Knokke-Heist,Kwade Helling,6,51.3427472292,3.26064845918
8301,Knokke-Heist,Ruitingen,2,51.3315680397,3.2406383998
8301,Knokke-Heist,IJzerstraat,52,51.3383139703,3.24524543889
8301,Knokke-Heist,Pinksterbloemhof,7,51.3382229093,3.25675815315
8301,Knokke-Heist,Hulststraat,23,51.3339682317,3.25848319391
8301,Knokke-Heist,Noordhinder,1,51.3342024761,3.24644905712
8301,Knokke-Heist,Knokkestraat,503,51.3402220177,3.26796203067
8301,Knokke-Heist,Marktstraat,30,51.3362726951,3.23594067379
8301,Knokke-Heist,Blauwvoetlaan,22,51.3364522243,3.23208118121
8301,Knokke-Heist,Sneppenpad,3,51.3437631088,3.27626508847
8301,Knokke-Heist,Onderwijsstraat,28,51.3389646462,3.2445395768
8301,Knokke-Heist,Heistlaan,71,51.3375630543,3.23366407047
8301,Knokke-Heist,Onderwijsstraat,4,51.3394804569,3.24467479106
8301,Knokke-Heist,Polderstraat,58,51.3380141264,3.24625480594
8301,Knokke-Heist,de Maerestraat,2,51.3401404759,3.23256615556
8301,Knokke-Heist,Bocheldreef,14,51.3437641116,3.26327475283
8301,Knokke-Heist,Heistlaan,195,51.3296369589,3.23800836924
8301,Knokke-Heist,Knokkestraat,484,51.3396294534,3.26519388592
8301,Knokke-Heist,Ramskapellestraat,27,51.3165958191,3.24778608219
8301,Knokke-Heist,Ramskapellestraat,91,51.3134291407,3.25235724818
8301,Knokke-Heist,Noordhinder,16,51.3346502099,3.24618225691
8301,Knokke-Heist,Vredestraat,10,51.3371028959,3.23513849366
8301,Knokke-Heist,Eeuwfeestlaan,27,51.3445834431,3.27551454661
8301,Knokke-Heist,Elizabetlaan,200,51.3454003135,3.2724127247
8301,Knokke-Heist,Zeedijk-Heist,455,51.3465018755,3.27024278416
8301,Knokke-Heist,Frans Vantorrestraat,40,51.3352096194,3.24321622968
8301,Knokke-Heist,Westkapellestraat,87,51.3357556951,3.2451116081
8301,Knokke-Heist,Graaf d'Ursellaan,3,51.3406745532,3.24115185758
8301,Knokke-Heist,Hendrik Consciencestraat,56,51.3360586011,3.24591595059
8301,Knokke-Heist,Heistlaan,53,51.337950294,3.23334406944
8301,Knokke-Heist,Trapegeer,7,51.3321799981,3.24187553165
8301,Knokke-Heist,Jozef Nellenslaan,3,51.3431570917,3.26378634536
8301,Knokke-Heist,O.-L.-Vrouwstraat,15,51.3411889273,3.24160841439
8301,Knokke-Heist,Graaf d'Ursellaan,27,51.3405718736,3.2432597493
8301,Knokke-Heist,Duinbergenlaan,22,51.3395342049,3.2631994376
8301,Knokke-Heist,Knokkestraat,413,51.339731986,3.26179489878
8301,Knokke-Heist,Meeuwendreef,3,51.3409757159,3.2609593124
8301,Knokke-Heist,Jozef Nellenslaan,91,51.3463363795,3.27076599975
8301,Knokke-Heist,Bondgenotenlaan,64,51.3348951571,3.23918559796
8301,Knokke-Heist,Zeedijk-Heist,281,51.3415563607,3.24467372563
8301,Knokke-Heist,Lentelaan,8,51.3448214823,3.26764365943
8301,Knokke-Heist,Margrietenpad,10,51.3422339157,3.267399908
8301,Knokke-Heist,Pannenstraat,206,51.3367987173,3.2482977971
8301,Knokke-Heist,Felix Timmermansstraat,43,51.3363960159,3.24545691774
8301,Knokke-Heist,Hermans-Lybaertstraat,66,51.3369687558,3.23618979076
8301,Knokke-Heist,Kursaalstraat,33,51.339049329,3.23965723042
8301,Knokke-Heist,Heistlaan,159,51.3316595908,3.23737809183
8301,Knokke-Heist,Matrozenplein,3,51.3389839943,3.24944623498
8301,Knokke-Heist,Astridplein,2,51.3402810224,3.26403087886
8301,Knokke-Heist,Knokkestraat,431,51.3398909429,3.26341771554
8301,Knokke-Heist,Heistlaan,177,51.3306099334,3.23777294355
8301,Knokke-Heist,de Vrièrestraat,41,51.3378154039,3.23775080034
8301,Knokke-Heist,Sint-Antoniusstraat,20,51.3384132633,3.23480419333
8301,Knokke-Heist,Bondgenotenlaan,46,51.3355433657,3.23918679741
8301,Knokke-Heist,Louis Parentstraat,19,51.3408334988,3.24533171057
8301,Knokke-Heist,Beiaardlaan,13,51.3428209684,3.27382635327
8301,Knokke-Heist,Pannenstraat,90,51.3378547425,3.24312383647
8301,Knokke-Heist,Louis Parentstraat,37,51.340390383,3.24531700629
8301,Knokke-Heist,Moefe,17,51.3391530459,3.24277598388
8301,Knokke-Heist,Achtmeilaan,1,51.3401071168,3.26709791548
8301,Knokke-Heist,Onderwijsstraat,135,51.3361270291,3.2421740152
8301,Knokke-Heist,Pannenstraat,224,51.3369503009,3.24962430673
8301,Knokke-Heist,Witte Bankstraat,21,51.3352535396,3.244397043
8301,Knokke-Heist,Hendrik Consciencestraat,28,51.3368872728,3.24583754879
8301,Knokke-Heist,Garnaalstraat,7,51.3396896744,3.24092012375
8301,Knokke-Heist,Hendrik Consciencestraat,4,51.3375002358,3.24595191477
8301,Knokke-Heist,Marktstraat,12,51.3371148066,3.23857175459
8301,Knokke-Heist,Arcadelaan,6,51.3414644477,3.26734980526
8301,Knokke-Heist,Engelsestraat,10,51.3446453738,3.26086462056
8301,Knokke-Heist,Elizabetlaan,288,51.3404459728,3.26136099775
8301,Knokke-Heist,Oostenhem,6,51.3325304307,3.24809333941
8301,Knokke-Heist,Landvast,2,51.3337258144,3.24281947384
8301,Knokke-Heist,Noordstraat,25,51.3389928477,3.24213075214
8301,Knokke-Heist,Pannenstraat,169,51.3374633186,3.24769384326
8301,Knokke-Heist,Steenstraat,21,51.3391076021,3.24344327119
8301,Knokke-Heist,Walstraat,3,51.3353777353,3.25063104529
8301,Knokke-Heist,Knokkestraat,58,51.3396140612,3.24274444929
8301,Knokke-Heist,Weibroekstraat,7,51.3347503074,3.25118452977
8301,Knokke-Heist,Kapellaan,15,51.3444940977,3.27435492395
8301,Knokke-Heist,Wilderozenpad,9,51.343455008,3.27452360711
8301,Knokke-Heist,Van Hoenackerpad,10,51.3411532663,3.25979731853
8301,Knokke-Heist,Nicolas Mengélaan,20,51.3401363058,3.23753752492
8301,Knokke-Heist,Zeedijk-Heist,307,51.3435989736,3.25589998126
8301,Knokke-Heist,Steenstraat,74,51.3375716802,3.24212985628
8301,Knokke-Heist,Kerkstraat,47,51.3392536338,3.23685461762
8301,Knokke-Heist,Zuidstraat,4,51.3385083992,3.24911410935
8301,Knokke-Heist,Kapellaan,33,51.3432944998,3.27412780789
8301,Knokke-Heist,Frans Vantorrestraat,30,51.3351848151,3.2427906317
8301,Knokke-Heist,Klaprozenpad,10,51.3440986576,3.26411189645
8301,Knokke-Heist,Emanuel Hielstraat,27,51.3377990787,3.24849528811
8301,Knokke-Heist,Vuurkruisersstraat,2,51.3355823127,3.2389345795
8301,Knokke-Heist,Van Cailliedreef,9,51.3423423129,3.26464314759
8301,Knokke-Heist,Anemonenlaan,5,51.3428982718,3.25695298613
8301,Knokke-Heist,Albrecht Rodenbachstraat,15,51.3356888695,3.24039256222
8301,Knokke-Heist,Izabellastraat,17,51.3277312341,3.23929532199
8301,Knokke-Heist,Zeedijk-Heist,145,51.3402812019,3.23315314829
8301,Knokke-Heist,Aaishove,22,51.3122842224,3.25023281826
8301,Knokke-Heist,Peter Benoitlaan,12,51.3382045572,3.2492649301
8301,Knokke-Heist,Aaishove,57,51.3123143709,3.25137078651
8301,Knokke-Heist,De Bocht,7,51.3321035302,3.2435921063
8301,Knokke-Heist,Onderwijsstraat,117,51.3365915969,3.24284786289
8301,Knokke-Heist,Arcadelaan,50,51.3421766726,3.27079540978
8301,Knokke-Heist,De Kreeft,10,51.3339431334,3.2466854806
8301,Knokke-Heist,Patriottenstraat,17,51.343492207,3.25677460016
8301,Knokke-Heist,Pannenstraat,295,51.3383787753,3.2524229949
8301,Knokke-Heist,August Beernaertstraat,7,51.3414402322,3.24430481364
8301,Knokke-Heist,Krommedijk,3,51.3345979979,3.25333866177
8301,Knokke-Heist,Laurierstraat,30,51.3336556645,3.25605437839
8301,Knokke-Heist,Begoniapad,6,51.3427905735,3.27816721885
8301,Knokke-Heist,Duinendreef,30,51.3421427642,3.2607779589
8301,Knokke-Heist,Knokkestraat,130,51.3394146177,3.24642667765
8301,Knokke-Heist,Steendiep,10,51.3319830292,3.24486678081
8301,Knokke-Heist,Guido Gezellestraat,36,51.3383189709,3.24102696641
8301,Knokke-Heist,Kerkstraat,72,51.3399134261,3.23567781254
8301,Knokke-Heist,Sint-Jozefsstraat,56,51.3375760263,3.23530247877
8301,Knokke-Heist,Elizabetlaan,198,51.3453522311,3.2727735476
8301,Knokke-Heist,Zonnebloemstraat,3,51.335231874,3.25833623689
8301,Knokke-Heist,Marktstraat,40,51.3361634339,3.23555960328
8301,Knokke-Heist,de Vrièrestraat,5,51.3389515324,3.23810062476
8301,Knokke-Heist,Graaf d'Ursellaan,10,51.3406691187,3.24160148748
8301,Knokke-Heist,Heistlaan,124,51.3349476083,3.23428378531
8301,Knokke-Heist,Visserskapelstraat,9,51.3413117984,3.24345368717
8301,Knokke-Heist,Heistlaan,96,51.3363866772,3.23379709272
8301,Knokke-Heist,Jozef Nellenslaan,10,51.3433331171,3.26503428157
8301,Knokke-Heist,Guido Gezellestraat,48,51.3383473006,3.24149182883
8301,Knokke-Heist,Irispad,1,51.3409021829,3.25819044547
8301,Knokke-Heist,Heistlaan,367,51.3174879867,3.24638981122
8301,Knokke-Heist,Duinendreef,29,51.3426232543,3.26211018339
8301,Knokke-Heist,Eeuwfeestlaan,10,51.3451420271,3.27436566281
8301,Knokke-Heist,Vissersstraat,16,51.3393647294,3.24093029583
8301,Knokke-Heist,Heistlaan,106,51.3360922906,3.23391017849
8301,Knokke-Heist,Knokkestraat,220,51.3389870892,3.25149063942
8301,Knokke-Heist,Heistlaan,459,51.3059095982,3.25440156997
8301,Knokke-Heist,Zeedijk-Heist,200,51.3410738477,3.23865872445
8301,Knokke-Heist,Theresialaan,11,51.3433193536,3.27197219223
8301,Knokke-Heist,Serweytens de Mercxstraat,19,51.3409798414,3.2430658902
8301,Knokke-Heist,Westkapellestraat,62,51.3359193992,3.24294247896
8301,Knokke-Heist,Sint-Antoniusstraat,55,51.3380497425,3.23354442269
8301,Knokke-Heist,Leeuwerikenlaan,19,51.3444836409,3.26734909554
8301,Knokke-Heist,Vredestraat,27,51.3373538648,3.23598481669
8301,Knokke-Heist,Engelsestraat,45,51.3451965504,3.26183454228
8301,Knokke-Heist,Nicolas Mengélaan,3,51.3401031186,3.23929956356
8301,Knokke-Heist,Herfststraat,22,51.3363698737,3.23502891794
8301,Knokke-Heist,IJzerstraat,59,51.3378567217,3.24562730619
8301,Knokke-Heist,Duinbergenlaan,93,51.3436199728,3.25984129272
8301,Knokke-Heist,Bondgenotenlaan,28,51.3361896419,3.23914556655
8301,Knokke-Heist,Knokkestraat,202,51.3392363071,3.25051278401
8301,Knokke-Heist,Schuttersstraat,8,51.3376026265,3.2340983671
8301,Knokke-Heist,Zeedijk-Heist,388,51.3450385764,3.26034787619
8301,Knokke-Heist,Zeegrasstraat,9,51.3440445637,3.25719514074
8301,Knokke-Heist,Scheurleg,4,51.3325844025,3.23724842024
8301,Knokke-Heist,Parkstraat,23,51.3408586991,3.2460755321
8301,Knokke-Heist,Hof van Koudekerke,2A,51.3383895841,3.23453697863
8301,Knokke-Heist,Heistlaan,78,51.3368309238,3.23345059654
8301,Knokke-Heist,Heldenplein,16,51.3407191222,3.23963823999
8301,Knokke-Heist,Duinbergenlaan,57,51.3411623093,3.26152550118
8301,Knokke-Heist,Frans Vantorrestraat,29,51.3354265246,3.24315946649
8301,Knokke-Heist,Vissershuldeplein,1,51.3406059581,3.23542586641
8301,Knokke-Heist,Westkapellestraat,80,51.3356937063,3.24365511942
8301,Knokke-Heist,Kwinte,12,51.3314495574,3.23929663127
8301,Knokke-Heist,Duinbergenlaan,39,51.3398923134,3.26230171096
8301,Knokke-Heist,Pannenstraat,134,51.3372201096,3.24520841817
8301,Knokke-Heist,Blauwvoetlaan,39,51.3360938898,3.23324141059
8301,Knokke-Heist,Eerste Geniestraat,1,51.3411334823,3.24545736674
8301,Knokke-Heist,Onderwijsstraat,11,51.339307407,3.24504349602
8301,Knokke-Heist,Azalealaan,6,51.3458889642,3.27481931284
8301,Knokke-Heist,Badersstraat,31,51.338607142,3.24445292221
8301,Knokke-Heist,De Wulk,6,51.3328134182,3.24643132723
8301,Knokke-Heist,Stadhuisstraat,7,51.3375505832,3.23873108481
8301,Knokke-Heist,Polderstraat,51,51.3381914814,3.24729083277
8301,Knokke-Heist,Pannenstraat,187,51.337287542,3.24857418997
8301,Knokke-Heist,Elizabetlaan,217,51.3458017527,3.27186760062
8301,Knokke-Heist,Sint-Jozefsstraat,74,51.336679554,3.23535904245
8301,Knokke-Heist,Duinbergenlaan,75,51.3422602379,3.2615661129
8301,Knokke-Heist,Poststraat,7,51.3431815753,3.26295073514
8301,Knokke-Heist,Roompot,1,51.3327851685,3.24418934854
8301,Knokke-Heist,Westkapellestraat,231,51.3321500984,3.25442673622
8301,Knokke-Heist,Zeedijk-Heist,181,51.3408056566,3.23714494687
8301,Knokke-Heist,Badersstraat,13,51.3388988655,3.24383996445
8301,Knokke-Heist,Pinksterbloemhof,14,51.3380900374,3.25735115244
8301,Knokke-Heist,Petunialaan,24,51.3442426445,3.26226801414
8301,Knokke-Heist,Weststraat,8,51.3379075135,3.23506450218
8301,Knokke-Heist,Pannenstraat,252,51.3373851337,3.25078142677
8301,Knokke-Heist,Onderwijsstraat,110,51.3367346178,3.24237513869
8301,Knokke-Heist,Arcadelaan,22,51.341370384,3.26802341526
8301,Knokke-Heist,Beiaardlaan,5,51.3427198956,3.27284889777
8301,Knokke-Heist,August Beernaertstraat,14,51.3414247103,3.24385281308
8301,Knokke-Heist,Middeldiep,16,51.3320886834,3.24737719306
8301,Knokke-Heist,Knokkestraat,302,51.338840299,3.25593686296
8301,Knokke-Heist,Graaf d'Ursellaan,45,51.340391819,3.24534524446
8301,Knokke-Heist,Heistlaan,332,51.3238735409,3.24086748824
8301,Knokke-Heist,Laurierstraat,40,51.3341415012,3.2564837298
8301,Knokke-Heist,Hendrik Consciencestraat,11,51.3371445185,3.24660484364
8301,Knokke-Heist,Varenstraat,9,51.3342028916,3.25715440505
8301,Knokke-Heist,Sint-Jozefsstraat,4,51.3396129036,3.23521468867
8301,Knokke-Heist,Acacialaan,23,51.3423206917,3.2738897934
8301,Knokke-Heist,Duinendreef,40,51.3422130767,3.26134793329
8301,Knokke-Heist,Zeedijk-Heist,288,51.3415355355,3.24504680798
8301,Knokke-Heist,Koudekerkelaan,30,51.334677201,3.23735897306
8301,Knokke-Heist,Jozef Nellenslaan,45,51.3455595129,3.26772551755
8301,Knokke-Heist,Onderwijsstraat,99,51.3370399041,3.24380740841
8301,Knokke-Heist,Zomerpad,6,51.34205783,3.26485743016
8301,Knokke-Heist,Zomerpad,3A,51.3416037759,3.26402459058
8301,Knokke-Heist,Vuurtorenstraat,1,51.3407714466,3.23663083485
8301,Knokke-Heist,Manitobaplein,3,51.3455317025,3.26234041452
8301,Knokke-Heist,Westkapellestraat,115,51.3351760605,3.247321884
8301,Knokke-Heist,Emanuel Hielstraat,10,51.3380470668,3.2489407994
8301,Knokke-Heist,Pannenstraat,79,51.3380953347,3.24326138312
8301,Knokke-Heist,Dwarsstraat,24,51.339424572,3.24074816113
8301,Knokke-Heist,Knokkestraat,528,51.3397288559,3.26815265925
8301,Knokke-Heist,Marktstraat,29,51.3365954237,3.23785521732
8301,Knokke-Heist,Matrozenplein,10,51.3390266366,3.24892612402
8301,Knokke-Heist,Jonckheerestraat,24,51.3133776602,3.25391703021
8301,Knokke-Heist,Kapellaan,43,51.3430904297,3.27498299109
8301,Knokke-Heist,Pannenstraat,170,51.3373154568,3.24703856279
8301,Knokke-Heist,Aaishove,39,51.3130907262,3.24958563866
8301,Knokke-Heist,Zuidstraat,11,51.3388325847,3.24903297447
8301,Knokke-Heist,Stijn Streuvelsplein,2,51.3429244626,3.27345979757
8301,Knokke-Heist,Heistlaan,25,51.3390073474,3.23338544119
8301,Knokke-Heist,Meeuwendreef,10,51.3417083716,3.26059010056
8301,Knokke-Heist,Westkapellestraat,16,51.3365477618,3.24041076979
8301,Knokke-Heist,Louis Parentstraat,20,51.3406478728,3.24501815682
8301,Knokke-Heist,Sint-Antoniusstraat,19,51.3381869223,3.23514294021
8301,Knokke-Heist,Spelemanstraat,9,51.3158403191,3.24961607783
8301,Knokke-Heist,Eeuwfeestlaan,45,51.3424673126,3.27779359986
8301,Knokke-Heist,Onderwijsstraat,46,51.3382685003,3.24441216705
8301,Knokke-Heist,Jozef Nellenslaan,98,51.3467979017,3.27416423066
8301,Knokke-Heist,Vardenaarspolder,1,51.3401658081,3.26878254747
8301,Knokke-Heist,Pannenstraat,97,51.3381440049,3.24404262294
8301,Knokke-Heist,Steenstraat,38,51.3388211766,3.24275746446
8301,Knokke-Heist,Witte Bankstraat,4,51.3349124104,3.24250261672
8301,Knokke-Heist,Dudzelestraat,60,51.3020260364,3.28110759203
8301,Knokke-Heist,Kerkstraat,26,51.3393244072,3.23814897016
8301,Knokke-Heist,Polderstraat,6,51.3391632267,3.24757998492
8301,Knokke-Heist,Oud-strijdersstraat,18,51.3358096063,3.23724275691
8301,Knokke-Heist,Bakkersstraat,8,51.3390210639,3.2414107826
8301,Knokke-Heist,Zeegrasstraat,25,51.341332218,3.25914176234
8301,Knokke-Heist,de Gemblinnestraat,1,51.3395998238,3.2288880086
8301,Knokke-Heist,Engelsestraat,27,51.3450759295,3.26115190808
8301,Knokke-Heist,Heistlaan,349,51.3190532394,3.24514536337
8301,Knokke-Heist,Felix Timmermansstraat,15,51.3367426338,3.24406285957
8301,Knokke-Heist,Peter Benoitlaan,29,51.3383599045,3.2499813289
8301,Knokke-Heist,Acacialaan,58,51.3419712404,3.27526792387
8301,Knokke-Heist,Hermans-Lybaertstraat,5,51.3390383178,3.23659722625
8301,Knokke-Heist,IJzerstraat,24,51.3389572036,3.24532893216
8301,Knokke-Heist,Knokkestraat,441,51.3398932014,3.26368904858
8301,Knokke-Heist,Schoneveld,6,51.3319863684,3.23882342733
8301,Knokke-Heist,Eieburg,1,51.3375820031,3.23246057515
8301,Knokke-Heist,Walstraat,10,51.335069127,3.25083907358
8301,Knokke-Heist,Knokkestraat,391,51.3396440456,3.25980946241
8301,Knokke-Heist,Westkapellestraat,133,51.3349727173,3.24803380946
8301,Knokke-Heist,Sint-Antoniusstraat,37,51.3380834666,3.23435400198
8301,Knokke-Heist,Sint-Antoniusstraat,3,51.3382401548,3.23584097067
8301,Knokke-Heist,Zeedijk-Heist,300,51.343496891,3.25565426593
8301,Knokke-Heist,Leenstraat,46,51.3349603788,3.24130710272
8301,Knokke-Heist,Nicolas Mengélaan,19,51.3401207779,3.23766247462
8301,Knokke-Heist,Weibroekstraat,14,51.3349813655,3.25189504652
8301,Knokke-Heist,Knokkestraat,122,51.3395085021,3.24590847961
8301,Knokke-Heist,Patriottenstraat,64,51.3436537674,3.25582877321
8301,Knokke-Heist,Ooststraat,4,51.3403139457,3.26410099423
8301,Knokke-Heist,Poststraat,14,51.3428246336,3.26234436132
8301,Knokke-Heist,Eieburg,16,51.3379154153,3.23213326806
8301,Knokke-Heist,Duinendreef,22,51.3424672815,3.2596831887
8301,Knokke-Heist,Elizabetlaan,210,51.3449120328,3.27090582451
8301,Knokke-Heist,Krommedijk,73A,51.3383372335,3.25644974427
8301,Knokke-Heist,Evendijk,26,51.3354267321,3.23243499253
8301,Knokke-Heist,Kapellaan,8,51.345346185,3.27355938122
8301,Knokke-Heist,Heistlaan,442,51.3155089511,3.24644641366
8301,Knokke-Heist,Arcadelaan,40,51.3413685971,3.26893552278
8301,Knokke-Heist,Leeuwerikenlaan,10,51.3449247962,3.26568288643
8301,Knokke-Heist,Kwinte,6,51.3314056773,3.23895547387
8301,Knokke-Heist,Visserskapelstraat,2,51.3409744275,3.2431584473
8301,Knokke-Heist,Knokkestraat,365,51.3395173173,3.25819709032
8301,Knokke-Heist,Stadhuisstraat,14,51.337815284,3.23787020294
8301,Knokke-Heist,Sasstraat,20,51.3161154072,3.24391022553
8301,Knokke-Heist,Albrecht Rodenbachstraat,8,51.3353018383,3.24008452131
8301,Knokke-Heist,Patriottenstraat,46,51.3438207103,3.25662623616
8301,Knokke-Heist,Knokkestraat,104,51.3395379776,3.24511025922
8301,Knokke-Heist,Ramskapellestraat,37,51.3161365905,3.24856828391
8301,Knokke-Heist,Elizabetlaan,315,51.3408112748,3.25775531611
8301,Knokke-Heist,Onderwijsstraat,36,51.3387487968,3.24452757015
8301,Knokke-Heist,Zeegrasstraat,17,51.3421115461,3.25861195271
8301,Knokke-Heist,Eeuwfeestlaan,37,51.3432044548,3.27656841234
8301,Knokke-Heist,Vlamingstraat,62,51.3401059546,3.23704140926
8301,Knokke-Heist,Westkapellestraat,79,51.3357699229,3.24466841516
8301,Knokke-Heist,Onderwijsstraat,155,51.3355861763,3.24215668598
8301,Knokke-Heist,Emanuel Hielstraat,45,51.3381944282,3.24789737905
8301,Knokke-Heist,Eeuwfeestlaan,19,51.3451247998,3.27525610207
8301,Knokke-Heist,Elizabetlaan,333,51.3405724652,3.23919904662
8301,Knokke-Heist,Vlamingstraat,44,51.3399677923,3.23785175941
8301,Knokke-Heist,Zeedijk-Heist,120,51.3400469777,3.23154244054
8301,Knokke-Heist,Leenstraat,18,51.3359025753,3.24087844864
8301,Knokke-Heist,Pannenstraat,16,51.3388910246,3.24027975396
8301,Knokke-Heist,Heistlaan,204,51.3295444063,3.23706965147
8301,Knokke-Heist,Jozef Nellenslaan,19,51.3440475843,3.2651724869
8301,Knokke-Heist,Zeetrapper,22,51.3308749586,3.23837933976
8301,Knokke-Heist,IJzerstraat,42,51.3385487054,3.24527737139
8301,Knokke-Heist,Kursaalstraat,58,51.3378300716,3.23925226832
8301,Knokke-Heist,Jozef Dhoorelaan,10,51.339746709,3.23149179871
8301,Knokke-Heist,Laurierstraat,22,51.3333579316,3.25472154076
8301,Knokke-Heist,Knokkestraat,86,51.3394961777,3.24427544172
8301,Knokke-Heist,Steenstraat,31,51.3387972188,3.24319762181
8301,Knokke-Heist,Pannenstraat,287,51.3383099254,3.25202253058
8301,Knokke-Heist,Heistlaan,35,51.3385390088,3.23338423921
8301,Knokke-Heist,Vredestraat,20,51.3371391179,3.23575899755
8301,Knokke-Heist,Westkapellestraat,97,51.3356011406,3.24560152529
8301,Knokke-Heist,Hendrik Consciencestraat,66,51.3357578502,3.24582318581
8301,Knokke-Heist,Pannenstraat,180,51.337179845,3.24744121167
8301,Knokke-Heist,Zeedijk-Heist,209,51.341067545,3.23916722269
8301,Knokke-Heist,Logenhoek,20,51.3389079301,3.25842474911
8301,Knokke-Heist,Knokkestraat,474,51.3395998051,3.26474151548
8301,Knokke-Heist,Duinbergenlaan,40,51.340073855,3.26273167214
8301,Knokke-Heist,Heistlaan,185,51.3301841364,3.23794399453
8301,Knokke-Heist,Zeedijk-Heist,445,51.3458974336,3.26790282237
8301,Knokke-Heist,Heistlaan,81,51.3373147944,3.23373154749
8301,Knokke-Heist,Oudjespad,2,51.3418560329,3.26151128992
8301,Knokke-Heist,Westdiep,23,51.3322294314,3.23980503775
8301,Knokke-Heist,De Alikruik,7,51.3326011738,3.24546141122
8301,Knokke-Heist,Leenstraat,36,51.3352395687,3.24112655885
8301,Knokke-Heist,Duinenstraat,18,51.3409348143,3.23879356441
8301,Knokke-Heist,De Benne,8,51.3335536887,3.24395768651
8301,Knokke-Heist,Frans Vantorrestraat,22,51.3351772781,3.24243234866
8301,Knokke-Heist,Badersstraat,5,51.3389960019,3.24356149776
8301,Knokke-Heist,Blauwvoetlaan,12,51.3366852336,3.23151065034
8301,Knokke-Heist,Heistlaan,167,51.33118397,3.2375464871
8301,Knokke-Heist,Polderstraat,15,51.3390151284,3.24810737438
8301,Knokke-Heist,Phillippartpad,8,51.3445284119,3.26557946984
8301,Knokke-Heist,Polderstraat,68,51.3377920934,3.24610230199
8301,Knokke-Heist,Blauwvoetlaan,40,51.3357714743,3.23259590824
8301,Knokke-Heist,Steenstraat,13,51.3392931066,3.24359191415
8301,Knokke-Heist,Vlamingstraat,1,51.3397755885,3.23945361208
8301,Knokke-Heist,Knokkestraat,347,51.3394523944,3.25682263024
8301,Knokke-Heist,Onderwijsstraat,18,51.339161556,3.2445734246
8301,Knokke-Heist,Pannenstraat,269,51.3380367354,3.25116200207
8301,Knokke-Heist,Poststraat,32,51.3428292924,3.26280539313
8301,Knokke-Heist,Visserskapelstraat,17,51.3411872697,3.24378205743
8301,Knokke-Heist,Pannenstraat,44,51.3386786519,3.24118156604
8301,Knokke-Heist,De Kinkhoorn,1,51.3413017465,3.2443179196
8301,Knokke-Heist,Witte Bankstraat,13,51.3350525237,3.24318171452
8301,Knokke-Heist,Jozef Nellenslaan,37,51.3453781607,3.26702348948
8301,Knokke-Heist,O.-L.-Vrouwstraat,8,51.3409091806,3.24120070888
8301,Knokke-Heist,Schoneveld,15,51.3323746793,3.23913327022
8301,Knokke-Heist,De Kinkhoorn,16,51.3407648003,3.24486435194
8301,Knokke-Heist,Heistlaan,149,51.3324226619,3.23692518942
8301,Knokke-Heist,Pannenstraat,234,51.3371614977,3.25005792814
8301,Knokke-Heist,Vlamingstraat,16,51.3399653428,3.23906625013
8301,Knokke-Heist,Varenstraat,2,51.3338593843,3.25782183263
8301,Knokke-Heist,Duinbergenlaan,30,51.340025746,3.26312504303
8301,Knokke-Heist,Onderwijsstraat,82,51.3373470309,3.24352028746
8301,Knokke-Heist,Hendrik Consciencestraat,18,51.3371556203,3.24581184348
8301,Knokke-Heist,Duinendreef,57,51.3428465108,3.26308069355
8301,Knokke-Heist,Albrecht Rodenbachstraat,23,51.335645613,3.24074016951
8301,Knokke-Heist,Zeedijk-Heist,155,51.3403998523,3.23401681033
8301,Knokke-Heist,Zuidstraat,18,51.3384405077,3.24874017499
8301,Knokke-Heist,Steenstraat,41,51.3385829719,3.24300404067
8301,Knokke-Heist,Bondgenotenlaan,54,51.3351952164,3.23915793759
8301,Knokke-Heist,Arcadelaan,29,51.3425628295,3.27106659807
8301,Knokke-Heist,Kapellaan,23,51.3440444038,3.27398701934
8301,Knokke-Heist,Emanuel Hielstraat,19,51.3376570773,3.24889766006
8301,Knokke-Heist,Hermans-Lybaertstraat,56,51.3373574224,3.23620673678
8301,Knokke-Heist,Steenstraat,66,51.3377918063,3.24224191728
