PKANCODE,COMMUNE_NL,STREET_NL,HUISNR,LAT,LON
8370,Blankenberge,Vrijheidsstraat,1,51.3119841647,3.1224488979
8370,Blankenberge,Bakkersstraat,31,51.314906598,3.12754719864
8370,Blankenberge,de Smet de Naeyerlaan,18,51.3127314125,3.1261616568
8370,Blankenberge,Kuiperscheeweg,2,51.2907707917,3.15209426436
8370,Blankenberge,L. Dujardinstraat,21,51.3120939394,3.12512916871
8370,Blankenberge,Vissersstraat,8,51.3148740798,3.12608223269
8370,Blankenberge,Consciencestraat,10,51.3134347821,3.12387857857
8370,Blankenberge,Koninginlaan,47,51.3151324875,3.13505498461
8370,Blankenberge,Zeedijk,13,51.3130901437,3.11629354138
8370,Blankenberge,Groenestraat,26,51.3146323381,3.13882796654
8370,Blankenberge,Kerkstraat,244,51.3081473863,3.13817086922
8370,Blankenberge,Blankenbergse Dijk,71,51.3029353155,3.13946358666
8370,Blankenberge,Parkstraat,16,51.3138249191,3.12383587266
8370,Blankenberge,Vlaamsestraat,15,51.3116409873,3.12766108053
8370,Blankenberge,Mgr. Waffelaertlaan,5,51.3130129735,3.13748243164
8370,Blankenberge,J. de Troozlaan,14,51.3146703401,3.1324053957
8370,Blankenberge,Vuurkruisenstraat,8,51.3129185572,3.13655403188
8370,Blankenberge,J. De Meyerstraat,53,51.310916758,3.12427837604
8370,Blankenberge,Rood-Kruisstraat,52,51.3072605229,3.12666003709
8370,Blankenberge,Jean Jaurèslaan,3,51.3117895335,3.15152994232
8370,Blankenberge,Van Mullemstraat,3,51.3129500691,3.12608797558
8370,Blankenberge,Uitkerkestraat,4,51.3070698633,3.13821655681
8370,Blankenberge,Vredelaan,106,51.3094171646,3.12287560061
8370,Blankenberge,Rerum Novarumstraat,26,51.3073465384,3.13669216535
8370,Blankenberge,De Wandelaar,16,51.3137612354,3.14584415527
8370,Blankenberge,Kerkstraat,126,51.3108951603,3.13467931796
8370,Blankenberge,M. Pyckstraat,21,51.3085005891,3.13113600666
8370,Blankenberge,Ontmijnersstraat,39,51.3109827455,3.13168117995
8370,Blankenberge,Vlaamsestraat,33,51.311469235,3.12821385369
8370,Blankenberge,Scharebrugstraat,69,51.3063733475,3.13396190148
8370,Blankenberge,Oudstrijdersstraat,68,51.3079904593,3.12228487594
8370,Blankenberge,Serg. De Bruynestraat,47,51.3120038469,3.12415952887
8370,Blankenberge,Graaf Jansdijk,18,51.3169363702,3.13322555467
8370,Blankenberge,Badersstraat,6,51.3145597775,3.12336352176
8370,Blankenberge,Zeedijk,31,51.3134337507,3.11753105879
8370,Blankenberge,Bakkersstraat,13,51.3154009059,3.12696225359
8370,Blankenberge,Willem Tellstraat,70,51.3070363066,3.13581807003
8370,Blankenberge,Zwarte Leeuwstraat,25,51.304334642,3.14137643416
8370,Blankenberge,Scharebrugstraat,105,51.3078490633,3.13171481417
8370,Blankenberge,Kerkstraat,20,51.3155254441,3.12909567169
8370,Blankenberge,Blankenbergse Dijk,53,51.3034523872,3.13887502066
8370,Blankenberge,Kerkstraat,369,51.3050618103,3.14098812656
8370,Blankenberge,Groenestraat,2,51.3145681902,3.13786143719
8370,Blankenberge,Kerkstraat,108,51.3133622645,3.13169469073
8370,Blankenberge,Vredelaan,88,51.3092736598,3.12395024989
8370,Blankenberge,Kerkstraat,262,51.307647129,3.13849100775
8370,Blankenberge,Scharstraat,8,51.304580188,3.13601991567
8370,Blankenberge,Ambachtstraat,5,51.296641659,3.15272736354
8370,Blankenberge,Rogierlaan,34,51.3158216968,3.13268207681
8370,Blankenberge,B. Vandammestraat,19,51.3049537611,3.13937545156
8370,Blankenberge,Stationsstraat,16,51.3139180051,3.13380898546
8370,Blankenberge,Weststraat,80,51.3135014452,3.1285228867
8370,Blankenberge,Zeebruggelaan,64,51.3082564294,3.14584000849
8370,Blankenberge,J. Soetestraat,56,51.3065960766,3.11889182159
8370,Blankenberge,Hugo Verriestlaan,82,51.3089993909,3.14489914393
8370,Blankenberge,Spoorwegstraat,2,51.3033654103,3.14601104661
8370,Blankenberge,K. Deswertlaan,4,51.311728434,3.13114113826
8370,Blankenberge,de Limburg Stirumstraat,33,51.3113312898,3.12518095159
8370,Blankenberge,Kerkstraat,280,51.307293197,3.13900848988
8370,Blankenberge,B. Vandammestraat,37,51.3047301871,3.13884600374
8370,Blankenberge,A. Pauwelslaan,47,51.3152738373,3.13999183925
8370,Blankenberge,Stationsstraat,62,51.3146404303,3.13656898976
8370,Blankenberge,J. Vande Puttelaan,6,51.3127422497,3.13601536623
8370,Blankenberge,Houthulststraat,24,51.3091020936,3.12179902686
8370,Blankenberge,Van Mullemstraat,27,51.3126847657,3.12771544401
8370,Blankenberge,Koning Albert-I-laan,55,51.3137963616,3.14213578951
8370,Blankenberge,Nieuwstraat,16,51.3147209758,3.12674112974
8370,Blankenberge,Mametstraat,59,51.3112818511,3.12612403927
8370,Blankenberge,Ontmijnersstraat,121,51.3086046478,3.13248471027
8370,Blankenberge,Scharebrugstraat,123,51.3078939661,3.1308152367
8370,Blankenberge,Zeedijk,119,51.3155060003,3.12565095517
8370,Blankenberge,Wulpenlaan,4,51.3067998773,3.1501321353
8370,Blankenberge,Descampsstraat,46,51.3157435487,3.13323956848
8370,Blankenberge,Ontmijnersstraat,50,51.3081102614,3.13285782337
8370,Blankenberge,K. Deswertlaan,28,51.3112075655,3.13077690132
8370,Blankenberge,Jordaenslaan,45,51.3113478303,3.1474953209
8370,Blankenberge,Oudstrijdersstraat,15,51.3090403162,3.12311358535
8370,Blankenberge,J. de Troozlaan,32,51.314966933,3.13267608343
8370,Blankenberge,Kleine Weststraat,3,51.3151034481,3.12532418371
8370,Blankenberge,Prinsenlaan,57,51.3148480923,3.1368120776
8370,Blankenberge,Koninginlaan,88,51.3167621287,3.13721385869
8370,Blankenberge,de Smet de Naeyerlaan,36,51.3126288216,3.12692287925
8370,Blankenberge,Jean Jaurèslaan,27,51.3123065566,3.14902513287
8370,Blankenberge,Casinostraat,9,51.3159365808,3.13011580696
8370,Blankenberge,Park De Craene,4,51.3046758281,3.1437088958
8370,Blankenberge,Leopoldstraat,20,51.3142476921,3.12313476391
8370,Blankenberge,Mametstraat,24,51.3117120055,3.12468583809
8370,Blankenberge,Park De Craene,28,51.3050808711,3.14415973692
8370,Blankenberge,Schaapstraat,80,51.3005275123,3.15185599808
8370,Blankenberge,de Smet de Naeyerlaan,82,51.3120942044,3.12934265922
8370,Blankenberge,Descampsstraat,11,51.3147723917,3.13214908107
8370,Blankenberge,de Limburg Stirumstraat,15,51.311961987,3.12541296146
8370,Blankenberge,Breughellaan,5,51.3105303143,3.14530438921
8370,Blankenberge,Lissewegestraat,35,51.304769146,3.1498823981
8370,Blankenberge,Nieuwpoortstraat,9,51.309280731,3.12236493002
8370,Blankenberge,Jordaenslaan,10,51.3113729823,3.14431322897
8370,Blankenberge,Zeebruggelaan,11,51.3055448355,3.14194586422
8370,Blankenberge,Koning Albert-I-laan,20,51.3134744264,3.13458125678
8370,Blankenberge,Koning Boudewijnlaan,24,51.3121350823,3.14021165729
8370,Blankenberge,Vissersstraat,43,51.3152764509,3.12760188711
8370,Blankenberge,K. Deswertlaan,99,51.3079109355,3.12814817064
8370,Blankenberge,Van Dijcklaan,22,51.3096066296,3.14566671361
8370,Blankenberge,Reningepad,7,51.304788029,3.12187683705
8370,Blankenberge,Koning Albert-I-laan,108,51.314016387,3.14037917832
8370,Blankenberge,J. de Troozlaan,49,51.3156474862,3.13415729116
8370,Blankenberge,K. Deswertlaan,110,51.3082470587,3.12908579616
8370,Blankenberge,Ontmijnersstraat,85,51.3099434486,3.1320216072
8370,Blankenberge,Polderlaan,39,51.312783914,3.15275498157
8370,Blankenberge,Koninginlaan,17,51.3141992531,3.13374601379
8370,Blankenberge,Koninginlaan,35,51.3148049027,3.13448358843
8370,Blankenberge,Merkempad,16,51.305830271,3.12187847108
8370,Blankenberge,Haringstraat,9,51.3039443792,3.13593406741
8370,Blankenberge,Willem Tellstraat,24,51.3088496558,3.13428332842
8370,Blankenberge,de Smet de Naeyerlaan,64,51.3123094687,3.12853197729
8370,Blankenberge,Zeedijk,202,51.3181469046,3.13701282794
8370,Blankenberge,Brugse Steenweg,55,51.3007442516,3.1455439917
8370,Blankenberge,Pierstraat,8,51.3140606239,3.13675947471
8370,Blankenberge,Gruttolaan,24,51.3038186351,3.14935100162
8370,Blankenberge,Malecotstraat,5,51.3161134283,3.13153020896
8370,Blankenberge,Pluvierlaan,7,51.3074430168,3.14863379226
8370,Blankenberge,Kerkstraat,197,51.3102565133,3.1347006919
8370,Blankenberge,IJzerstraat,22,51.311765553,3.12257795848
8370,Blankenberge,Colombus,55,51.3082398604,3.14433093888
8370,Blankenberge,Zeebruggelaan,135,51.3103277479,3.15264687355
8370,Blankenberge,Zuidlaan,53,51.3093794963,3.13288695262
8370,Blankenberge,de Smet de Naeyerlaan,89,51.3123635182,3.12624247578
8370,Blankenberge,Egelantierenhof,2,51.3071997568,3.14630360706
8370,Blankenberge,Ontmijnersstraat,67,51.3104293508,3.13172299161
8370,Blankenberge,Rubenslaan,19,51.3098565652,3.14621018609
8370,Blankenberge,Franchommelaan,102,51.3138472624,3.11990103276
8370,Blankenberge,Sneppenlaan,4,51.3090240527,3.14983082042
8370,Blankenberge,Dr Fr. Verhaeghestraat,44,51.3084718841,3.12658756355
8370,Blankenberge,Scarphoutdreef,2,51.3113315259,3.13299061558
8370,Blankenberge,Akkerstraat,29,51.3077682109,3.12773849366
8370,Blankenberge,Colombus,73,51.3086897777,3.14551524909
8370,Blankenberge,Boezingepad,8,51.306011252,3.11994283141
8370,Blankenberge,de Smet de Naeyerlaan,46,51.3125486944,3.12729737311
8370,Blankenberge,Graaf Jansdijk,64,51.3180354026,3.13762386843
8370,Blankenberge,Rogierlaan,16,51.3164733044,3.1331107509
8370,Blankenberge,Langestraat,67,51.3156695003,3.13042471983
8370,Blankenberge,Diksmuidestraat,18,51.3082489726,3.12109544374
8370,Blankenberge,Hanneusestraat,47,51.313674527,3.1358509721
8370,Blankenberge,Brugse Steenweg,144,51.2909477207,3.15882890882
8370,Blankenberge,Zeebruggelaan,117,51.3099996716,3.14953492068
8370,Blankenberge,A. Ruzettelaan,179,51.3192122544,3.14474898783
8370,Blankenberge,Brugse Steenweg,73,51.2992879012,3.14754945582
8370,Blankenberge,Weststraat,9,51.3149741431,3.12457513915
8370,Blankenberge,Grote Markt,31,51.3128730286,3.12583055661
8370,Blankenberge,Memlinglaan,9,51.3109539184,3.14642247618
8370,Blankenberge,Schelvisstraat,5,51.3050197716,3.13503566308
8370,Blankenberge,Zeebruggelaan,82,51.3101393078,3.14836764403
8370,Blankenberge,Prinsenlaan,75,51.3138959546,3.13720203719
8370,Blankenberge,Evendijk-West,17,51.3053981374,3.13708446685
8370,Blankenberge,Rerum Novarumstraat,2,51.3080798368,3.13596125159
8370,Blankenberge,Van Maerlantstraat,30,51.3106568258,3.12529276903
8370,Blankenberge,Van Monsstraat,37,51.3163896256,3.13385372904
8370,Blankenberge,K. Deswertlaan,56,51.3103406299,3.13030297529
8370,Blankenberge,Koninginlaan,106,51.3170662508,3.13782981336
8370,Blankenberge,Van Maerlantstraat,65,51.3120035884,3.12759834429
8370,Blankenberge,de Smet de Naeyerlaan,171,51.3119174726,3.13148494135
8370,Blankenberge,J. Soetestraat,21,51.3071140513,3.12026577581
8370,Blankenberge,Blankenbergse Dijk,160,51.2878821603,3.14011802227
8370,Blankenberge,A. Rodenbachstraat,51,51.3079003875,3.12332823357
8370,Blankenberge,Serg. De Bruynestraat,35,51.3118489123,3.1236498948
8370,Blankenberge,Lissewegestraat,10,51.3065028125,3.14666925662
8370,Blankenberge,J. Soetestraat,74,51.3064777463,3.11805386124
8370,Blankenberge,Blankenbergse Dijk,142,51.2999476369,3.14130334823
8370,Blankenberge,Duindistellaan,19,51.3035147155,3.13699991132
8370,Blankenberge,A. Ruzettelaan,19,51.3172123138,3.13691992867
8370,Blankenberge,Weststraat,62,51.3141370832,3.12719233327
8370,Blankenberge,Zwarte Leeuwstraat,1,51.3049790088,3.14086568565
8370,Blankenberge,Polderlaan,50,51.3151344795,3.15051039915
8370,Blankenberge,Guido Gezellestraat,28,51.3107449902,3.1241687976
8370,Blankenberge,Mingerslaan,3,51.3159439633,3.13454677113
8370,Blankenberge,Kemmelbergstraat,65,51.3060363404,3.12229186763
8370,Blankenberge,Vrijheidsstraat,25,51.3122236484,3.12332202352
8370,Blankenberge,Stationsstraat,34,51.3141516491,3.13488919806
8370,Blankenberge,Grote Markt,13,51.3136248975,3.12534230146
8370,Blankenberge,Van Monsstraat,19,51.3158844738,3.13361653091
8370,Blankenberge,Eric Jameslaan,4,51.3093800022,3.12094092934
8370,Blankenberge,Forthoekstraat,18,51.3075185851,3.1336857103
8370,Blankenberge,L. Nuytemanslaan,54,51.3163496703,3.13974009728
8370,Blankenberge,Hugo Verriestlaan,11,51.3117130001,3.1421525252
8370,Blankenberge,Albertstraat,19,51.3158193993,3.13110926706
8370,Blankenberge,A. Ruzettelaan,37,51.3173583812,3.13773257655
8370,Blankenberge,Langestraat,85,51.315941743,3.13095424959
8370,Blankenberge,Meiboomstraat,2,51.3004317572,3.14850602968
8370,Blankenberge,de Smet de Naeyerlaan,100,51.3119007982,3.13021543205
8370,Blankenberge,Herdersstraat,1,51.3028360665,3.14611041487
8370,Blankenberge,Evendijk-West,35,51.3058492676,3.13768591453
8370,Blankenberge,Vanderstichelenstraat,22,51.3144593479,3.12385806667
8370,Blankenberge,Koninginlaan,124,51.3172952583,3.1385101615
8370,Blankenberge,P. Devauxstraat,17,51.3128703335,3.13113143774
8370,Blankenberge,Zuidlaan,47,51.3094393402,3.13322083513
8370,Blankenberge,Hugo Verriestlaan,46,51.3111620076,3.14367850622
8370,Blankenberge,Onze Lieve Vrouwstraat,5,51.3164459661,3.13409322467
8370,Blankenberge,Astridlaan,30,51.3164594977,3.14050994342
8370,Blankenberge,Serg. De Bruynestraat,17,51.3114624297,3.12285127689
8370,Blankenberge,de Smet de Naeyerlaan,153,51.3116206211,3.13022589748
8370,Blankenberge,Kemmelbergstraat,30,51.3078627392,3.12091977692
8370,Blankenberge,Van Maerlantstraat,83,51.3126632611,3.12836620838
8370,Blankenberge,Zuidlaan,71,51.3091596143,3.13151663453
8370,Blankenberge,Uitkerkestraat,21,51.3067596806,3.13672332616
8370,Blankenberge,Sprotstraat,14,51.3040823832,3.13715483419
8370,Blankenberge,Guido Gezellestraat,4,51.3108965684,3.12333184905
8370,Blankenberge,Luikstraat,25,51.3130130427,3.12769708296
8370,Blankenberge,Serg. De Bruynestraat,45,51.3120113454,3.12406035952
8370,Blankenberge,J. De Meyerstraat,47,51.3109496649,3.12411628125
8370,Blankenberge,Zuidlaan,25,51.3096145524,3.13417943115
8370,Blankenberge,Charles Huysstraat,12,51.3060195787,3.13886859498
8370,Blankenberge,Ontmijnersstraat,22,51.3087966151,3.13307524886
8370,Blankenberge,Dr Fr. Verhaeghestraat,16,51.3086484181,3.12533435881
8370,Blankenberge,Jean Jaurèslaan,20,51.3126032111,3.15061693892
8370,Blankenberge,Koninginlaan,81,51.3158782135,3.1362192151
8370,Blankenberge,Willem Tellstraat,77,51.306013275,3.13627152923
8370,Blankenberge,Badersstraat,13,51.3143374853,3.12327924434
8370,Blankenberge,Koning Albert-I-laan,27,51.3131182825,3.13676863344
8370,Blankenberge,Dr Fr. Verhaeghestraat,34,51.308557069,3.12613838657
8370,Blankenberge,Koninginlaan,63,51.3155647922,3.13587679313
8370,Blankenberge,Willem van Saeftingestraat,18,51.3051936731,3.14568180825
8370,Blankenberge,Schorreveld,7,51.3143318741,3.14736124425
8370,Blankenberge,Zeebruggelaan,171,51.3190091234,3.17324006127
8370,Blankenberge,Marie-Josélaan,42,51.3136409242,3.13518731449
8370,Blankenberge,IJzerstraat,85,51.310068147,3.12339502896
8370,Blankenberge,Groenestraat,9,51.3142216926,3.13807299159
8370,Blankenberge,Zeebruggelaan,36,51.306097699,3.14263417177
8370,Blankenberge,Evendijk-West,45,51.3060704308,3.13812121008
8370,Blankenberge,Brugse Steenweg,20,51.3032479009,3.14440713018
8370,Blankenberge,Jordaenslaan,35,51.3123222076,3.14687895959
8370,Blankenberge,Haelenstraat,10,51.3136813686,3.12523264075
8370,Blankenberge,Kerkstraat,370,51.3057880742,3.14073822464
8370,Blankenberge,de Smet de Naeyerlaan,11,51.312411262,3.12199726423
8370,Blankenberge,Descampsstraat,36,51.315432981,3.1328268043
8370,Blankenberge,Kuiperscheeweg,9,51.2939272465,3.14839097854
8370,Blankenberge,L. Nuytemanslaan,48,51.3162380127,3.13935760644
8370,Blankenberge,Scharebrugstraat,213,51.3055672945,3.12356775181
8370,Blankenberge,Blankenbergse Dijk,96,51.3032163804,3.13987663207
8370,Blankenberge,Brugse Steenweg,108,51.2969742166,3.15140956672
8370,Blankenberge,IJzerstraat,67,51.3104312392,3.12312255619
8370,Blankenberge,Mametstraat,52,51.3114573243,3.12623567874
8370,Blankenberge,M. Pyckstraat,28,51.3083015395,3.13078919768
8370,Blankenberge,Prinsenlaan,12,51.3167851687,3.13648123666
8370,Blankenberge,Scharstraat,15,51.3044094895,3.13437121114
8370,Blankenberge,Willem Tellstraat,59,51.3065687103,3.13570840444
8370,Blankenberge,de Limburg Stirumstraat,43,51.3110580397,3.12508053406
8370,Blankenberge,Macquynstraat,18,51.3074017493,3.14431841442
8370,Blankenberge,Boezingepad,1,51.3066406781,3.12162386081
8370,Blankenberge,Kerkstraat,287,51.3075601712,3.13792522268
8370,Blankenberge,Willem van Saeftingestraat,4,51.3053329947,3.14655195745
8370,Blankenberge,B. Vandammestraat,30,51.3046743125,3.13957758027
8370,Blankenberge,Koning Boudewijnlaan,7,51.3106938349,3.13898120463
8370,Blankenberge,K. Deswertlaan,21,51.3109702944,3.13006720893
8370,Blankenberge,Jordaenslaan,3,51.3110846709,3.14518999499
8370,Blankenberge,Consciencestraat,35,51.3139093664,3.12496979495
8370,Blankenberge,Kerkstraat,27,51.3151670644,3.12879709975
8370,Blankenberge,Franchommelaan,84,51.3136567807,3.11919325363
8370,Blankenberge,Mametstraat,7,51.311605687,3.12366945178
8370,Blankenberge,Weststraat,34,51.3147457931,3.12570410252
8370,Blankenberge,K. Deswertlaan,74,51.3099368825,3.12998971408
8370,Blankenberge,Kerkstraat,352,51.3060961056,3.14044886528
8370,Blankenberge,Zeedijk,155,51.3168120916,3.13148008205
8370,Blankenberge,J. De Meyerstraat,25,51.3110484789,3.12348498499
8370,Blankenberge,Kerkstraat,269,51.3079195655,3.13756190483
8370,Blankenberge,Scharebrugstraat,44,51.3071388499,3.13270878104
8370,Blankenberge,Groenestraat,54,51.314668976,3.14005513939
8370,Blankenberge,Kerkstraat,316,51.3063153839,3.14012211788
8370,Blankenberge,Zeebruggelaan,18,51.3058444714,3.14173962875
8370,Blankenberge,J. Ponjaertstraat,5,51.3122517714,3.13694704481
8370,Blankenberge,Descampsstraat,18,51.3151300219,3.13209224539
8370,Blankenberge,Pervijzepad,25,51.3052519229,3.12135989007
8370,Blankenberge,Willem van Saeftingestraat,36,51.3050222632,3.14756628422
8370,Blankenberge,IJzerstraat,5,51.3121758291,3.12180046675
8370,Blankenberge,Consciencestraat,17,51.3134348829,3.12426485325
8370,Blankenberge,Bikschotestraat,6,51.3069945529,3.12269733021
8370,Blankenberge,Zeedijk,41,51.3136934511,3.11842544697
8370,Blankenberge,P. Krugerstraat,10,51.311828144,3.1282793056
8370,Blankenberge,Consciencestraat,3,51.3131336277,3.12392019543
8370,Blankenberge,Zeedijk,120,51.3154970933,3.12562451245
8370,Blankenberge,Diksmuidestraat,11,51.3087733091,3.12233319164
8370,Blankenberge,K. Deswertlaan,92,51.3087677702,3.12934845185
8370,Blankenberge,Zeedijk,173,51.317459237,3.13423992445
8370,Blankenberge,Brugse Steenweg,98,51.2986754566,3.14932994553
8370,Blankenberge,Zinderdreef,10,51.3046171233,3.14833497244
8370,Blankenberge,Scharebrugstraat,62,51.3074701003,3.13239794735
8370,Blankenberge,Nieuwpoortstraat,16,51.3091333007,3.1227577001
8370,Blankenberge,Blankenbergse Dijk,25,51.3044088817,3.13730251481
8370,Blankenberge,Prinsenlaan,40,51.3157668651,3.13708684566
8370,Blankenberge,Vrijheidsstraat,47,51.3124878356,3.12409997416
8370,Blankenberge,Boezingepad,15,51.3065036889,3.12079628906
8370,Blankenberge,J. de Troozlaan,60,51.3165798551,3.13450265741
8370,Blankenberge,Blankenbergse Dijk,8,51.3049781162,3.13734009264
8370,Blankenberge,Weststraat,133,51.3122807609,3.1309024123
8370,Blankenberge,Ramstraat,30A,51.3021360911,3.14890390829
8370,Blankenberge,L. Nuytemanslaan,26,51.3159764895,3.13841074752
8370,Blankenberge,Schaapstraat,16,51.3038734362,3.14437806327
8370,Blankenberge,Zeedijk,191,51.3178526817,3.13598332039
8370,Blankenberge,IJzerstraat,39,51.3110336222,3.1226871933
8370,Blankenberge,Zeedijk,76,51.3145237255,3.12144797129
8370,Blankenberge,Ramstraat,22,51.3026871051,3.14824616541
8370,Blankenberge,Egelantierenhof,9,51.3067857835,3.14686863618
8370,Blankenberge,Fabiolapark,21,51.3041533284,3.14541055745
8370,Blankenberge,Breughellaan,12,51.3110212327,3.14580224128
8370,Blankenberge,Kerkstraat,180,51.309810405,3.13614634595
8370,Blankenberge,Bremwijk,5,51.3088573854,3.11384226854
8370,Blankenberge,Zeedijk,94,51.3150918286,3.12336105084
8370,Blankenberge,Kerkstraat,162,51.3101173693,3.13566906981
8370,Blankenberge,Zeebruggelaan,100,51.3113501232,3.15161601399
8370,Blankenberge,K. Deswertlaan,109,51.3075681171,3.12831463584
8370,Blankenberge,Zuidlaan,78,51.309419684,3.13075129248
8370,Blankenberge,Pluvierlaan,14,51.3060435809,3.14837345155
8370,Blankenberge,Parkstraat,62,51.3145627393,3.12480990201
8370,Blankenberge,A. Rodenbachstraat,23,51.3086375122,3.12378166835
8370,Blankenberge,J. de Troozlaan,42,51.3160194343,3.13367993909
8370,Blankenberge,Serg. De Bruynestraat,10,51.3114642579,3.12218728334
8370,Blankenberge,Koning Albert-I-laan,98,51.3139716797,3.13984719626
8370,Blankenberge,Marnixstraat,1B,51.3117891377,3.12797081784
8370,Blankenberge,Zeebruggelaan,89,51.3079841921,3.14653313676
8370,Blankenberge,Hanneusestraat,45,51.3137048152,3.13578992603
8370,Blankenberge,Van Dijcklaan,5,51.3099841421,3.14488803194
8370,Blankenberge,Malecotstraat,12,51.3159774655,3.1322496137
8370,Blankenberge,Alkenlaan,5,51.3089172065,3.14847153085
8370,Blankenberge,Kerkstraat,334,51.3066193039,3.14167446482
8370,Blankenberge,Ruiterstraat,27,51.3026777853,3.14165069772
8370,Blankenberge,Ieperstraat,22,51.3084230921,3.12087306302
8370,Blankenberge,Rood-Kruisstraat,7,51.3085759657,3.12669766033
8370,Blankenberge,Lissewegestraat,17,51.3054947866,3.14693406372
8370,Blankenberge,Oudengemse Laan,19,51.3130193305,3.14857242326
8370,Blankenberge,Zuidlaan,96,51.3092742365,3.12996833281
8370,Blankenberge,L. Van Sluysstraat,11,51.3116848437,3.13797940572
8370,Blankenberge,Ontmijnersstraat,103,51.3090077175,3.1324578011
8370,Blankenberge,Boezingepad,33,51.3063237228,3.11979791911
8370,Blankenberge,Haringstraat,16,51.3042431043,3.13583996991
8370,Blankenberge,Scharebrugstraat,141,51.3078250317,3.12949186792
8370,Blankenberge,Meeuwenlaan,23,51.3068644168,3.1492141582
8370,Blankenberge,Scharstraat,1,51.3048946376,3.13617579649
8370,Blankenberge,A. Pauwelslaan,45,51.3152525231,3.13992154115
8370,Blankenberge,Parkstraat,44,51.3142175205,3.12437030262
8370,Blankenberge,Groenestraat,48,51.3146652193,3.13977079534
8370,Blankenberge,Evendijk-West,10,51.3052624622,3.13682245663
8370,Blankenberge,Vredelaan,25,51.3098779411,3.12249781957
8370,Blankenberge,Kerkstraat,144,51.3105789344,3.13516459924
8370,Blankenberge,Kerkstraat,83,51.314181684,3.13003770512
8370,Blankenberge,Marnixstraat,5,51.3118462889,3.12808906089
8370,Blankenberge,Haringstraat,2,51.3038420595,3.13513727874
8370,Blankenberge,Schelvisstraat,12,51.305482223,3.13488415663
8370,Blankenberge,Evendijk-Oost,77,51.3066488915,3.13998381301
8370,Blankenberge,Reningepad,14,51.3047719277,3.12255101275
8370,Blankenberge,Pierstraat,33,51.3136608657,3.13649092336
8370,Blankenberge,Weststraat,69,51.3139386039,3.12704687202
8370,Blankenberge,Zeedijk,209,51.3182286854,3.13750399518
8370,Blankenberge,Charles Huysstraat,40,51.3053529185,3.13931787391
8370,Blankenberge,de Smet de Naeyerlaan,135,51.3119300479,3.12874848433
8370,Blankenberge,Sint Elooistraat,6,51.3068259514,3.13521282776
8370,Blankenberge,Vissersstraat,33,51.3150842345,3.12713594638
8370,Blankenberge,Maurits Sabbepad,12,51.3104475349,3.1430954828
8370,Blankenberge,Steenstraat,4,51.313605972,3.13163514302
8370,Blankenberge,Forthoekstraat,11,51.3078227878,3.13355673814
8370,Blankenberge,Prinsenlaan,29,51.3156383049,3.13653196312
8370,Blankenberge,Astridlaan,19,51.3167089858,3.13932537294
8370,Blankenberge,F. Feverystraat,5,51.3008876304,3.14877041261
8370,Blankenberge,Marie-Josélaan,22,51.3142876801,3.13446832624
8370,Blankenberge,Elisabethstraat,30,51.3155597464,3.13209574824
8370,Blankenberge,Oudstrijdersstraat,23,51.308091175,3.12183527937
8370,Blankenberge,Hanneusestraat,25,51.314014193,3.13547563372
8370,Blankenberge,Blankenbergse Dijk,124,51.3026669834,3.14039978387
8370,Blankenberge,A. Ruzettelaan,65,51.3176849235,3.13939212381
8370,Blankenberge,Weststraat,16,51.3150917391,3.12495355378
8370,Blankenberge,Kemmelbergstraat,19,51.3081519106,3.12014156734
8370,Blankenberge,IJzerstraat,50,51.3105200843,3.12348477474
8370,Blankenberge,Duindistellaan,30,51.3031961278,3.13543489197
8370,Blankenberge,Meiboomstraat,9,51.3003616476,3.14977319726
8370,Blankenberge,Kemmelbergstraat,37,51.3076783638,3.12061206268
8370,Blankenberge,Astridlaan,37,51.315818922,3.14003282151
8370,Blankenberge,Van Maerlantstraat,19,51.3111685321,3.12662491105
8370,Blankenberge,Dr Fr. Verhaeghestraat,2,51.3087479126,3.12461315206
8370,Blankenberge,Kerkstraat,420,51.3055371332,3.14352145486
8370,Blankenberge,Blankenbergse Dijk,106,51.3030158728,3.14001959215
8370,Blankenberge,Evendijk-West,63,51.3064123626,3.13900249621
8370,Blankenberge,Houthulststraat,32,51.3089031453,3.12192583487
8370,Blankenberge,Maurice Devriendtlaan,4,51.3175171056,3.14035580338
8370,Blankenberge,J. Soetestraat,28,51.3068868377,3.12018395324
8370,Blankenberge,Gruttolaan,7,51.3034866087,3.14865600238
8370,Blankenberge,Van Monsstraat,30,51.3163940549,3.13329531822
8370,Blankenberge,Van Maerlantstraat,37,51.3114919717,3.12694273195
8370,Blankenberge,Kerkstraat,402,51.3049759857,3.14183235512
8370,Blankenberge,Koninginlaan,10,51.3142125417,3.13324419622
8370,Blankenberge,Vissersstraat,1,51.3145846054,3.12606327956
8370,Blankenberge,Vissersstraat,15,51.3148100159,3.12657393971
8370,Blankenberge,Mgr. Waffelaertlaan,29,51.3117984059,3.13816386937
8370,Blankenberge,Van Beersstraat,7,51.3144703751,3.12507128052
8370,Blankenberge,Grote-Edestraat,28,51.3079718503,3.11576302212
8370,Blankenberge,Langestraat,5,51.3142430817,3.12716799042
8370,Blankenberge,Willem Tellstraat,7,51.3086521806,3.13359497286
8370,Blankenberge,Vrijheidsstraat,8,51.3122608341,3.12251521664
8370,Blankenberge,Langestraat,39,51.3148590132,3.12868653478
8370,Blankenberge,Rerum Novarumstraat,9,51.3074541709,3.13609857554
8370,Blankenberge,Oudengemse Laan,37,51.3136034559,3.15107286015
8370,Blankenberge,Koninginlaan,45,51.3150972281,3.13496655441
8370,Blankenberge,Serg. De Bruynestraat,63,51.3123836508,3.12480228861
8370,Blankenberge,Talingpad,23,51.3041655251,3.14884371763
8370,Blankenberge,A. Ruzettelaan,83,51.3180048514,3.14007711778
8370,Blankenberge,Vuurkruisenstraat,1,51.3129315685,3.13611950789
8370,Blankenberge,Guido Gezellestraat,21,51.3105215076,3.1241680305
8370,Blankenberge,Vanderstichelenstraat,39,51.3145103879,3.12450691934
8370,Blankenberge,Vanderstichelenstraat,5,51.3138973359,3.12352425137
8370,Blankenberge,de Smet de Naeyerlaan,117,51.3122401893,3.12734963369
8370,Blankenberge,Weststraat,54,51.3143087623,3.12675313107
8370,Blankenberge,Van Maerlantstraat,91,51.3128909246,3.12874942741
8370,Blankenberge,Prins Karellaan,1,51.316010748,3.1410387587
8370,Blankenberge,Frans Masereellaan,8,51.3125452731,3.14276515099
8370,Blankenberge,de Smet de Naeyerlaan,2,51.3130720899,3.12380407953
8370,Blankenberge,Pladijsstraat,7,51.304599779,3.13457697948
8370,Blankenberge,Mametstraat,32,51.3116693684,3.12500869561
8370,Blankenberge,Koning Boudewijnlaan,32,51.3133337966,3.14159086866
8370,Blankenberge,Albert Schweitzerlaan,5,51.3133784506,3.15149255952
8370,Blankenberge,Scharebrugstraat,115,51.3078853498,3.13116082173
8370,Blankenberge,J. De Meyerstraat,63,51.3108682718,3.12463480385
8370,Blankenberge,Vrijheidsstraat,17,51.3121458631,3.12303709366
8370,Blankenberge,Park De Craene,36,51.3051482906,3.14371611337
8370,Blankenberge,J. de Troozlaan,24,51.3148524162,3.13255605105
8370,Blankenberge,Vredelaan,96,51.3093400324,3.12327724656
8370,Blankenberge,Onderwijsstraat,13,49.2933351651,2.30668956214
8370,Blankenberge,Vanderstichelenstraat,29,51.3143648685,3.12429450042
8370,Blankenberge,Van Mullemstraat,19,51.3128201261,3.12681249472
8370,Blankenberge,K. Deswertlaan,18,51.3114088159,3.13092989799
8370,Blankenberge,Kerkstraat,116,51.3132436915,3.13181488576
8370,Blankenberge,Vredelaan,10,51.3086265217,3.12829762543
8370,Blankenberge,Zeebruggelaan,56,51.3075624225,3.14513124616
8370,Blankenberge,Ontmijnersstraat,5,51.3117975868,3.13152240764
8370,Blankenberge,Schorreveld,14,51.3146799933,3.14853621365
8370,Blankenberge,Vredelaan,114,51.309541529,3.12201616523
8370,Blankenberge,Rerum Novarumstraat,34,51.3072030498,3.13684597731
8370,Blankenberge,M. Pyckstraat,11,51.3085035673,3.13173127277
8370,Blankenberge,De Wandelaar,26,51.3144448708,3.14555681725
8370,Blankenberge,L. Nuytemanslaan,44,51.3161912022,3.13916920758
8370,Blankenberge,Groenestraat,16,51.3145882242,3.13841444504
8370,Blankenberge,Kerkstraat,30,51.3151507366,3.12964269897
8370,Blankenberge,Mgr. Waffelaertlaan,39,51.3115737267,3.13853268932
8370,Blankenberge,Bikschotestraat,15,51.3059545219,3.12359023856
8370,Blankenberge,Willem Tellstraat,60,51.3073287931,3.13550455719
8370,Blankenberge,J. Soetestraat,64,51.306561292,3.11846609104
8370,Blankenberge,J. Vande Puttelaan,66,51.3096082244,3.13791855536
8370,Blankenberge,Jean Jaurèslaan,37,51.3114555545,3.14962918207
8370,Blankenberge,de Smet de Naeyerlaan,28,51.312689879,3.12659020222
8370,Blankenberge,Weststraat,72,51.3139332219,3.12762306659
8370,Blankenberge,Colombus,19,51.3076246766,3.14271773246
8370,Blankenberge,Haelenstraat,3,51.3136084193,3.12472280222
8370,Blankenberge,B. Vandammestraat,27,51.3048327447,3.13916553847
8370,Blankenberge,K. Deswertlaan,36,51.3109651718,3.13075566459
8370,Blankenberge,Schaapstraat,72,51.3006037289,3.14841060968
8370,Blankenberge,Scharebrugstraat,133,51.3079288623,3.12983618181
8370,Blankenberge,Willem van Saeftingestraat,21,51.3050023178,3.14603288485
8370,Blankenberge,Brugse Steenweg,37,51.3019352872,3.14435545671
8370,Blankenberge,A. Pauwelslaan,10,51.3150298216,3.13789914953
8370,Blankenberge,Lissewegestraat,3,51.3063168435,3.14526838436
8370,Blankenberge,Stationsstraat,26,51.31399592,3.13415203283
8370,Blankenberge,Blankenbergse Dijk,63,51.3031576048,3.13932334766
8370,Blankenberge,Vredelaan,78,51.3091161981,3.12487796842
8370,Blankenberge,Vrijheidsstraat,35,51.3123544561,3.12367409782
8370,Blankenberge,Gruttolaan,42,51.3038459278,3.15044018155
8370,Blankenberge,IJzerstraat,40,51.3109571297,3.12314965073
8370,Blankenberge,Lissewegestraat,53,51.3054018843,3.16137635365
8370,Blankenberge,de Limburg Stirumstraat,23,51.3117531269,3.12529791259
8370,Blankenberge,Willem Tellstraat,42,51.308235826,3.13456435838
8370,Blankenberge,J. Soetestraat,46,51.3066662088,3.11932807757
8370,Blankenberge,Jean Jaurèslaan,19,51.3129126431,3.15031293615
8370,Blankenberge,Serg. De Bruynestraat,25,51.3115681752,3.12309371554
8370,Blankenberge,Groendijk,9,51.3107681239,3.16992391483
8370,Blankenberge,Kerkstraat,252,51.3079042249,3.13824871896
8370,Blankenberge,Weststraat,90,51.3131311943,3.12959045055
8370,Blankenberge,Graaf Jansdijk,28,51.317260158,3.13440715779
8370,Blankenberge,Kerkstraat,359,51.3054491517,3.14040612814
8370,Blankenberge,Bosstraat,1,51.3037348516,3.16094676532
8370,Blankenberge,Scharebrugstraat,97,51.3072575384,3.13312541552
8370,Blankenberge,Grote-Edestraat,46,51.3065541328,3.11642575223
8370,Blankenberge,Prinsenlaan,39,51.3153225545,3.13663987004
8370,Blankenberge,Koning Albert-I-laan,30,51.3135443255,3.13544132004
8370,Blankenberge,Charles Huysstraat,50,51.3051653685,3.13953134622
8370,Blankenberge,Scarphoutdreef,34,51.3100792543,3.13382130676
8370,Blankenberge,Zeebruggelaan,92,51.3109108592,3.15022892171
8370,Blankenberge,Kerkstraat,270,51.3074926448,3.13870290336
8370,Blankenberge,Guido Gezellestraat,48,51.3106449318,3.12497309674
8370,Blankenberge,Leopoldstraat,30,51.3138077159,3.12343900741
8370,Blankenberge,Luikstraat,10,51.3134085675,3.12766229836
8370,Blankenberge,Zinderdreef,3,51.3048822308,3.14769916946
8370,Blankenberge,Rood-Kruisstraat,60,51.3069746141,3.12656110473
8370,Blankenberge,Zuidlaan,10,51.3100807641,3.13443226533
8370,Blankenberge,Uitkerkestraat,36,51.3064541598,3.13681229649
8370,Blankenberge,Nieuwstraat,26,51.3149080853,3.12701972273
8370,Blankenberge,Koning Leopold III Plein,9,51.3137865892,3.13291268265
8370,Blankenberge,Houthulststraat,14,51.3093528953,3.12162808823
8370,Blankenberge,Oudstrijdersstraat,58,51.3082410543,3.12257289873
8370,Blankenberge,P. Krugerstraat,3,51.3116648442,3.1284889077
8370,Blankenberge,Scharebrugstraat,79,51.3067947561,3.13357267951
8370,Blankenberge,Franchommelaan,4,51.3124016321,3.11530529591
8370,Blankenberge,Houthulststraat,49,51.308173945,3.12193575249
8370,Blankenberge,Zuidlaan,45,51.3094425663,3.13329748188
8370,Blankenberge,Vlaamsestraat,23,51.311570324,3.12790937987
8370,Blankenberge,Vramboutstraat,8,51.3126055846,3.13127645987
8370,Blankenberge,J. Ponjaertstraat,12,51.3124785475,3.13719564045
8370,Blankenberge,Reigerpad,7,51.3033724135,3.14995466537
8370,Blankenberge,Hugo Verriestlaan,2,51.3125655526,3.14203181114
8370,Blankenberge,Koninginlaan,96,51.3168882809,3.13747661699
8370,Blankenberge,Park De Craene,18,51.3049122248,3.14456801649
8370,Blankenberge,Zeebruggelaan,125,51.3097236162,3.15000742113
8370,Blankenberge,Zeedijk,109,51.3154436422,3.1250108531
8370,Blankenberge,Kerkstraat,98,51.3136693116,3.13133898158
8370,Blankenberge,Koninginlaan,25,51.3145140312,3.13410587529
8370,Blankenberge,Mametstraat,14,51.3117811851,3.12421123614
8370,Blankenberge,Zeebruggelaan,21,51.3055236061,3.1423874173
8370,Blankenberge,Zeebruggelaan,74,51.3089003959,3.14639520867
8370,Blankenberge,Rood-Kruisstraat,42,51.3075496415,3.12676505207
8370,Blankenberge,Mametstraat,49,51.3113262261,3.12566660086
8370,Blankenberge,Polderlaan,5,51.31565909,3.14778415209
8370,Blankenberge,Ploegstraat,9,51.3016544775,3.14196675845
8370,Blankenberge,IJzerstraat,29,51.311534029,3.12229973036
8370,Blankenberge,Descampsstraat,21,51.3150152404,3.13246394082
8370,Blankenberge,Hanneusestraat,10,51.3147867913,3.1350839405
8370,Blankenberge,Smedenstraat,11,51.3145500281,3.1237618314
8370,Blankenberge,Macquynstraat,21,51.3074388877,3.14355416481
8370,Blankenberge,Prinsenlaan,67,51.3141662174,3.13704198136
8370,Blankenberge,Evendijk-West,3,51.3051404164,3.13718851686
8370,Blankenberge,Duindistellaan,27,51.3034984827,3.13652795957
8370,Blankenberge,J. de Troozlaan,77,51.316517045,3.13525641385
8370,Blankenberge,Willem Tellstraat,14,51.3090987344,3.13408338912
8370,Blankenberge,Prinsenlaan,50,51.3151933469,3.13728562553
8370,Blankenberge,A. Ruzettelaan,27,51.3172899261,3.13726071812
8370,Blankenberge,Evendijk-West,78,51.3065087509,3.13863223257
8370,Blankenberge,Hugo Verriestlaan,56,51.3109196249,3.14384939719
8370,Blankenberge,Stationsstraat,54,51.3143328168,3.13573040546
8370,Blankenberge,Langestraat,75,51.3158091373,3.13068609122
8370,Blankenberge,Brugse Steenweg,65,51.3000866455,3.14591487839
8370,Blankenberge,Ontmijnersstraat,57,51.310662518,3.13173874111
8370,Blankenberge,Platanenhoek,6,51.3129306351,3.1409405448
8370,Blankenberge,Ramstraat,5,51.3019824241,3.1483674534
8370,Blankenberge,Adriaan Brouwerlaan,8,51.310230316,3.1477340367
8370,Blankenberge,K. Deswertlaan,120,51.3079619547,3.12886592192
8370,Blankenberge,Ontmijnersstraat,75,51.3102319254,3.13188471636
8370,Blankenberge,Oudengemse Laan,20,51.3131135742,3.14887288965
8370,Blankenberge,de Smet de Naeyerlaan,99,51.3123059023,3.12666327105
8370,Blankenberge,Hugo Verriestlaan,74,51.3095306775,3.14463992229
8370,Blankenberge,P. Devauxstraat,3,51.3126913908,3.13067849335
8370,Blankenberge,L. Nuytemanslaan,9,51.3154163796,3.13767591599
8370,Blankenberge,Alkenlaan,12,51.3084419899,3.14859829221
8370,Blankenberge,Van Dijcklaan,12,51.310024403,3.14536587432
8370,Blankenberge,Oudstrijdersstraat,8,51.3091250333,3.1237246012
8370,Blankenberge,Gruttolaan,14,51.3037864933,3.14880460207
8370,Blankenberge,Jordaenslaan,53,51.3103298926,3.14882290646
8370,Blankenberge,Langestraat,93,51.316131288,3.13129491379
8370,Blankenberge,L. Van Sluysstraat,2,51.3116701446,3.13736906216
8370,Blankenberge,de Smet de Naeyerlaan,161,51.3116412166,3.13060544395
8370,Blankenberge,J. Soetestraat,11,51.3071971467,3.12068720585
8370,Blankenberge,Egelantierenhof,16,51.306851061,3.14743700392
8370,Blankenberge,Langestraat,57,51.3153246865,3.12984979117
8370,Blankenberge,Diksmuidestraat,28,51.3081723265,3.12068874643
8370,Blankenberge,A. Rodenbachstraat,43,51.3081409585,3.12339824225
8370,Blankenberge,Dumonstraat,9,51.308534806,3.13648187495
8370,Blankenberge,Molenstraat,8,51.3140769328,3.1278693937
8370,Blankenberge,Zeedijk,198,51.3180332035,3.13655564458
8370,Blankenberge,Kerkstraat,187,51.3104636755,3.13453269702
8370,Blankenberge,Guido Gezellestraat,36,51.3107170597,3.12448810044
8370,Blankenberge,de Smet de Naeyerlaan,74,51.3121491005,3.12899609695
8370,Blankenberge,J. Van Paemelstraat,8,51.3113500474,3.13817514634
8370,Blankenberge,Rogierlaan,26,51.3165862611,3.13379715888
8370,Blankenberge,Pierstraat,17,51.3139738588,3.13641178004
8370,Blankenberge,K. Deswertlaan,89,51.3081318465,3.12836702538
8370,Blankenberge,Koning Albert-I-laan,116,51.3175647254,3.14469877769
8370,Blankenberge,Van Monsstraat,27,51.3162524163,3.13358310012
8370,Blankenberge,L. Van Audenaerdestraat,5,51.3088713238,3.13162827706
8370,Blankenberge,K. Deswertlaan,46,51.3105593363,3.13049193365
8370,Blankenberge,Hugo Verriestlaan,92,51.3081774458,3.14565147688
8370,Blankenberge,J. de Troozlaan,59,51.3159052234,3.1344349071
8370,Blankenberge,Stationsstraat,79,51.3143119274,3.13705003181
8370,Blankenberge,Albertstraat,27,51.3159211335,3.13127912673
8370,Blankenberge,Zeebruggelaan,48,51.30705646,3.14441311443
8370,Blankenberge,Ieperstraat,5,51.3090745981,3.12084355398
8370,Blankenberge,Brugse Steenweg,140B,51.2931676382,3.15616498899
8370,Blankenberge,Scarphoutdreef,16,51.3105932725,3.13348581929
8370,Blankenberge,A. Stroobandtstraat,4,51.3088389496,3.14755022691
8370,Blankenberge,Brugse Steenweg,83,51.2983528502,3.14859835528
8370,Blankenberge,Marnixstraat,12,51.3120379822,3.12796418594
8370,Blankenberge,Zeebruggelaan,107,51.3094535956,3.14827933958
8370,Blankenberge,Blankenbergse Dijk,45,51.303771032,3.13805850448
8370,Blankenberge,Descampsstraat,48,51.3157443098,3.1333643449
8370,Blankenberge,de Smet de Naeyerlaan,56,51.3123911084,3.12825010578
8370,Blankenberge,Talingpad,8,51.3046828037,3.14931001519
8370,Blankenberge,Zwarte Leeuwstraat,35,51.3041990214,3.14116217127
8370,Blankenberge,Zuidlaan,63,51.3092543,3.13207921072
8370,Blankenberge,Mingerslaan,19,51.3156260809,3.13506284691
8370,Blankenberge,Bakkersstraat,6,51.3155872002,3.12714591327
8370,Blankenberge,Notebaertstraat,7,51.3127566542,3.1271635965
8370,Blankenberge,Kemmelbergstraat,55,51.3063862605,3.12199796327
8370,Blankenberge,Blankenbergse Dijk,10,51.3049439388,3.13734701973
8370,Blankenberge,Marie-Josélaan,5,51.3146015815,3.13332022292
8370,Blankenberge,Schaapstraat,54,51.3018318083,3.14764751205
8370,Blankenberge,Kemmelbergstraat,73,51.3053851583,3.12273695609
8370,Blankenberge,Koninginlaan,3,51.3138811534,3.13337806926
8370,Blankenberge,Guido Gezellestraat,18,51.3108304775,3.12382629749
8370,Blankenberge,Vissersstraat,47,51.3153283477,3.12788796386
8370,Blankenberge,Zuidlaan,81,51.3090717333,3.1310291772
8370,Blankenberge,Meiboomstraat,16,51.3008786921,3.1505667074
8370,Blankenberge,Willem Tellstraat,32,51.30857267,3.13456575604
8370,Blankenberge,J. De Meyerstraat,45,51.3109645545,3.12406181011
8370,Blankenberge,Grote-Edestraat,64,51.3079598855,3.11729364551
8370,Blankenberge,Franchommelaan,13,51.3148001276,3.12350670184
8370,Blankenberge,Parkstraat,26,51.3139693209,3.12402737546
8370,Blankenberge,Koninginlaan,114,51.3172028949,3.13816818202
8370,Blankenberge,Van Maerlantstraat,20,51.3103507619,3.12490938467
8370,Blankenberge,Graaf Jansdijk,56,51.3178962954,3.13697068571
8370,Blankenberge,Van Maerlantstraat,73,51.3121379267,3.12779944253
8370,Blankenberge,F. Feverystraat,12,51.3014208774,3.14974016502
8370,Blankenberge,Onderwijsstraat,4,51.3150179398,3.1312753071
8370,Blankenberge,Gruttolaan,32,51.3038249228,3.1498660988
8370,Blankenberge,Charles Huysstraat,22,51.3057304751,3.13923175271
8370,Blankenberge,De Langheplein,2,51.3099517999,3.12423991313
8370,Blankenberge,Bakkersstraat,38,51.3148647773,3.12794880331
8370,Blankenberge,Serg. De Bruynestraat,3,51.3110406653,3.12188666403
8370,Blankenberge,A. Ruzettelaan,187,51.3196659173,3.14706477727
8370,Blankenberge,J. De Meyerstraat,10,51.3113248311,3.1231276216
8370,Blankenberge,A. Rodenbachstraat,8,51.3088651741,3.12476262127
8370,Blankenberge,Zwarte Leeuwstraat,17,51.3044731112,3.14095445914
8370,Blankenberge,Zeedijk,38,51.3136345426,3.11820971994
8370,Blankenberge,Kemmelbergstraat,20,51.3080750655,3.12078299963
8370,Blankenberge,Vissersstraat,51,51.315386409,3.12798151927
8370,Blankenberge,Ontmijnersstraat,93,51.3097726803,3.13209326659
8370,Blankenberge,Groenestraat,34,51.314646808,3.1391309616
8370,Blankenberge,Meeuwenlaan,8,51.3083367187,3.15003052843
8370,Blankenberge,Forthoekstraat,28,51.3073725697,3.1332689367
8370,Blankenberge,Eric Jameslaan,18,51.3083215474,3.11883747186
8370,Blankenberge,Tulpenstraat,4,51.3031553093,3.13786382789
8370,Blankenberge,IJzerstraat,75,51.3102709349,3.12325707745
8370,Blankenberge,A. Ruzettelaan,91,51.3180984413,3.14037316998
8370,Blankenberge,Kerkstraat,360,51.3059400994,3.14053157141
8370,Blankenberge,Langestraat,12,51.3144766962,3.12715774371
8370,Blankenberge,Weststraat,141,51.3121804362,3.13107418779
8370,Blankenberge,Colombus,30,51.3096877804,3.14706785502
8370,Blankenberge,Koninginlaan,53,51.3152852686,3.13522421489
8370,Blankenberge,Hanneusestraat,17,51.3143733421,3.13495131304
8370,Blankenberge,Graaf Jansdijk,21,51.316985526,3.13350870785
8370,Blankenberge,Willem van Saeftingestraat,28,51.3045004712,3.14647112767
8370,Blankenberge,Frans Masereellaan,1,51.3117922666,3.14291535924
8370,Blankenberge,Brugse Steenweg,30,51.3025818437,3.14474271107
8370,Blankenberge,Kerkstraat,19,51.3156179684,3.12847926695
8370,Blankenberge,IJzerstraat,93,51.3099015676,3.12352268814
8370,Blankenberge,Dr Fr. Verhaeghestraat,26,51.3085788393,3.12575415026
8370,Blankenberge,Koninginlaan,71,51.3159166831,3.13627930408
8370,Blankenberge,Meeuwenlaan,1,51.3086711264,3.14927956623
8370,Blankenberge,A. Pauwelslaan,3,51.3147053985,3.13796840248
8370,Blankenberge,Uitkerkestraat,11,51.3071120724,3.13753750616
8370,Blankenberge,De Wandelaar,7,51.3140587585,3.14501457909
8370,Blankenberge,Ontmijnersstraat,12,51.3089664541,3.13283681772
8370,Blankenberge,Marie-Josélaan,29,51.3136870733,3.13449974088
8370,Blankenberge,J. de Troozlaan,5,51.3141534705,3.13268262043
8370,Blankenberge,K. Deswertlaan,11,51.3111852238,3.13028179984
8370,Blankenberge,Scharebrugstraat,223,51.3064179944,3.12627807937
8370,Blankenberge,Talingpad,1,51.3049711583,3.14881873951
8370,Blankenberge,de Smet de Naeyerlaan,125,51.3121408898,3.12808250118
8370,Blankenberge,Zuidlaan,17,51.3096630724,3.13460024616
8370,Blankenberge,Duindistellaan,55,51.3035091141,3.13466425279
8370,Blankenberge,Kerkstraat,342,51.3060290078,3.14163408922
8370,Blankenberge,Prinsenlaan,22,51.3165680377,3.13668494083
8370,Blankenberge,Van Maerlantstraat,98,51.3132389989,3.12859557223
8370,Blankenberge,Dumonstraat,34,51.307696363,3.1354351591
8370,Blankenberge,Rood-Kruisstraat,32,51.3078434823,3.12690895271
8370,Blankenberge,Parkstraat,7,51.3135860252,3.12382275325
8370,Blankenberge,Jean Jaurèslaan,30,51.3121328482,3.14943229945
8370,Blankenberge,Woumenpad,4,51.3060873051,3.12063434683
8370,Blankenberge,Descampsstraat,24A,51.3153397947,3.13220931688
8370,Blankenberge,Albertstraat,37,51.3160102085,3.13158832206
8370,Blankenberge,Weststraat,79,51.3138216503,3.12743282915
8370,Blankenberge,Franchommelaan,94,51.313721323,3.11946606277
8370,Blankenberge,Dahliastraat,4,51.3036014201,3.13422269447
8370,Blankenberge,Kerkstraat,37,51.3153218516,3.12880488279
8370,Blankenberge,de Smet de Naeyerlaan,21,51.3124146488,3.12237913957
8370,Blankenberge,M. Pyckstraat,18,51.3082493829,3.13127807362
8370,Blankenberge,IJzerstraat,57,51.3107198036,3.12292651329
8370,Blankenberge,L. Dujardinstraat,36,51.3121232794,3.12634972099
8370,Blankenberge,Koning Albert-I-laan,19,51.3130880063,3.13605268442
8370,Blankenberge,Vredelaan,35,51.3099989129,3.12169210719
8370,Blankenberge,J. Van Paemelstraat,1,51.3110170996,3.13805543345
8370,Blankenberge,Parkstraat,54,51.3144088335,3.1246120501
8370,Blankenberge,A. Pauwelslaan,53,51.3153669937,3.1402807132
8370,Blankenberge,Kerkstraat,259,51.3080699754,3.13713110793
8370,Blankenberge,B. Vandammestraat,55,51.3045104521,3.13832291294
8370,Blankenberge,Prinses Paolalaan,6,51.31268397,3.13920618253
8370,Blankenberge,Kerkstraat,206,51.3091597527,3.13691525605
8370,Blankenberge,Kuiperscheeweg,4B,51.2913966482,3.14691606448
8370,Blankenberge,Kerkstraat,91,51.314041064,3.13025875712
8370,Blankenberge,Hugo Verriestlaan,48,51.3111173892,3.14373633501
8370,Blankenberge,Molenstraat,1,51.3139486024,3.1281906751
8370,Blankenberge,Mametstraat,42,51.3115380211,3.12588154383
8370,Blankenberge,Scharebrugstraat,90,51.307633376,3.13108304504
8370,Blankenberge,Park De Craene,11,51.3045140573,3.14408644646
8370,Blankenberge,L. Dujardinstraat,41,51.3118971243,3.12633409771
8370,Blankenberge,Descampsstraat,28,51.3152773817,3.13240490957
8370,Blankenberge,Ploegstraat,2,51.3024716431,3.14276076467
8370,Blankenberge,Merkempad,7,51.3060362624,3.12115674125
8370,Blankenberge,Macquynstraat,28,51.3069498597,3.14332709598
8370,Blankenberge,Weststraat,97,51.3131138603,3.12905890628
8370,Blankenberge,Rood-Kruisstraat,14,51.3083352115,3.12706464499
8370,Blankenberge,Breydelstraat,39,51.3152951553,3.1266842126
8370,Blankenberge,Waterkasteelstraat,15,51.310203592,3.12149486211
8370,Blankenberge,A. Pauwelslaan,35,51.3151000624,3.13948777987
8370,Blankenberge,Koning Leopold III Plein,16,51.3124604611,3.13351373266
8370,Blankenberge,Nieuwpoortstraat,26,51.3089234587,3.12280605595
8370,Blankenberge,Graaf Jansdijk,48,51.3177441695,3.136362608
8370,Blankenberge,Hoogstraat,7,51.3156126614,3.12954476782
8370,Blankenberge,K. Deswertlaan,64,51.3101455376,3.1301630163
8370,Blankenberge,Kerkstraat,277,51.3077852479,3.13772465237
8370,Blankenberge,Koning Albert-I-laan,37,51.3132263906,3.13745756691
8370,Blankenberge,Vrijheidsstraat,10,51.3122854348,3.12257221862
8370,Blankenberge,Zeebruggelaan,161,51.3126943688,3.15618482669
8370,Blankenberge,Vredelaan,3,51.3097714535,3.12337356247
8370,Blankenberge,Vrijheidsstraat,45,51.3124642743,3.12403060797
8370,Blankenberge,L. Nuytemanslaan,34,51.3160933568,3.13867991804
8370,Blankenberge,Zeedijk,110,51.3152967381,3.12513756528
8370,Blankenberge,Hanneusestraat,3,51.3146827346,3.13457819936
8370,Blankenberge,Hugo Verriestlaan,9,51.3118655535,3.14198800547
8370,Blankenberge,Vredelaan,17,51.3098247067,3.12283816129
8370,Blankenberge,Scharebrugstraat,72,51.3075325994,3.1320383137
8370,Blankenberge,de Limburg Stirumstraat,8,51.3122407292,3.12587425918
8370,Blankenberge,Lissewegestraat,25,51.3050741643,3.14825014102
8370,Blankenberge,Scharstraat,23,51.3041057956,3.13428160046
8370,Blankenberge,Rogierlaan,7,51.3162595302,3.13250634925
8370,Blankenberge,Polderlaan,29,51.3138054745,3.15147838228
8370,Blankenberge,Smedenstraat,4,51.3147512726,3.1239733333
8370,Blankenberge,de Smet de Naeyerlaan,92,51.3119867168,3.12972332301
8370,Blankenberge,Kerkstraat,224,51.3086299252,3.13741719624
8370,Blankenberge,Pervijzepad,17,51.3053103404,3.12181136556
8370,Blankenberge,K. Deswertlaan,82,51.3097264586,3.12988803001
8370,Blankenberge,Malecotstraat,22,51.3157135395,3.13257707844
8370,Blankenberge,Zeedijk,163,51.3171268914,3.13302225204
8370,Blankenberge,Poelkapellepad,5,51.3046555162,3.12050106221
8370,Blankenberge,de Smet de Naeyerlaan,48,51.3125224898,3.1274389247
8370,Blankenberge,Prinses Paolalaan,1A,51.3122827571,3.13899617756
8370,Blankenberge,Polderlaan,12,51.315861785,3.14655296093
8370,Blankenberge,Forthoekstraat,9,51.3078583165,3.13364500291
8370,Blankenberge,Diksmuidestraat,21,51.3086718328,3.12197548628
8370,Blankenberge,Weststraat,105,51.3129501313,3.1293135617
8370,Blankenberge,Ontmijnersstraat,113,51.3087928231,3.13255644516
8370,Blankenberge,Kerkstraat,152,51.3102991476,3.13540264372
8370,Blankenberge,Groenestraat,62,51.3147463439,3.14063346009
8370,Blankenberge,J. Soetestraat,18,51.3069547352,3.12058771786
8370,Blankenberge,Blankenbergse Dijk,35,51.304142945,3.13755893506
8370,Blankenberge,Rozenstraat,4,51.3029689913,3.13543717917
8370,Blankenberge,Zuidlaan,88,51.3093579831,3.13030917676
8370,Blankenberge,Rubenslaan,20,51.3099545888,3.14669353994
8370,Blankenberge,Van Maerlantstraat,27,51.3113401026,3.12672446459
8370,Blankenberge,Grote Markt,6,51.3133257824,3.12459308525
8370,Blankenberge,J. Vande Puttelaan,38,51.3111982041,3.13774958617
8370,Blankenberge,Sint Elooistraat,1,51.3068628719,3.13385512507
8370,Blankenberge,Scharebrugstraat,151,51.3076968848,3.12904020787
8370,Blankenberge,Kerkstraat,324,51.3064039827,3.14053496759
8370,Blankenberge,Molenstraat,15,51.3144265847,3.12930982687
8370,Blankenberge,Astridlaan,27,51.3165121411,3.13956137698
8370,Blankenberge,Ontmijnersstraat,40,51.3083539056,3.13288692474
8370,Blankenberge,J. De Meyerstraat,17,51.3110826024,3.12325056771
8370,Blankenberge,Spoorwegstraat,16,51.3034152882,3.14675931994
8370,Blankenberge,Grote-Edestraat,36,51.3068887077,3.11666314503
8370,Blankenberge,Kerkstraat,170,51.3099385867,3.13581737454
8370,Blankenberge,Fabiolapark,11,51.3038119523,3.14547516781
8370,Blankenberge,J. Soetestraat,36,51.3067910141,3.11980030017
8370,Blankenberge,Groenestraat,44,51.3146478809,3.13957244409
8370,Blankenberge,Schaapstraat,26,51.3034101577,3.14566942584
8370,Blankenberge,Schelvisstraat,22,51.3054509864,3.13532038502
8370,Blankenberge,Molenstraat,33,51.314996689,3.13045409183
8370,Blankenberge,Scharebrugstraat,54,51.3073195869,3.13253274154
8370,Blankenberge,Kerkstraat,306,51.3065470457,3.13984537948
8370,Blankenberge,Langestraat,40,51.3151852462,3.12836972966
8370,Blankenberge,Kemmelbergstraat,27,51.3079882323,3.1203651038
8370,Blankenberge,Ontmijnersstraat,131,51.3080559769,3.13238482854
8370,Blankenberge,Schaapstraat,7,51.3035429873,3.14424736078
8370,Blankenberge,Pervijzepad,35,51.30508696,3.12077847146
8370,Blankenberge,Scarphoutdreef,12A,51.3107524812,3.13355560461
8370,Blankenberge,J. De Meyerstraat,35,51.311001067,3.12378085848
8370,Blankenberge,Zeebruggelaan,99,51.3090416602,3.14753300604
8370,Blankenberge,L. Nuytemanslaan,16,51.3158514607,3.13801355463
8370,Blankenberge,Luikstraat,3,51.3134002768,3.12720538453
8370,Blankenberge,Oudstrijdersstraat,33,51.3078432563,3.12158820797
8370,Blankenberge,Kerkstraat,73,51.3144514786,3.12986815183
8370,Blankenberge,Zeedijk,66,51.3142475051,3.12041672156
8370,Blankenberge,J. de Troozlaan,70,51.3168418178,3.13487541809
8370,Blankenberge,Waterkasteelstraat,1,51.3120539512,3.12152016325
8370,Blankenberge,Blankenbergse Dijk,132,51.3017315645,3.1410253081
8370,Blankenberge,L. Nuytemanslaan,2,51.315581824,3.13716934435
8370,Blankenberge,Blankenbergse Dijk,17,51.3046155292,3.13714517868
8370,Blankenberge,Haringstraat,26,51.3042530908,3.13647170844
8370,Blankenberge,L. Van Sluysstraat,9,51.3116441074,3.1379173727
8370,Blankenberge,Vanderstichelenstraat,40,51.3148709381,3.12450588947
8370,Blankenberge,Consciencestraat,25,51.3135716948,3.12454692453
8370,Blankenberge,Pater Pirelaan,6,51.312377024,3.15282154784
8370,Blankenberge,Ieperstraat,12,51.3086330619,3.12058933859
8370,Blankenberge,Talingpad,15,51.3045019431,3.14881253238
8370,Blankenberge,Vramboutstraat,1,51.3124118714,3.13120817045
8370,Blankenberge,Zuidlaan,3,51.3097918135,3.13517154157
8370,Blankenberge,Vissersstraat,23,51.3149239151,3.12681460868
8370,Blankenberge,de Smet de Naeyerlaan,107,51.3122914556,3.12702611408
8370,Blankenberge,Pierstraat,10,51.314016261,3.13678101702
8370,Blankenberge,L. Van Audenaerdestraat,12,51.3087652951,3.13200298991
8370,Blankenberge,Pervijzepad,3,51.3055939838,3.12262610255
8370,Blankenberge,Frans Regoudthelling,9,51.3127322347,3.11617881121
8370,Blankenberge,Jordaenslaan,25,51.312156665,3.14560158762
8370,Blankenberge,J. De Meyerstraat,3,51.3112013304,3.122393405
8370,Blankenberge,A. Rodenbachstraat,15,51.3088354984,3.12392252285
8370,Blankenberge,Boezingepad,23,51.3064311704,3.12034632856
8370,Blankenberge,Meeuwenlaan,33,51.3056802343,3.14890614454
8370,Blankenberge,J. Soetestraat,4,51.3070570962,3.12118274019
8370,Blankenberge,Luikstraat,17,51.3131402844,3.12748656867
8370,Blankenberge,A. Ruzettelaan,55,51.3174406954,3.13847461565
8370,Blankenberge,Generaal Lemanstraat,20,51.3137727963,3.12736872381
8370,Blankenberge,Eric Jameslaan,11,51.3088922824,3.12027904842
8370,Blankenberge,Zeedijk,235,51.3188939776,3.13989484628
8370,Blankenberge,J. de Troozlaan,52,51.3162907168,3.13407553834
8370,Blankenberge,Dumonstraat,16,51.3082619324,3.13646858749
8370,Blankenberge,Forthoekstraat,21,51.3076643568,3.13298382102
8370,Blankenberge,Ruiterstraat,37,51.3026477718,3.14126114357
8370,Blankenberge,Van Monsstraat,20,51.3162425511,3.13293842899
8370,Blankenberge,Guido Gezellestraat,46,51.3106659944,3.12489006239
8370,Blankenberge,Ontmijnersstraat,29,51.3113442636,3.13154033494
8370,Blankenberge,Kerkstraat,430,51.3042793934,3.14248271164
8370,Blankenberge,Groenestraat,80,51.3149303212,3.14105548903
8370,Blankenberge,Nieuwstraat,7,51.3145110026,3.12679421045
8370,Blankenberge,Zeedijk,84,51.3147284046,3.12207104863
8370,Blankenberge,Elisabethstraat,20,51.3154134413,3.13183254307
8370,Blankenberge,Irisstraat,15,51.3026680649,3.13610595484
8370,Blankenberge,Zeedijk,217,51.3185664946,3.13850769454
8370,Blankenberge,Serg. De Bruynestraat,53,51.3121206167,3.12434774759
8370,Blankenberge,Stationsstraat,7,51.3135906082,3.1334632354
8370,Blankenberge,A. Ruzettelaan,73,51.3178201689,3.13964805428
8370,Blankenberge,Guido Gezellestraat,11,51.3105528502,3.12376286719
8370,Blankenberge,Manitobaplein,5,51.3144960817,3.12800467451
8370,Blankenberge,Meeuwenlaan,15,51.3075592792,3.14963266844
8370,Blankenberge,Notebaertstraat,14,51.3130672439,3.1272588745
8370,Blankenberge,Diksmuidestraat,9,51.3087976404,3.12239019646
8370,Blankenberge,Boutslaan,5,51.312637026,3.14787488124
8370,Blankenberge,Charles Huysstraat,39,51.3050493514,3.13914476055
8370,Blankenberge,Frans Masereellaan,15,51.3131676249,3.14284572517
8370,Blankenberge,Weststraat,123,51.3124847302,3.13059276475
8370,Blankenberge,Oudengemse Laan,27,51.3131418193,3.14958244393
8370,Blankenberge,Zuidlaan,35,51.3095289882,3.13372345641
8370,Blankenberge,Spoorwegstraat,4,51.3033652434,3.14610813674
8370,Blankenberge,J. Vande Puttelaan,56,51.3097713813,3.1382563128
8370,Blankenberge,Gildestraat,4,51.2982548411,3.1542047444
8370,Blankenberge,Ambachtstraat,7,51.2970937575,3.15283499999
8370,Blankenberge,Evendijk-West,15,51.3053759829,3.13717568944
8370,Blankenberge,F. Feverystraat,19,51.3013102127,3.15049131977
8370,Blankenberge,de Smet de Naeyerlaan,173,51.3119756732,3.13160932868
8370,Blankenberge,Vredelaan,68,51.3090670443,3.12531658159
8370,Blankenberge,Guido Gezellestraat,31,51.3104285806,3.12461542915
8370,Blankenberge,Franchommelaan,18,51.3126928209,3.11595381721
8370,Blankenberge,Zeebruggelaan,66,51.3083840527,3.14596831727
8370,Blankenberge,Kerkstraat,301,51.3070021919,3.13859065647
8370,Blankenberge,J. Vande Puttelaan,8,51.3125946356,3.13614406288
8370,Blankenberge,Vanderstichelenstraat,19,51.3141385623,3.12395629446
8370,Blankenberge,Astridlaan,39,51.3157677265,3.1400803618
8370,Blankenberge,Hugo Verriestlaan,38,51.311644258,3.14311962993
8370,Blankenberge,Eric Jameslaan,13,51.3086764875,3.12013768275
8370,Blankenberge,Colombus,29,51.3077695115,3.14316267838
8370,Blankenberge,Kerkstraat,282,51.3072799603,3.13910163099
8370,Blankenberge,Rogierlaan,32,51.3168456341,3.13448212668
8370,Blankenberge,Kerkstraat,412,51.30476511,3.14217234417
8370,Blankenberge,Kemmelbergstraat,39,51.3076346447,3.12068594847
8370,Blankenberge,Koning Albert-I-laan,57,51.31402654,3.14288822926
8370,Blankenberge,Van Monsstraat,22,51.3162739375,3.13300874502
8370,Blankenberge,Franchommelaan,36,51.3129982255,3.11707200546
8370,Blankenberge,Van Mullemstraat,29,51.3126723941,3.12778734791
8370,Blankenberge,K. Deswertlaan,41,51.3104559268,3.12981784627
8370,Blankenberge,Zeedijk,117,51.3154595407,3.12542096443
8370,Blankenberge,Evendijk-West,33,51.305887071,3.13760402964
8370,Blankenberge,A. Ruzettelaan,22,51.3183548616,3.13922438041
8370,Blankenberge,Van Maerlantstraat,39,51.3115164793,3.12700820022
8370,Blankenberge,J. de Troozlaan,34,51.3150233974,3.13273755534
8370,Blankenberge,Elisabethstraat,22,51.3154200096,3.13193650849
8370,Blankenberge,Boezingepad,10,51.3059932765,3.11982370559
8370,Blankenberge,Jean Jaurèslaan,29,51.3119625959,3.14920554552
8370,Blankenberge,Prinsenlaan,55,51.3148996864,3.13679435995
8370,Blankenberge,Duindistellaan,22,51.3032344412,3.13613656543
8370,Blankenberge,de Smet de Naeyerlaan,38,51.3126241439,3.12701695393
8370,Blankenberge,Mingerslaan,12,51.315958543,3.13521340384
8370,Blankenberge,L. Nuytemanslaan,52,51.316293997,3.13956383762
8370,Blankenberge,de Smet de Naeyerlaan,155,51.3116842569,3.13030251849
8370,Blankenberge,P. Devauxstraat,15,51.3129098024,3.13104590488
8370,Blankenberge,Scharebrugstraat,49,51.3060024412,3.13456532928
8370,Blankenberge,Graaf Jansdijk,38,51.3176709916,3.1351866753
8370,Blankenberge,Oudengemse Laan,39,51.3138873619,3.15070784332
8370,Blankenberge,Marie-Josélaan,30,51.3139370567,3.13483564523
8370,Blankenberge,Park De Craene,26,51.3050437618,3.14422223619
8370,Blankenberge,Guido Gezellestraat,13,51.3105552043,3.12383294088
8370,Blankenberge,Pierstraat,23,51.3138423551,3.13637811044
8370,Blankenberge,Serg. De Bruynestraat,15,51.3114433438,3.12274593521
8370,Blankenberge,Vanderstichelenstraat,37,51.314484573,3.12447117533
8370,Blankenberge,Zeedijk,99,51.3151728885,3.12376955949
8370,Blankenberge,Charles Huysstraat,27,51.3052956622,3.13893719267
8370,Blankenberge,Malecotstraat,20,51.3157340215,3.13250682059
8370,Blankenberge,Vuurkruisenstraat,10,51.3128563199,3.13656830141
8370,Blankenberge,Zuidlaan,86,51.3093626654,3.13039596765
8370,Blankenberge,Vissersstraat,10,51.3149038449,3.12614326169
8370,Blankenberge,Koninginlaan,15,51.3141554605,3.13368420558
8370,Blankenberge,IJzerstraat,37,51.3110899666,3.12271107249
8370,Blankenberge,Vissersstraat,6,51.3148457582,3.1260131325
8370,Blankenberge,Vissersstraat,45,51.3152885434,3.12781242617
8370,Blankenberge,Vredelaan,122,51.3095765322,3.12168620928
8370,Blankenberge,Merkempad,14,51.3058912415,3.12182936824
8370,Blankenberge,Rubenslaan,22,51.3098850298,3.14675632167
8370,Blankenberge,Willem Tellstraat,26,51.3087503753,3.1342364798
8370,Blankenberge,J. De Meyerstraat,51,51.3109421567,3.12423165616
8370,Blankenberge,Mgr. Waffelaertlaan,7,51.3129501299,3.13749026139
8370,Blankenberge,Gruttolaan,26,51.3038132559,3.14956209433
8370,Blankenberge,Vuurkruisenstraat,6,51.312981157,3.13654003959
8370,Blankenberge,Haringstraat,7,51.3039293821,3.13582317993
8370,Blankenberge,Uitkerkestraat,2,51.307090075,3.13832774494
8370,Blankenberge,Schaapstraat,60,51.3016052014,3.14779714126
8370,Blankenberge,Fabiolapark,13,51.3038648946,3.14539633703
8370,Blankenberge,Vredelaan,104,51.3094079935,3.12294382956
8370,Blankenberge,Parkstraat,32,51.314055314,3.12416105692
8370,Blankenberge,Koninginlaan,33,51.3147029942,3.1343828692
8370,Blankenberge,Badersstraat,8,51.3145345454,3.12343462627
8370,Blankenberge,Brugse Steenweg,111,51.295090009,3.1525168169
8370,Blankenberge,Willem Tellstraat,72,51.3069763723,3.13584633265
8370,Blankenberge,Zwarte Leeuwstraat,23,51.3044103577,3.14130947406
8370,Blankenberge,Scharebrugstraat,103,51.3078533177,3.13180376503
8370,Blankenberge,Guido Gezellestraat,9,51.3105909869,3.12367937584
8370,Blankenberge,Polderlaan,30,51.3157485426,3.14931335669
8370,Blankenberge,Kemmelbergstraat,50,51.3060692573,3.12292602771
8370,Blankenberge,Alkenlaan,19,51.3078139843,3.14687793912
8370,Blankenberge,Rogierlaan,14,51.3164230609,3.13295615817
8370,Blankenberge,Blankenbergse Dijk,51,51.3034777016,3.13876765771
8370,Blankenberge,Scarphoutdreef,24,51.3104110483,3.13361414539
8370,Blankenberge,Brugse Steenweg,146,51.2897361393,3.1597535336
8370,Blankenberge,Fabiolapark,31,51.3044902269,3.14521699539
8370,Blankenberge,Egelantierenhof,24,51.307375381,3.1467456004
8370,Blankenberge,Koninginlaan,68,51.3163016243,3.13572803451
8370,Blankenberge,IJzerstraat,19,51.3117809345,3.1220745289
8370,Blankenberge,Van Maerlantstraat,50,51.3112636673,3.12619021591
8370,Blankenberge,Prinsenlaan,7,51.3166120839,3.13582022435
8370,Blankenberge,Pater Pirelaan,4,51.3122049582,3.15308336017
8370,Blankenberge,de Smet de Naeyerlaan,120,51.312120723,3.13116656849
8370,Blankenberge,Rerum Novarumstraat,4,51.3080317385,3.13601257884
8370,Blankenberge,Van Maerlantstraat,67,51.3120689643,3.12771220864
8370,Blankenberge,Stationsstraat,14,51.3139074714,3.13373840615
8370,Blankenberge,Koninginlaan,104,51.3170575731,3.13774727315
8370,Blankenberge,A. Rodenbachstraat,53,51.3078451263,3.12335610105
8370,Blankenberge,Hugo Verriestlaan,84,51.3089038257,3.14505497498
8370,Blankenberge,A. Rodenbachstraat,47,51.3080403788,3.12331373248
8370,Blankenberge,Serg. De Bruynestraat,68,51.3124243289,3.12437850044
8370,Blankenberge,J. de Troozlaan,87,51.3167176475,3.13549467206
8370,Blankenberge,Weststraat,60,51.3142366672,3.12689031832
8370,Blankenberge,Akkerstraat,3,51.3085169381,3.12758458088
8370,Blankenberge,J. Soetestraat,41,51.3069807096,3.11919672931
8370,Blankenberge,Weststraat,95,51.3131628504,3.12797623335
8370,Blankenberge,Hugo Verriestlaan,66,51.3102245665,3.14432722328
8370,Blankenberge,Willem Tellstraat,54,51.3074794061,3.13536173858
8370,Blankenberge,Wulpenlaan,13,51.3056123248,3.15020423045
8370,Blankenberge,de Limburg Stirumstraat,35,51.3112367594,3.12512452648
8370,Blankenberge,Kemmelbergstraat,67,51.3059799431,3.12234844857
8370,Blankenberge,Houthulststraat,26,51.3090692934,3.12190259702
8370,Blankenberge,Stationsstraat,32,51.3141375288,3.13481943043
8370,Blankenberge,Nieuwstraat,14,51.3146928404,3.12667259818
8370,Blankenberge,Breydelstraat,3,51.3148567068,3.1255655884
8370,Blankenberge,Vrijheidsstraat,23,51.3121964096,3.12325347367
8370,Blankenberge,Kerkstraat,128,51.3108624854,3.13473554774
8370,Blankenberge,Meiboomstraat,4,51.3005588223,3.148859759
8370,Blankenberge,Langestraat,83,51.3159027658,3.13096633121
8370,Blankenberge,J. de Troozlaan,69,51.3163332257,3.13503291819
8370,Blankenberge,Lode Zielenspad,4,51.3088778034,3.14398902305
8370,Blankenberge,Oudstrijdersstraat,17,51.3089809003,3.12309681667
8370,Blankenberge,de Smet de Naeyerlaan,102,51.3119407495,3.13036540395
8370,Blankenberge,De Wandelaar,32,51.3145232481,3.14423252569
8370,Blankenberge,J. Ponjaertstraat,19,51.3123137727,3.13759358121
8370,Blankenberge,Franchommelaan,46,51.3131400601,3.11732580477
8370,Blankenberge,Van Maerlantstraat,85,51.312712646,3.12857559895
8370,Blankenberge,K. Deswertlaan,31,51.3107845572,3.12970425454
8370,Blankenberge,Mametstraat,26,51.3117212907,3.12478255019
8370,Blankenberge,de Limburg Stirumstraat,17,51.3119124911,3.12539061686
8370,Blankenberge,Evendijk-West,68,51.3063694583,3.13819462348
8370,Blankenberge,Lissewegestraat,33,51.304838437,3.14965356594
8370,Blankenberge,Kerkstraat,325B,51.3062773542,3.13948879678
8370,Blankenberge,Koning Boudewijnlaan,26,51.3125949057,3.14041324081
8370,Blankenberge,Koninginlaan,122,51.317269144,3.13844515202
8370,Blankenberge,Ontmijnersstraat,83,51.3100598069,3.13202511406
8370,Blankenberge,Reningepad,5,51.3048682535,3.12186350275
8370,Blankenberge,Badersstraat,21,51.314190214,3.1234478533
8370,Blankenberge,Mgr. Waffelaertlaan,55,51.3110322134,3.13911325823
8370,Blankenberge,Haringstraat,11,51.3039464863,3.13604156758
8370,Blankenberge,Parkstraat,14,51.3137973769,3.12379831103
8370,Blankenberge,Vlaamsestraat,17,51.3116275804,3.12771995812
8370,Blankenberge,Kerkstraat,246,51.308065275,3.13814980523
8370,Blankenberge,Groenestraat,24,51.3146297009,3.13875574206
8370,Blankenberge,de Smet de Naeyerlaan,66,51.3122849726,3.12864795068
8370,Blankenberge,Parkstraat,49,51.31427598,3.12469850892
8370,Blankenberge,Vlaamsestraat,35,51.3114488392,3.12827492516
8370,Blankenberge,Fabiolapark,2,51.3036195501,3.14512385666
8370,Blankenberge,Bakkersstraat,28,51.3150941332,3.12779795673
8370,Blankenberge,Pierstraat,6,51.314121418,3.13676202565
8370,Blankenberge,Brugse Steenweg,57,51.3007167687,3.14589474732
8370,Blankenberge,Zeedijk,200,51.318070783,3.13673769392
8370,Blankenberge,Jean Jaurèslaan,12,51.3123808003,3.15090403114
8370,Blankenberge,Ontmijnersstraat,65,51.3104805302,3.13176896312
8370,Blankenberge,Zeedijk,188,51.3177985672,3.13568953202
8370,Blankenberge,Malecotstraat,7,51.3160766299,3.13158741756
8370,Blankenberge,Pluvierlaan,5,51.3073729445,3.14906602612
8370,Blankenberge,De Wandelaar,14,51.3138184662,3.14537074074
8370,Blankenberge,Rerum Novarumstraat,24,51.3074531107,3.13659311141
8370,Blankenberge,Kerkstraat,199,51.3102345995,3.1348148672
8370,Blankenberge,J. de Troozlaan,16,51.3146726617,3.13240389963
8370,Blankenberge,Uitkerkestraat,13,51.3070795897,3.13745661707
8370,Blankenberge,Rood-Kruisstraat,54,51.3071971081,3.12663906866
8370,Blankenberge,Colombus,57,51.3082634428,3.14449051997
8370,Blankenberge,Zeebruggelaan,9,51.3055274951,3.14188594436
8370,Blankenberge,Onderwijsstraat,18,51.3144679361,3.13196926109
8370,Blankenberge,Consciencestraat,40,51.3141052509,3.12473921798
8370,Blankenberge,Breydelstraat,27,51.3151217305,3.12620185168
8370,Blankenberge,Evendijk-Oost,90,51.3067707265,3.13972660719
8370,Blankenberge,Scarphoutdreef,4,51.3110196436,3.13332275821
8370,Blankenberge,Zuidlaan,51,51.3094011632,3.13298204188
8370,Blankenberge,Colombus,75,51.3087901088,3.14576890932
8370,Blankenberge,Scharebrugstraat,221,51.3064861162,3.12644793066
8370,Blankenberge,Dr Fr. Verhaeghestraat,42,51.3084800799,3.12649469415
8370,Blankenberge,Langestraat,30,51.3149549067,3.12819469941
8370,Blankenberge,K. Deswertlaan,13,51.3111362965,3.13022773724
8370,Blankenberge,Franchommelaan,100,51.3138281596,3.11983699769
8370,Blankenberge,Boezingepad,6,51.306027763,3.12005095364
8370,Blankenberge,Akkerstraat,27,51.3078688957,3.12771314967
8370,Blankenberge,Sneppenlaan,2,51.3089212983,3.14962038411
8370,Blankenberge,Egelantierenhof,4,51.3071213819,3.14647905634
8370,Blankenberge,Prinsenlaan,24B,51.3162325114,3.13688804643
8370,Blankenberge,Van Mullemstraat,12,51.312963,3.12747652147
8370,Blankenberge,Artanhelling,3,51.3170556022,3.13367740857
8370,Blankenberge,Prinsenlaan,20,51.3165920094,3.13657829914
8370,Blankenberge,Prinsenlaan,73,51.3139655477,3.13718628264
8370,Blankenberge,Kerkstraat,264,51.3076251353,3.13858050878
8370,Blankenberge,Zeebruggelaan,119,51.3100606167,3.14976194636
8370,Blankenberge,Groenestraat,59,51.3143580017,3.14031192808
8370,Blankenberge,Jordaenslaan,40,51.3124247475,3.14743451249
8370,Blankenberge,Colombus,12,51.3086024374,3.14394320026
8370,Blankenberge,P. Krugerstraat,15,51.311944228,3.12868614367
8370,Blankenberge,Zeedijk,28,51.3133236925,3.11726435432
8370,Blankenberge,Brugse Steenweg,75,51.2991225754,3.14746976295
8370,Blankenberge,Brugse Steenweg,12,51.3033180456,3.14379222634
8370,Blankenberge,Ontmijnersstraat,30,51.3085944337,3.13294479359
8370,Blankenberge,Kerkstraat,289,51.3075198826,3.1379842289
8370,Blankenberge,Leopoldstraat,40,51.3135829184,3.12356120535
8370,Blankenberge,Kerkstraat,29,51.3154314256,3.12868405369
8370,Blankenberge,Kemmelbergstraat,22,51.3080160562,3.12079634178
8370,Blankenberge,Koning Boudewijnlaan,5,51.3105573296,3.1390459106
8370,Blankenberge,Vissersstraat,35,51.3151144381,3.12720456707
8370,Blankenberge,Vissersstraat,64A,51.3158062502,3.12829465792
8370,Blankenberge,J. Soetestraat,48,51.3066545668,3.11923846762
8370,Blankenberge,Koning Albert-I-laan,40,51.3135754512,3.13597064095
8370,Blankenberge,Weststraat,14,51.3151219858,3.12486338084
8370,Blankenberge,Mametstraat,5,51.3116177604,3.12358651208
8370,Blankenberge,Van Monsstraat,39,51.3164203212,3.13391818292
8370,Blankenberge,Vanderstichelenstraat,30,51.3146644284,3.1242123336
8370,Blankenberge,Pervijzepad,23,51.305271319,3.12146893761
8370,Blankenberge,K. Deswertlaan,76,51.3098694303,3.12996942105
8370,Blankenberge,Dumonstraat,24,51.3081517112,3.13617347598
8370,Blankenberge,Scharebrugstraat,42,51.3070922453,3.13273081378
8370,Blankenberge,J. De Meyerstraat,23,51.3110567666,3.12341821168
8370,Blankenberge,Weststraat,32,51.314814691,3.12568218102
8370,Blankenberge,Nieuwpoortstraat,4,51.3093933406,3.12269580927
8370,Blankenberge,Kerkstraat,318,51.3062717615,3.14016313827
8370,Blankenberge,Marie-Josélaan,37,51.3135502098,3.13478020384
8370,Blankenberge,J. Ponjaertstraat,7,51.3122558571,3.13703744326
8370,Blankenberge,A. Ruzettelaan,39,51.3173654577,3.13781673758
8370,Blankenberge,Franchommelaan,11,51.3147491513,3.12345470508
8370,Blankenberge,IJzerstraat,7,51.312111009,3.12188525089
8370,Blankenberge,Schaapstraat,32,51.3030616024,3.14642356914
8370,Blankenberge,Ruiterstraat,12,51.3022761366,3.14070421246
8370,Blankenberge,Vissersstraat,17,51.3148390227,3.12663125967
8370,Blankenberge,K. Deswertlaan,94,51.3085507975,3.12914497427
8370,Blankenberge,Van Maerlantstraat,22,51.3103691927,3.12497816805
8370,Blankenberge,Tervatestraat,12,51.3071975572,3.122067167
8370,Blankenberge,Zeedijk,225,51.3187287538,3.13920116372
8370,Blankenberge,Scharebrugstraat,60,51.3074547947,3.13246461327
8370,Blankenberge,Astridlaan,22,51.3167648625,3.14012820644
8370,Blankenberge,Marie-Josélaan,19,51.3141772496,3.13399819045
8370,Blankenberge,Grote Markt,21,51.3137469162,3.12639145062
8370,Blankenberge,Breeweg,19,51.3106675722,3.15726713781
8370,Blankenberge,Wulpenlaan,9,51.3059540751,3.1502282722
8370,Blankenberge,Koninginlaan,43,51.3150675046,3.13487453502
8370,Blankenberge,Blankenbergse Dijk,23,51.3044570949,3.13727083697
8370,Blankenberge,K. Deswertlaan,9,51.3112320048,3.13032831782
8370,Blankenberge,J. Soetestraat,31,51.3070714374,3.11968521467
8370,Blankenberge,Duindistellaan,39,51.3035204834,3.13586885418
8370,Blankenberge,Herdersstraat,6,51.3023366812,3.14636028417
8370,Blankenberge,Boezingepad,17,51.3064793328,3.12068579426
8370,Blankenberge,Uitkerkestraat,9,51.3071481567,3.13762762228
8370,Blankenberge,Kerkstraat,390,51.3052601671,3.14149659762
8370,Blankenberge,Schaapstraat,14,51.3038124969,3.14425705236
8370,Blankenberge,de Smet de Naeyerlaan,84,51.312067203,3.1294340278
8370,Blankenberge,Willem Tellstraat,79,51.3059599929,3.1363171111
8370,Blankenberge,Schaapstraat,49,51.3024569611,3.14659589284
8370,Blankenberge,Polderlaan,37,51.3130351375,3.15244577122
8370,Blankenberge,L. Nuytemanslaan,59,51.315943076,3.13968714191
8370,Blankenberge,Zuidlaan,23,51.3096289061,3.13427156
8370,Blankenberge,Guido Gezellestraat,2,51.3109007499,3.1232763733
8370,Blankenberge,Luikstraat,23,51.3130501706,3.12765435328
8370,Blankenberge,Sprotstraat,12,51.3041477577,3.13710506325
8370,Blankenberge,Oudengemse Laan,22,51.3134757918,3.14891173694
8370,Blankenberge,Pluvierlaan,16,51.3060881464,3.14879047918
8370,Blankenberge,Marie-Josélaan,44,51.3136027063,3.13526377538
8370,Blankenberge,IJzerstraat,83,51.3101023118,3.12336987591
8370,Blankenberge,Hanneusestraat,43,51.313756084,3.13574094676
8370,Blankenberge,Koning Albert-I-laan,29,51.3131468129,3.13684978057
8370,Blankenberge,Koninginlaan,61,51.3143582396,3.13595349858
8370,Blankenberge,Van Monsstraat,50,51.3166287264,3.13386101389
8370,Blankenberge,Schorreveld,5,51.3147102896,3.14762858729
8370,Blankenberge,Ieperstraat,19,51.3087266643,3.12106112974
8370,Blankenberge,Dr Fr. Verhaeghestraat,32,51.3085497481,3.12603173222
8370,Blankenberge,Kerkstraat,164,51.3100833663,3.1357359467
8370,Blankenberge,Willem van Saeftingestraat,16,51.305256447,3.14510981117
8370,Blankenberge,Lissewegestraat,15,51.3056147897,3.14673314873
8370,Blankenberge,Polderlaan,19,51.31456658,3.15033950473
8370,Blankenberge,Kerkstraat,111,51.3135445527,3.13046216394
8370,Blankenberge,J. Soetestraat,13,51.3071702984,3.12059613775
8370,Blankenberge,Zeebruggelaan,38,51.306108392,3.14272065591
8370,Blankenberge,Descampsstraat,38,51.3154739502,3.13291092212
8370,Blankenberge,Boezingepad,35,51.3063056475,3.11968639626
8370,Blankenberge,Serg. De Bruynestraat,16B,51.3116767605,3.12269120823
8370,Blankenberge,Kerkstraat,372,51.3057461918,3.14078235319
8370,Blankenberge,Kerkstraat,336,51.3064469095,3.14194561727
8370,Blankenberge,Kerkstraat,146,51.3105091467,3.13517892653
8370,Blankenberge,Prins Karellaan,10,51.3166165083,3.14126190913
8370,Blankenberge,Scharstraat,13,51.3046790937,3.13496825157
8370,Blankenberge,IJzerstraat,65,51.3104701794,3.12308135441
8370,Blankenberge,L. Nuytemanslaan,24,51.3159550265,3.13833485863
8370,Blankenberge,J. De Meyerstraat,58,51.3111853549,3.12484319785
8370,Blankenberge,Reningepad,16,51.304714987,3.12261578079
8370,Blankenberge,A. Ruzettelaan,50,51.3186327286,3.14043926147
8370,Blankenberge,Blankenbergse Dijk,150B,51.2981698263,3.14097452282
8370,Blankenberge,A. Pauwelslaan,43,51.315216088,3.13984074063
8370,Blankenberge,Franchommelaan,82,51.3135724759,3.11898150667
8370,Blankenberge,Sint Elooistraat,8,51.3067949274,3.13513405336
8370,Blankenberge,de Smet de Naeyerlaan,137,51.3119075262,3.12879541293
8370,Blankenberge,Blankenbergse Dijk,122,51.3027003383,3.14030483103
8370,Blankenberge,Hanneusestraat,23,51.3142804935,3.13507325909
8370,Blankenberge,Oudstrijdersstraat,25,51.3080665022,3.12176293877
8370,Blankenberge,Prinsenlaan,27,51.3156900549,3.13651194562
8370,Blankenberge,Consciencestraat,33,51.3138590861,3.12492409032
8370,Blankenberge,Sprotstraat,2,51.3047762608,3.13665247137
8370,Blankenberge,F. Feverystraat,7,51.300962073,3.14904220984
8370,Blankenberge,Steenstraat,2,51.3135023254,3.13148872217
8370,Blankenberge,Kerkstraat,236,51.3083266749,3.13790653805
8370,Blankenberge,A. Ruzettelaan,67,51.3177242619,3.13944946921
8370,Blankenberge,Willem Van Heckehelling,4,51.314308381,3.12088801211
8370,Blankenberge,Ontmijnersstraat,123,51.3085414754,3.13254719863
8370,Blankenberge,K. Deswertlaan,48,51.310580641,3.13042309504
8370,Blankenberge,B. Vandammestraat,39,51.3047140946,3.13875923538
8370,Blankenberge,Houthulststraat,34,51.308854162,3.12197791851
8370,Blankenberge,Dr Fr. Verhaeghestraat,4,51.3087213796,3.12477449483
8370,Blankenberge,Blankenbergse Dijk,104,51.3030815344,3.14006676071
8370,Blankenberge,Evendijk-West,61,51.3063404426,3.13895864618
8370,Blankenberge,Kerkstraat,354,51.3059812075,3.14041274414
8370,Blankenberge,Zeedijk,153,51.3166261669,3.13072848314
8370,Blankenberge,Scharebrugstraat,121,51.3078918061,3.13090105945
8370,Blankenberge,Mgr. Waffelaertlaan,27,51.3120162744,3.13792704059
8370,Blankenberge,Gruttolaan,5,51.3034839453,3.14851954955
8370,Blankenberge,Consciencestraat,15,51.3133753021,3.12424091406
8370,Blankenberge,J. Vande Puttelaan,28,51.311428984,3.13751829771
8370,Blankenberge,Zeedijk,56,51.3139883519,3.11958985731
8370,Blankenberge,Van Beersstraat,5,51.3145472722,3.12504068149
8370,Blankenberge,Serg. De Bruynestraat,61,51.3122545766,3.12451227156
8370,Blankenberge,Groenestraat,52,51.3146645168,3.13996316806
8370,Blankenberge,Verweehelling,6,51.3180823654,3.13807779787
8370,Blankenberge,Langestraat,7,51.3142239889,3.12725901019
8370,Blankenberge,Zeedijk,171,51.3174219161,3.13404854834
8370,Blankenberge,Vlaamsestraat,10,51.3117228535,3.1279504958
8370,Blankenberge,Vrijheidsstraat,6,51.3122342776,3.12244320651
8370,Blankenberge,A. Ruzettelaan,85,51.3180322593,3.1401369308
8370,Blankenberge,Nieuwpoortstraat,14,51.3091809168,3.12277220254
8370,Blankenberge,Koning Albert-I-laan,12,51.3134154342,3.13419926963
8370,Blankenberge,Willem Tellstraat,90,51.3061741219,3.13665463513
8370,Blankenberge,J. de Troozlaan,80,51.3170429169,3.13515268113
8370,Blankenberge,Smedenstraat,13,51.3145565729,3.12385431929
8370,Blankenberge,Vanderstichelenstraat,7,51.3139167871,3.12361309364
8370,Blankenberge,J. de Troozlaan,62,51.3166350879,3.13454953469
8370,Blankenberge,Sneppenlaan,9,51.309106205,3.15081800425
8370,Blankenberge,Weststraat,131,51.3123195301,3.13083597565
8370,Blankenberge,Blankenbergse Dijk,6,51.3039564617,3.1391131012
8370,Blankenberge,Ramstraat,24,51.3025944712,3.14852995073
8370,Blankenberge,Oudstrijdersstraat,10,51.3090912856,3.1236867791
8370,Blankenberge,Astridlaan,3,51.3171335308,3.13896830655
8370,Blankenberge,P. Benoitstraat,12,51.3141276619,3.12604449379
8370,Blankenberge,Van Maerlantstraat,3,51.3108585332,3.1262773328
8370,Blankenberge,Langestraat,37,51.3148234919,3.12862508382
8370,Blankenberge,Onderwijsstraat,11,51.3149255912,3.13095401341
8370,Blankenberge,Ontmijnersstraat,19,51.311488616,3.13149576446
8370,Blankenberge,Adriaan Brouwerlaan,10,51.3101454285,3.14746948925
8370,Blankenberge,Zeedijk,74,51.3145168521,3.12125608796
8370,Blankenberge,Serg. De Bruynestraat,43,51.3119662117,3.12402542103
8370,Blankenberge,Kerkstraat,182,51.3098306914,3.13610894839
8370,Blankenberge,Zuidlaan,58,51.3096104922,3.13183281091
8370,Blankenberge,Dr Fr. Verhaeghestraat,14,51.3086617564,3.12524335938
8370,Blankenberge,L. Dujardinstraat,13,51.3120548709,3.12466993488
8370,Blankenberge,Parkstraat,60,51.3145235634,3.12476017072
8370,Blankenberge,Memlinglaan,4,51.3109286199,3.14758735442
8370,Blankenberge,Fabiolapark,41,51.3041614208,3.14573301352
8370,Blankenberge,M. Pyckstraat,13,51.3084872804,3.13153163168
8370,Blankenberge,K. Deswertlaan,107,51.3076115647,3.12828307343
8370,Blankenberge,A. Rodenbachstraat,25,51.3085890246,3.12374409731
8370,Blankenberge,Van Dijcklaan,7,51.3098184355,3.14498920006
8370,Blankenberge,J. de Troozlaan,44,51.3160755777,3.13379693548
8370,Blankenberge,Jean Jaurèslaan,40,51.3118712894,3.15045794644
8370,Blankenberge,Ontmijnersstraat,37,51.3110321253,3.13164946077
8370,Blankenberge,Alkenlaan,7,51.3088247022,3.14826154639
8370,Blankenberge,Zeedijk,92,51.3150607106,3.12319706775
8370,Blankenberge,Jordaenslaan,15,51.3117430872,3.14509825045
8370,Blankenberge,Evendijk-Oost,79,51.3066858829,3.14015292851
8370,Blankenberge,Meeuwenlaan,25,51.3063940422,3.14873714553
8370,Blankenberge,Rood-Kruisstraat,5,51.3086366934,3.12671956167
8370,Blankenberge,de Limburg Stirumstraat,10,51.3121868769,3.12586508272
8370,Blankenberge,Oudengemse Laan,3,51.3146134838,3.14959439542
8370,Blankenberge,Ruiterstraat,29,51.302700671,3.14157767567
8370,Blankenberge,Kerkstraat,218,51.3088483666,3.13725293695
8370,Blankenberge,Langestraat,19,51.3144386496,3.12761059614
8370,Blankenberge,Ontmijnersstraat,105,51.3089696714,3.13248161566
8370,Blankenberge,Weststraat,113,51.3122912683,3.12980873677
8370,Blankenberge,Haringstraat,18,51.3041951842,3.13596026792
8370,Blankenberge,A. Pauwelslaan,23,51.3149255703,3.13886282179
8370,Blankenberge,Jordaenslaan,33,51.3125547741,3.14659258568
8370,Blankenberge,M. Pyckstraat,31,51.3085418606,3.13067222941
8370,Blankenberge,Scharstraat,3,51.3049005305,3.1357657722
8370,Blankenberge,Jordaenslaan,68,51.3109722006,3.14851089947
8370,Blankenberge,Evendijk-West,43,51.3060453703,3.13803654087
8370,Blankenberge,Schelvisstraat,14,51.3055563409,3.13487129324
8370,Blankenberge,B. Vandammestraat,50,51.3042560206,3.13860541113
8370,Blankenberge,Kerkstraat,85,51.3140638397,3.12996080153
8370,Blankenberge,Parkstraat,42,51.3141828186,3.12432719414
8370,Blankenberge,Vredelaan,23,51.3098594749,3.12258824233
8370,Blankenberge,J. Vande Puttelaan,1,51.312523971,3.13563329928
8370,Blankenberge,Zeedijk,207,51.3182205425,3.13733450697
8370,Blankenberge,Marnixstraat,7,51.3118865625,3.12812355898
8370,Blankenberge,Scharebrugstraat,95,51.3072053373,3.13317972206
8370,Blankenberge,de Limburg Stirumstraat,45,51.3110130627,3.12506050785
8370,Blankenberge,Fabiolapark,9,51.3037523208,3.1454459018
8370,Blankenberge,Uitkerkestraat,38,51.3064147268,3.13670276642
8370,Blankenberge,de Smet de Naeyerlaan,41,51.3126376856,3.1230387077
8370,Blankenberge,B. Vandammestraat,40,51.3044852198,3.13920038544
8370,Blankenberge,Kerkstraat,272,51.3074605291,3.13874390901
8370,Blankenberge,Generaal Lemanstraat,12,51.313744761,3.12707800449
8370,Blankenberge,de Smet de Naeyerlaan,145,51.3116635541,3.12891550871
8370,Blankenberge,Breeweg,20,51.3114992798,3.16130414839
8370,Blankenberge,Rood-Kruisstraat,62,51.3069095634,3.12661561776
8370,Blankenberge,Forthoekstraat,13,51.3077901152,3.13347513847
8370,Blankenberge,Marie-Josélaan,20,51.3143117705,3.13438191046
8370,Blankenberge,Grote Markt,18,51.313855401,3.12585826238
8370,Blankenberge,Scharebrugstraat,59,51.3061149626,3.13417455355
8370,Blankenberge,Zeebruggelaan,94,51.3109419685,3.15057936525
8370,Blankenberge,Talingpad,10,51.3045965238,3.14931170103
8370,Blankenberge,Charles Huysstraat,19,51.3055305756,3.13860156925
8370,Blankenberge,Hugo Verriestlaan,4,51.3123988791,3.14223041213
8370,Blankenberge,Scharebrugstraat,77,51.3067371001,3.1336125012
8370,Blankenberge,Zwarte Leeuwstraat,33,51.3040925217,3.14125991513
8370,Blankenberge,Schaapstraat,52,51.3020755951,3.14772572651
8370,Blankenberge,Ruiterstraat,39,51.3026351787,3.14112151347
8370,Blankenberge,Vlaamsestraat,25,51.3115498475,3.12797131435
8370,Blankenberge,Kerkstraat,422,51.3045551911,3.14253539385
8370,Blankenberge,Vredelaan,58,51.3089732233,3.12573056997
8370,Blankenberge,Reigerpad,5,51.3034416907,3.14996045268
8370,Blankenberge,Charlierhelling,12,51.3164556918,3.13169783893
8370,Blankenberge,Vramboutstraat,6,51.3126856394,3.13121236807
8370,Blankenberge,Franchommelaan,2,51.3123832655,3.11524310947
8370,Blankenberge,Smedenstraat,9,51.3145916229,3.12375082161
8370,Blankenberge,Kerkstraat,290,51.3070156977,3.1392338131
8370,Blankenberge,Graaf Jansdijk,41,51.3175857746,3.13559288865
8370,Blankenberge,Meiboomstraat,14,51.300824373,3.15024964166
8370,Blankenberge,Pervijzepad,43,51.3050374303,3.1203177261
8370,Blankenberge,Zeebruggelaan,76,51.3097903633,3.1475054799
8370,Blankenberge,Rood-Kruisstraat,44,51.3074939728,3.12677126981
8370,Blankenberge,Zeedijk,48,51.3138462326,3.11903569299
8370,Blankenberge,Park De Craene,16,51.3047923187,3.14436896031
8370,Blankenberge,Parkstraat,24,51.3139204609,3.12399712522
8370,Blankenberge,Koninginlaan,23,51.3143254945,3.1338267207
8370,Blankenberge,Grote-Edestraat,62,51.3080580181,3.11707788398
8370,Blankenberge,J. Van Paemelstraat,10,51.3113937865,3.1382406856
8370,Blankenberge,J. De Meyerstraat,43,51.3109656657,3.12400498214
8370,Blankenberge,Polderlaan,7,51.3157030353,3.14812339166
8370,Blankenberge,IJzerstraat,27,51.3115750585,3.12226062245
8370,Blankenberge,Zwarte Leeuwstraat,15,51.3046288718,3.14111699442
8370,Blankenberge,Ontmijnersstraat,91,51.3097726507,3.13161666268
8370,Blankenberge,Willem Tellstraat,80,51.3067876241,3.13606502129
8370,Blankenberge,Molenstraat,10,51.3140724647,3.12792344601
8370,Blankenberge,Grote Markt,1,51.3131092652,3.12420255626
8370,Blankenberge,A. Ruzettelaan,12,51.3182433752,3.13870257795
8370,Blankenberge,Weststraat,121,51.3124567002,3.13045667383
8370,Blankenberge,Elisabethstraat,12,51.3152677512,3.13158524537
8370,Blankenberge,Charles Huysstraat,37,51.3050831947,3.13909697135
8370,Blankenberge,Stationsstraat,52,51.3143631209,3.13564497321
8370,Blankenberge,Zeedijk,153A,51.3166023144,3.13074274496
8370,Blankenberge,L. Dujardinstraat,9,51.312433672,3.12431800824
8370,Blankenberge,Frans Masereellaan,6,51.3123858468,3.14289973042
8370,Blankenberge,J. De Meyerstraat,61,51.3108773284,3.12456413788
8370,Blankenberge,Willem Tellstraat,16,51.3090321789,3.13410595045
8370,Blankenberge,M. Pyckstraat,9,51.3084139909,3.13204588197
8370,Blankenberge,Duindistellaan,12,51.3032015628,3.13733200457
8370,Blankenberge,Scharebrugstraat,113,51.3078956372,3.13135402222
8370,Blankenberge,Koning Boudewijnlaan,34,51.3134806172,3.14184518549
8370,Blankenberge,Rubenslaan,12,51.3102788049,3.14633349026
8370,Blankenberge,Mametstraat,34,51.3116317114,3.12508658113
8370,Blankenberge,Vanderstichelenstraat,27,51.3143109722,3.12422120875
8370,Blankenberge,de Smet de Naeyerlaan,4,51.3130495119,3.12393105074
8370,Blankenberge,Ontmijnersstraat,7,51.3117647331,3.1314408072
8370,Blankenberge,Irisstraat,6,51.3030846677,3.1366368556
8370,Blankenberge,Vredelaan,112,51.3095329731,3.12209154935
8370,Blankenberge,Rerum Novarumstraat,32,51.3072493049,3.13679025465
8370,Blankenberge,B. Vandammestraat,29,51.3048135181,3.13911456179
8370,Blankenberge,K. Deswertlaan,38,51.3108179005,3.1305810111
8370,Blankenberge,L. Nuytemanslaan,42,51.316154921,3.13908596337
8370,Blankenberge,J. Soetestraat,66,51.3065272158,3.11839730565
8370,Blankenberge,Willem Tellstraat,62,51.3072756042,3.1355504256
8370,Blankenberge,Weststraat,70,51.3139346855,3.12763407237
8370,Blankenberge,J. Vande Puttelaan,64,51.3096780286,3.13795772975
8370,Blankenberge,Hugo Verriestlaan,41,51.3101527408,3.14371811395
8370,Blankenberge,Frans Masereellaan,10,51.312691424,3.14257254234
8370,Blankenberge,Gruttolaan,16,51.3038039267,3.14890883252
8370,Blankenberge,Langestraat,91,51.3160644057,3.13122582959
8370,Blankenberge,Franchommelaan,28,51.3129611172,3.11675873412
8370,Blankenberge,de Limburg Stirumstraat,25,51.3116858064,3.12529024407
8370,Blankenberge,Scharebrugstraat,131,51.3079118095,3.13046668115
8370,Blankenberge,Ieperstraat,20,51.3084791446,3.12076671897
8370,Blankenberge,Egelantierenhof,14,51.3067562927,3.14720815924
8370,Blankenberge,Schaapstraat,70,51.3011522607,3.14802698303
8370,Blankenberge,P. Devauxstraat,23,51.3130328716,3.1316492243
8370,Blankenberge,Blankenbergse Dijk,61,51.3032083784,3.13926980753
8370,Blankenberge,Meeuwenlaan,10,51.3081838645,3.15009691724
8370,Blankenberge,Gruttolaan,44,51.3038491959,3.15054822507
8370,Blankenberge,Lissewegestraat,51,51.3050760252,3.15762342757
8370,Blankenberge,Koninginlaan,58,51.3159033513,3.13549874356
8370,Blankenberge,Pierstraat,15,51.3140124878,3.13642667923
8370,Blankenberge,A. Rodenbachstraat,10,51.3088307385,3.12459071617
8370,Blankenberge,Rogierlaan,24,51.3165584199,3.13368744336
8370,Blankenberge,Willem Tellstraat,44,51.3081828068,3.13460922032
8370,Blankenberge,Diksmuidestraat,31,51.3085348789,3.12129617542
8370,Blankenberge,Malecotstraat,30,51.3154850074,3.13280749264
8370,Blankenberge,J. Vande Puttelaan,46,51.3108421189,3.13819789416
8370,Blankenberge,Blankenbergse Dijk,130,51.3019050564,3.14096437731
8370,Blankenberge,A. Rodenbachstraat,45,51.3080904033,3.12335212205
8370,Blankenberge,A. Ruzettelaan,40,51.3185155105,3.14007511551
8370,Blankenberge,Serg. De Bruynestraat,23,51.3114763754,3.12310047462
8370,Blankenberge,Scarphoutdreef,14,51.3106868267,3.13342309707
8370,Blankenberge,Duindistellaan,40,51.3031821445,3.13461842392
8370,Blankenberge,Landdijk,12,51.307979328,3.13013200641
8370,Blankenberge,Zeedijk,1,51.3125746419,3.11445221861
8370,Blankenberge,Talingpad,6,51.3047512718,3.14929832686
8370,Blankenberge,Vramboutstraat,10,51.312764499,3.13140405291
8370,Blankenberge,Akkerstraat,37,51.3075744171,3.12784304852
8370,Blankenberge,Landdijk,3,51.3084701027,3.1293454754
8370,Blankenberge,Bakkersstraat,8,51.3155599019,3.12721735923
8370,Blankenberge,Zeedijk,36,51.3135255957,3.11788632486
8370,Blankenberge,Nieuwstraat,24,51.3148345894,3.12700604793
8370,Blankenberge,Kemmelbergstraat,57,51.3063259661,3.12207716561
8370,Blankenberge,Houthulststraat,16,51.3093049224,3.12169075907
8370,Blankenberge,Notebaertstraat,5,51.3130116781,3.12689731932
8370,Blankenberge,Diksmuidestraat,4,51.308382003,3.12164950405
8370,Blankenberge,De Saedeleerhelling,12,51.318437463,3.13912809385
8370,Blankenberge,Kemmelbergstraat,75,51.3053122259,3.1227855168
8370,Blankenberge,Marie-Josélaan,7,51.3145571078,3.13336558288
8370,Blankenberge,Zuidlaan,43,51.3094813265,3.133359417
8370,Blankenberge,de Smet de Naeyerlaan,110,51.3120431184,3.13087129466
8370,Blankenberge,Serg. De Bruynestraat,58,51.3123018273,3.12400396934
8370,Blankenberge,Gruttolaan,34,51.303832492,3.1499989825
8370,Blankenberge,De Langheplein,4,51.3099123716,3.12407201038
8370,Blankenberge,Onderwijsstraat,2,51.3150867836,3.131187842
8370,Blankenberge,Frans Regoudthelling,4,51.3130197376,3.11637676399
8370,Blankenberge,Van Maerlantstraat,75,51.3121869607,3.12782065462
8370,Blankenberge,Mametstraat,16,51.3117678568,3.12436305707
8370,Blankenberge,Langestraat,13A,51.3142634662,3.12746637577
8370,Blankenberge,Diksmuidestraat,13,51.3088130108,3.12221911119
8370,Blankenberge,Koninginlaan,112,51.317117968,3.13810099797
8370,Blankenberge,B. Vandammestraat,12,51.3049836865,3.14016342208
8370,Blankenberge,De Saedeleerhelling,3,51.3184851992,3.13867782609
8370,Blankenberge,A. Ruzettelaan,189,51.3203385416,3.14972433869
8370,Blankenberge,Breydelstraat,19,51.3150264052,3.12598378155
8370,Blankenberge,Kerkstraat,40,51.3149119387,3.12974186187
8370,Blankenberge,J. Soetestraat,9,51.3071977702,3.12076348776
8370,Blankenberge,Groenestraat,32,51.3146643056,3.13904127922
8370,Blankenberge,Vissersstraat,53,51.315289482,3.12826281266
8370,Blankenberge,Ploegstraat,7,51.3018917141,3.14214994194
8370,Blankenberge,A. Rodenbachstraat,6,51.3089351566,3.12465562193
8370,Blankenberge,Akkerstraat,19,51.3080758658,3.12780243432
8370,Blankenberge,Vlaamsestraat,21B,51.3114838045,3.12788816301
8370,Blankenberge,Meeuwenlaan,6,51.308498893,3.14999630849
8370,Blankenberge,Bakkersstraat,18,51.3152139507,3.12753943441
8370,Blankenberge,Langestraat,73,51.3157123256,3.1306347308
8370,Blankenberge,J. de Troozlaan,79,51.3165887104,3.1352497812
8370,Blankenberge,Ieperstraat,7,51.3090159816,3.12084297367
8370,Blankenberge,Van Maerlantstraat,93,51.3129359236,3.12878882123
8370,Blankenberge,Vrijheidsstraat,15,51.3121207007,3.12297795514
8370,Blankenberge,Duindistellaan,29,51.3035031954,3.13639331951
8370,Blankenberge,Prinsenlaan,65,51.3142283201,3.13702341243
8370,Blankenberge,Platanenhoek,8,51.3131844747,3.14134680333
8370,Blankenberge,J. de Troozlaan,26,51.3148580076,3.13254916082
8370,Blankenberge,Ooststraat,6,51.3142593619,3.14044807312
8370,Blankenberge,Pladijsstraat,9,51.3045465728,3.13465568758
8370,Blankenberge,Ontmijnersstraat,20,51.3088314228,3.13305983936
8370,Blankenberge,Graaf Jansdijk,13,51.3168492421,3.13292160604
8370,Blankenberge,Park De Craene,34,51.3051109974,3.1437781877
8370,Blankenberge,R. Brulezstraat,3,51.3134878052,3.13364769835
8370,Blankenberge,Weststraat,52,51.3143391654,3.12668633745
8370,Blankenberge,Franchommelaan,56,51.3131980168,3.11769818727
8370,Blankenberge,A. Ruzettelaan,29,51.3173274807,3.13733661338
8370,Blankenberge,Jean Jaurèslaan,22,51.3126550972,3.15019015516
8370,Blankenberge,Ontmijnersstraat,55,51.3106911532,3.13170900767
8370,Blankenberge,Kerkstraat,136,51.3107834643,3.13486457688
8370,Blankenberge,Prinsenlaan,30,51.3160361192,3.13695951492
8370,Blankenberge,Schorreveld,16,51.3150175801,3.1489331618
8370,Blankenberge,Badersstraat,11,51.3143675919,3.12324430007
8370,Blankenberge,Oudstrijdersstraat,6,51.3091542916,3.12378004118
8370,Blankenberge,Groenestraat,14,51.3146098467,3.13841043103
8370,Blankenberge,Adriaan Brouwerlaan,6,51.310354975,3.14794131882
8370,Blankenberge,Colombus,67,51.3083773365,3.14483862068
8370,Blankenberge,Scharebrugstraat,5,51.3051361919,3.13639298113
8370,Blankenberge,De Wandelaar,24,51.3141901964,3.14601778051
8370,Blankenberge,Hugo Verriestlaan,76,51.3094732717,3.14466079388
8370,Blankenberge,Haringstraat,21,51.3039209807,3.13656252647
8370,Blankenberge,Ontmijnersstraat,73,51.3102691924,3.13186378991
8370,Blankenberge,Langestraat,20,51.314628523,3.12750942855
8370,Blankenberge,Sint Elooistraat,10,51.3067633627,3.13505514997
8370,Blankenberge,Jordaenslaan,51,51.3105098164,3.14849576654
8370,Blankenberge,L. Van Sluysstraat,4,51.3117744042,3.13751461335
8370,Blankenberge,Prinses Paolalaan,1,51.3123123002,3.1394437707
8370,Blankenberge,de Smet de Naeyerlaan,163,51.3117941739,3.131161049
8370,Blankenberge,Graaf Jansdijk,31,51.3175283097,3.13442457751
8370,Blankenberge,Vrijheidsstraat,33,51.3123205136,3.12360916928
8370,Blankenberge,Stationsstraat,24,51.3139830049,3.13408581966
8370,Blankenberge,Kerkstraat,201,51.3101589832,3.13489102304
8370,Blankenberge,Rubenslaan,3,51.3105082589,3.14560616727
8370,Blankenberge,Langestraat,55,51.3152475823,3.12958546948
8370,Blankenberge,J. Van Paemelstraat,6,51.3113149391,3.13810106009
8370,Blankenberge,de Smet de Naeyerlaan,13,51.3124311633,3.12206041622
8370,Blankenberge,Kerkstraat,189,51.3104314218,3.13457758441
8370,Blankenberge,Guido Gezellestraat,38,51.3107049105,3.12456386885
8370,Blankenberge,Zeedijk,196,51.3179860626,3.13638776343
8370,Blankenberge,Parkstraat,59,51.3144175233,3.12487474445
8370,Blankenberge,Forthoekstraat,4,51.3077975957,3.13433115667
8370,Blankenberge,Tenierslaan,3,51.3119012174,3.14690291706
8370,Blankenberge,de Smet de Naeyerlaan,76,51.3121630762,3.12908608789
8370,Blankenberge,Duindistellaan,3,51.3035144601,3.13787512834
8370,Blankenberge,Albertstraat,39,51.3160570005,3.13167902705
8370,Blankenberge,L. Van Audenaerdestraat,7,51.3088176934,3.13164031534
8370,Blankenberge,Stationsstraat,77,51.3143117709,3.13692251791
8370,Blankenberge,Zeebruggelaan,41,51.3058386716,3.14270796662
8370,Blankenberge,Zuidlaan,61,51.309264331,3.13217905456
8370,Blankenberge,Brugse Steenweg,85,51.2981965279,3.14865966338
8370,Blankenberge,A. Stroobandtstraat,2,51.3088790424,3.14743687532
8370,Blankenberge,A. Ruzettelaan,3,51.3170953606,3.13624508604
8370,Blankenberge,Kerkstraat,254,51.3078471324,3.13828235382
8370,Blankenberge,Zeebruggelaan,109,51.3095492488,3.14844593009
8370,Blankenberge,Van Monsstraat,29,51.3162708441,3.13362621877
8370,Blankenberge,Kerkstraat,39,51.3152464093,3.12893168758
8370,Blankenberge,Grote-Edestraat,44,51.3066652826,3.11568975866
8370,Blankenberge,Groenestraat,49,51.3143422897,3.1398801584
8370,Blankenberge,Hugo Verriestlaan,31,51.3106588072,3.14355864507
8370,Blankenberge,Albertstraat,29,51.3159298204,3.13134488053
8370,Blankenberge,A. Pauwelslaan,51,51.3153370419,3.14019228208
8370,Blankenberge,Mametstraat,44,51.3115299932,3.12596466163
8370,Blankenberge,B. Vandammestraat,57,51.3044375813,3.13822215735
8370,Blankenberge,Mametstraat,31A,51.3113756568,3.12463745319
8370,Blankenberge,Prinses Paolalaan,8,51.312700381,3.13949706522
8370,Blankenberge,A. Rodenbachstraat,17,51.3087854113,3.12388671535
8370,Blankenberge,Charles Huysstraat,30,51.3055739418,3.13922025397
8370,Blankenberge,J. de Troozlaan,54,51.3163590622,3.13414717016
8370,Blankenberge,Consciencestraat,50,51.3143106906,3.12501659246
8370,Blankenberge,Luikstraat,15,51.3131375119,3.12742783361
8370,Blankenberge,Zeedijk,233,51.3188408112,3.13978693805
8370,Blankenberge,Merkempad,5,51.3060963007,3.12110450708
8370,Blankenberge,Dumonstraat,14,51.3082826913,3.13657173168
8370,Blankenberge,A. Ruzettelaan,101,51.3182648289,3.14100627973
8370,Blankenberge,Meeuwenlaan,35,51.305523197,3.1489154213
8370,Blankenberge,Van Monsstraat,3,51.3169717042,3.13477959483
8370,Blankenberge,Hugo Verriestlaan,13,51.3115518027,3.14225487898
8370,Blankenberge,Platanenhoek,1,51.3134700641,3.14063514115
8370,Blankenberge,Hoogstraat,5,51.3154771573,3.12915447842
8370,Blankenberge,K. Deswertlaan,66,51.3100960484,3.1300810017
8370,Blankenberge,Notebaertstraat,16,51.3130291589,3.12729603603
8370,Blankenberge,Zeebruggelaan,163,51.3132870462,3.15848215325
8370,Blankenberge,Astridlaan,12,51.317222616,3.13963585883
8370,Blankenberge,Grote Markt,11,51.3134541453,3.12498669014
8370,Blankenberge,Kerkstraat,279,51.3077398134,3.1378248131
8370,Blankenberge,Vanderstichelenstraat,20,51.3144257133,3.12380531929
8370,Blankenberge,Zuidlaan,33,51.3095533596,3.13381072965
8370,Blankenberge,Smedenstraat,2,51.3147696238,3.12389753574
8370,Blankenberge,Van Maerlantstraat,12,51.3102179448,3.12464816555
8370,Blankenberge,Zeedijk,215,51.3214506852,3.13639459482
8370,Blankenberge,de Smet de Naeyerlaan,94,51.311967246,3.12980416359
8370,Blankenberge,Lissewegestraat,23,51.3050866206,3.14811543836
8370,Blankenberge,Kerkstraat,380,51.3055658048,3.141331792
8370,Blankenberge,Franchommelaan,9,51.3147094888,3.12339293865
8370,Blankenberge,Meeuwenlaan,17,51.3073974547,3.14971836691
8370,Blankenberge,Willem Tellstraat,69,51.3062329774,3.13604714949
8370,Blankenberge,Rogierlaan,5,51.3162226793,3.13234308231
8370,Blankenberge,Generaal Lemanstraat,3,51.3134570252,3.12714778709
8370,Blankenberge,Scharebrugstraat,70,51.3075332656,3.13206769693
8370,Blankenberge,de Limburg Stirumstraat,6,51.3122872815,3.12589022849
8370,Blankenberge,Polderlaan,27,51.3139388045,3.15128770924
8370,Blankenberge,L. Nuytemanslaan,32,51.3160607677,3.1387012918
8370,Blankenberge,Blankenbergse Dijk,33,51.3042077274,3.13749541305
8370,Blankenberge,Kerkstraat,154,51.3102489252,3.13546579131
8370,Blankenberge,Pervijzepad,15,51.3053638345,3.12203423059
8370,Blankenberge,Kerkstraat,362,51.3059252,3.14061184596
8370,Blankenberge,J. Vande Puttelaan,18,51.311856243,3.13705088401
8370,Blankenberge,Franchommelaan,21,51.3149610008,3.124059672
8370,Blankenberge,K. Deswertlaan,84,51.309680498,3.12981682291
8370,Blankenberge,Van Dijcklaan,20,51.3097016858,3.14557471914
8370,Blankenberge,Koninginlaan,51,51.3152379728,3.13517985327
8370,Blankenberge,Oudengemse Laan,12,51.3140179784,3.14825234395
8370,Blankenberge,IJzerstraat,73,51.3103111092,3.12321354806
8370,Blankenberge,Willem van Saeftingestraat,26,51.3047822265,3.14677048626
8370,Blankenberge,Kerkstraat,326,51.3066612156,3.14104290298
8370,Blankenberge,Kerkstraat,101,51.3137046193,3.1303213533
8370,Blankenberge,Spoorwegstraat,14,51.3033764838,3.14658782101
8370,Blankenberge,Grote-Edestraat,34,51.3070281698,3.11719434411
8370,Blankenberge,IJzerstraat,20,51.3118033398,3.12253822025
8370,Blankenberge,Molenstraat,17,51.314489611,3.12934530002
8370,Blankenberge,J. De Meyerstraat,15,51.3110979711,3.12319895192
8370,Blankenberge,J. De Meyerstraat,33,51.3110095116,3.12372899784
8370,Blankenberge,Rood-Kruisstraat,34,51.3077407505,3.12685045237
8370,Blankenberge,Marie-Josélaan,27,51.3137318532,3.13444921098
8370,Blankenberge,Dumonstraat,32,51.3077296063,3.13551990007
8370,Blankenberge,Oudengemse Laan,40,51.3140291413,3.15053473299
8370,Blankenberge,Bakkersstraat,1,51.3156628409,3.12654917563
8370,Blankenberge,De Wandelaar,5,51.3143458211,3.14500057864
8370,Blankenberge,Kerkstraat,344,51.3060135818,3.14095184443
8370,Blankenberge,J. de Troozlaan,7,51.3142050227,3.13271266496
8370,Blankenberge,Pervijzepad,33,51.3051056528,3.12088897136
8370,Blankenberge,Weststraat,24,51.3149547902,3.12532657641
8370,Blankenberge,Duindistellaan,57,51.3034963577,3.13451831612
8370,Blankenberge,Kerkstraat,308,51.3064982031,3.13991177927
8370,Blankenberge,M. Pyckstraat,2,51.3081981403,3.13209593231
8370,Blankenberge,Zeedijk,8,51.3128784742,3.11570942647
8370,Blankenberge,L. Nuytemanslaan,14,51.3158278168,3.13793542868
8370,Blankenberge,Scharebrugstraat,52,51.3072917794,3.13258152498
8370,Blankenberge,Weststraat,77,51.313831056,3.12730950797
8370,Blankenberge,P. Benoitstraat,3,51.3141031777,3.12568124117
8370,Blankenberge,L. Nuytemanslaan,49,51.3158413963,3.13928732113
8370,Blankenberge,J. De Meyerstraat,68,51.3109776874,3.12551870752
8370,Blankenberge,Kerkstraat,297,51.3071519436,3.13845977538
8370,Blankenberge,Pladijsstraat,12,51.3048570898,3.13480492302
8370,Blankenberge,Van Maerlantstraat,40,51.3110974778,3.12585802034
8370,Blankenberge,Malecotstraat,19,51.315344141,3.13253983797
8370,Blankenberge,Parkstraat,5,51.3135540373,3.12378129444
8370,Blankenberge,Talingpad,17,51.3044158549,3.14882410933
8370,Blankenberge,Woumenpad,2,51.3061614169,3.12060396404
8370,Blankenberge,IJzerstraat,55,51.3107550411,3.12288368902
8370,Blankenberge,Jordaenslaan,23,51.3120502686,3.14516963859
8370,Blankenberge,Pierstraat,25,51.3138028134,3.13646565045
8370,Blankenberge,Macquynstraat,31,51.3072973238,3.14318199114
8370,Blankenberge,de Smet de Naeyerlaan,109,51.3122801241,3.12710286658
8370,Blankenberge,Leopoldhelling,4,51.3148501265,3.12276419984
8370,Blankenberge,A. Pauwelslaan,15,51.3148339573,3.13848913867
8370,Blankenberge,Descampsstraat,31,51.3151852684,3.1327781552
8370,Blankenberge,Kerkstraat,93,51.3139976983,3.13030681535
8370,Blankenberge,Kerkstraat,208,51.3090607751,3.13685419457
8370,Blankenberge,Vredelaan,33,51.309976105,3.1217799217
8370,Blankenberge,Parkstraat,52,51.3143695752,3.12456303854
8370,Blankenberge,J. Ponjaertstraat,20,51.3125201329,3.13760763124
8370,Blankenberge,Onderwijsstraat,9,51.3149323435,3.13087752276
8370,Blankenberge,A. Ruzettelaan,57,51.3174508081,3.13854822488
8370,Blankenberge,A. Pauwelslaan,33,51.315073799,3.13939968268
8370,Blankenberge,Evendijk-West,51,51.3061812201,3.13842820129
8370,Blankenberge,Rood-Kruisstraat,16,51.3082827893,3.12704610738
8370,Blankenberge,Blankenbergse Dijk,112,51.3028475445,3.14015367134
8370,Blankenberge,Boezingepad,25,51.3064148695,3.12024106798
8370,Blankenberge,Doornhaagstraat,173,51.3173178824,3.17536205423
8370,Blankenberge,J. Soetestraat,2,51.3070600167,3.12125523146
8370,Blankenberge,Nieuwpoortstraat,24,51.3089650685,3.12279648047
8370,Blankenberge,Vrijheidsstraat,43,51.3124528703,3.12395474913
8370,Blankenberge,Zuidlaan,68,51.3095439905,3.13136959269
8370,Blankenberge,IJzerstraat,91,51.309939406,3.12348782742
8370,Blankenberge,Nieuwstraat,5,51.3144817301,3.12672011531
8370,Blankenberge,Ontmijnersstraat,27,51.3113790481,3.13160022533
