PKANCODE,COMMUNE_NL,STREET_NL,HUISNR,LAT,LON
8400,Oostende,Albatrosstraat,11,51.2066738396,2.9315031384
8400,Oostende,Schapenstraat,3,51.2130061407,2.90914705694
8400,Oostende,Ruitingenstraat,6,51.2341663302,2.94571971735
8400,Oostende,Spalaan,61,51.2086800469,2.88111812714
8400,Oostende,Zilverlaan,31,51.203447988,2.91574645777
8400,Oostende,Leopold II-laan,18,51.230191936,2.91349735076
8400,Oostende,Biekorfstraat,22,51.2184950468,2.95949999102
8400,Oostende,Zwaluwenstraat,49,51.2175556237,2.90898852798
8400,Oostende,Jan-van-gentstraat,9,51.2068496155,2.929597709
8400,Oostende,Cyclamenlaan,7,51.2125988858,2.91985726169
8400,Oostende,Madeliefjeslaan,24,51.2110032241,2.87596117188
8400,Oostende,Constant Permekelaan,5,51.2157650083,2.91713580526
8400,Oostende,Eduard Hammanstraat,11,51.2291651219,2.94210098258
8400,Oostende,Blauwkasteelstraat,64,51.2167082197,2.90955728863
8400,Oostende,Rogierlaan,31,51.2269721216,2.91127617176
8400,Oostende,Prins Roselaan,77,51.2098706155,2.89032176389
8400,Oostende,Eendrachtstraat,85,51.2132113298,2.90331238641
8400,Oostende,Velodroomstraat,8,51.2246363331,2.906797298
8400,Oostende,Dokter Verhaeghestraat,46,51.217141916,2.90269575894
8400,Oostende,Kapellestraat,84,51.2285623494,2.92107751405
8400,Oostende,Sint-Franciscusstraat,31,51.2316750204,2.92099277069
8400,Oostende,Oostendse-Haardstraat,39,51.2169373691,2.89486050265
8400,Oostende,Keignaertlaan,61,51.2002809955,2.96715784969
8400,Oostende,Torhoutsesteenweg,430,51.2111886958,2.90590976369
8400,Oostende,Honoré Borgersstraat,93,51.2149051604,2.90138329765
8400,Oostende,Christinastraat,75,51.2304064417,2.91733958833
8400,Oostende,Stuiverstraat,274,51.2127137003,2.91218838387
8400,Oostende,Nieuwpoortsesteenweg,185,51.2209543872,2.90129821947
8400,Oostende,Aartshertogstraat,53,51.2162422604,2.88502565672
8400,Oostende,Oosthinderstraat,55,51.2389043553,2.94437769921
8400,Oostende,Gelijkheidstraat,146B,51.2159061918,2.89902841584
8400,Oostende,Oesterbankstraat,7,51.2264460714,2.92395147664
8400,Oostende,Wittenonnenstraat,1,51.2317601767,2.91948917391
8400,Oostende,Havenstraat,17,51.2361189132,2.94754128025
8400,Oostende,Zandvoordestraat,96,51.21564046,2.93909690593
8400,Oostende,Edith Cavellstraat,5,51.2242090111,2.91396349384
8400,Oostende,Olmenlaan,14,51.2108933985,2.89898079639
8400,Oostende,Azalealaan,19,51.2126939745,2.9297656689
8400,Oostende,Distellaan,55,51.212301696,2.87663887807
8400,Oostende,Albert I-Promenade,18,51.2350866691,2.91852742398
8400,Oostende,Sint-Paulusstraat,31,51.2297670217,2.91961655054
8400,Oostende,Zwanenlaan,50,51.2000507581,2.96966247511
8400,Oostende,Torhoutsesteenweg,412,51.2117874156,2.90603856027
8400,Oostende,Stuiverstraat,14,51.2201699571,2.90063573684
8400,Oostende,Stenenstraat,74,51.2166381175,2.91415679906
8400,Oostende,Peter Benoitstraat,10,51.2248123844,2.91106819823
8400,Oostende,Gouwelozestraat,18,51.2178970619,2.92682618402
8400,Oostende,Bronstraat,49,51.2133396275,2.91371014158
8400,Oostende,Dokter Verhaeghestraat,64,51.2172909102,2.90110326043
8400,Oostende,Bronstraat,67,51.2133634876,2.91472910628
8400,Oostende,Jozef II-straat,5,51.2287919531,2.91742333933
8400,Oostende,Torhoutsesteenweg,673,51.1964306978,2.90063247565
8400,Oostende,Frère-Orbanstraat,235,51.216821241,2.92044901172
8400,Oostende,Rivierstraat,16,51.2163791496,2.92123085934
8400,Oostende,Leeuwerikenstraat,138,51.210362692,2.90777972627
8400,Oostende,Plantenstraat,22,51.2214163071,2.91050877036
8400,Oostende,Nieuwpoortsesteenweg,43,51.2233423432,2.9067502384
8400,Oostende,Wezellaan,12,51.1972785257,2.9732021026
8400,Oostende,Gerststraat,44,51.21858842,2.91045416409
8400,Oostende,Zeedijk,139,51.2196533745,2.88639954919
8400,Oostende,Rogierlaan,13,51.2273823299,2.91079386419
8400,Oostende,Tarwestraat,48,51.2178655095,2.91193389843
8400,Oostende,Middenlaan,37,51.2049428819,2.8620748872
8400,Oostende,Prinsenlaan,25,51.2213744341,2.91100642158
8400,Oostende,Nieuwedokstraat,10,51.2167934305,2.93519718005
8400,Oostende,Antwerpenstraat,3,51.2253598057,2.91277017982
8400,Oostende,Romestraat,42,51.2245061373,2.91613644306
8400,Oostende,Mijterlaan,22,51.2063213566,2.86530919459
8400,Oostende,Metselaarsstraat,33,51.2206133458,2.90323058323
8400,Oostende,Jules Peurquaetstraat,34,51.2260511667,2.91122434348
8400,Oostende,Duivenhokstraat,25,51.2201657721,2.90171857631
8400,Oostende,Distellaan,91,51.2135096754,2.87521150646
8400,Oostende,Nieuwpoortsesteenweg,576,51.2044310396,2.86366821944
8400,Oostende,Oud Vliegveld,11,51.208141603,2.90979844397
8400,Oostende,Stuiverstraat,256,51.2131449101,2.91145480081
8400,Oostende,Paul Michielslaan,75,51.2103874511,2.88578322556
8400,Oostende,Honoré Borgersstraat,75,51.2155934152,2.90136622911
8400,Oostende,Taboralaan,142,51.2377257713,2.94748056042
8400,Oostende,Perzikenlaan,7,51.2066101547,2.91339719354
8400,Oostende,Gistelsesteenweg,52,51.2131799722,2.92764614959
8400,Oostende,Sergeant De Bruynestraat,10B,51.2338862454,2.94843171681
8400,Oostende,Tarwestraat,89,51.2168428875,2.91080347355
8400,Oostende,Elzenlaan,5,51.2106609718,2.90270819323
8400,Oostende,Bosduiflaan,6,51.215386327,2.91790367115
8400,Oostende,Zeedijk,340,51.2080247058,2.86185957935
8400,Oostende,Sportstraat,20,51.2232955835,2.90390810222
8400,Oostende,Heilig-Hartplein,3,51.2214501889,2.90506353921
8400,Oostende,Berkenlaan,17,51.2100147533,2.89634029382
8400,Oostende,Nieuwpoortsesteenweg,329,51.2178100918,2.89438099822
8400,Oostende,Pycke de ten Aerdelaan,9,51.2114177392,2.88751271959
8400,Oostende,Oudenburgsesteenweg,27,51.2204156264,2.95514152579
8400,Oostende,Romestraat,60,51.2239372552,2.91676706916
8400,Oostende,Vlaanderenstraat,29,51.2333975854,2.91600395532
8400,Oostende,Havikstraat,25,51.2089729619,2.93548727377
8400,Oostende,Aartshertoginnestraat,47,51.2278635506,2.91822984944
8400,Oostende,Stenenstraat,56,51.217086458,2.91386468118
8400,Oostende,Kersenlaan,14,51.2107630356,2.89995718334
8400,Oostende,Hamsterstraat,32,51.1987825792,2.96983371152
8400,Oostende,Alfons Pieterslaan,11A,51.2265238611,2.91511817553
8400,Oostende,Gerststraat,62,51.2181148572,2.91031135856
8400,Oostende,Sprookjespad,10,51.2106027815,2.92071390068
8400,Oostende,Christinastraat,93,51.2299821954,2.91781557569
8400,Oostende,Stuiverstraat,422,51.2102128464,2.91620303736
8400,Oostende,Zwaluwenstraat,85,51.2173710642,2.91080400056
8400,Oostende,Graaf de Smet de Naeyerlaan,86,51.2249389826,2.9264789078
8400,Oostende,Victor Ghyselincklaan,17,51.2001400009,2.97205520074
8400,Oostende,Putstraat,5,51.2073569728,2.97683908701
8400,Oostende,Dokter Eduard Moreauxlaan,257,51.2378066867,2.9409396496
8400,Oostende,Prins Roselaan,95,51.2091684844,2.88966788972
8400,Oostende,Aimé Liebaertstraat,70,51.2295118488,2.94531620433
8400,Oostende,Euphrosina Beernaertstraat,75,51.2269092196,2.91017709217
8400,Oostende,Longchamplaan,126,51.2092828571,2.88572859576
8400,Oostende,Euphrosina Beernaertstraat,5,51.2286877251,2.91847626506
8400,Oostende,Frère-Orbanstraat,56,51.2204238676,2.91086448116
8400,Oostende,Frans Musinstraat,40,51.2241353603,2.90411939064
8400,Oostende,Blauwkasteelstraat,46,51.2167423585,2.90876862217
8400,Oostende,Lotuslaan,57,51.2081978495,2.92384631838
8400,Oostende,Verenigde-Natieslaan,19,51.2190499154,2.91836763668
8400,Oostende,Vooruitgangstraat,14,51.2262669621,2.92565796007
8400,Oostende,Limbalaan,21,51.2093146901,2.89774912866
8400,Oostende,Loodsenstraat,3,51.2331354636,2.94157870855
8400,Oostende,Leopold Van Tyghemlaan,4,51.217053909,2.88963459122
8400,Oostende,Voorhavenlaan,166,51.2325902689,2.94901762025
8400,Oostende,Roerdompstraat,6,51.2133337306,2.89698873162
8400,Oostende,Albert I-Promenade,36,51.23451496,2.9163261468
8400,Oostende,Taboralaan,5A,51.2407387363,2.9438381486
8400,Oostende,Epsomlaan,16,51.2102346003,2.88432731324
8400,Oostende,Vrijheidstraat,69A,51.2143876233,2.90496191872
8400,Oostende,Manitobalaan,1,51.2169567389,2.93077262707
8400,Oostende,Ieperstraat,31,51.2254162506,2.91617682081
8400,Oostende,Meeuwenlaan,7,51.2163051254,2.91657847854
8400,Oostende,Stuiverstraat,32,51.2197811106,2.90151779933
8400,Oostende,Torhoutsesteenweg,691,51.1953663824,2.89976711234
8400,Oostende,Van Iseghemlaan,40F,51.2323922269,2.91435759653
8400,Oostende,Slachtersstraat,37,51.2095402615,2.9067605193
8400,Oostende,Eendrachtstraat,67,51.2148950665,2.90376707705
8400,Oostende,Nieuwpoortsesteenweg,222,51.2141118073,2.88520120072
8400,Oostende,Gouwelozestraat,36,51.2180745629,2.92849671014
8400,Oostende,August Vermeylenstraat,56,51.2173960178,2.9299540165
8400,Oostende,Werkzaamheidstraat,26,51.21860568,2.89799525337
8400,Oostende,Hennepstraat,19,51.2192960414,2.90861854761
8400,Oostende,Eigen-Haardstraat,5,51.2132995208,2.89724502517
8400,Oostende,Stationsstraat,95,51.2061572225,2.97530206715
8400,Oostende,Nieuwpoortsesteenweg,167,51.2211822373,2.90187400518
8400,Oostende,Koekoekstraat,8,51.2005293034,2.9676662522
8400,Oostende,Buitenpad,6,51.2102386697,2.92321132178
8400,Oostende,Steensedijk,331,51.2086783283,2.90126268886
8400,Oostende,Leffingestraat,121,51.2185543985,2.90857104478
8400,Oostende,Schietbaanstraat,34,51.2286140277,2.94519011513
8400,Oostende,Mariakerkelaan,318,51.2127702207,2.89065942576
8400,Oostende,Nieuwlandstraat,25,51.2172818647,2.90851439513
8400,Oostende,Edmond Laponstraat,17,51.2254623014,2.9085552187
8400,Oostende,Honoré Borgersstraat,5,51.2181900797,2.90223908536
8400,Oostende,Klokhofstraat,2,51.2117133338,2.96590466919
8400,Oostende,Paul Michielslaan,5,51.208064806,2.88849364147
8400,Oostende,Steensedijk,685,51.2140790381,2.88952536753
8400,Oostende,Ooststraat,43,51.2309132011,2.91992043909
8400,Oostende,Kaaistraat,41,51.2305135391,2.92085599867
8400,Oostende,De Rudderstraat,48,51.2314059307,2.94582256474
8400,Oostende,Chrysantenstraat,23,51.2110663781,2.91542803651
8400,Oostende,Euphrosina Beernaertstraat,57,51.2269597225,2.91099950791
8400,Oostende,Cirkelstraat,27,51.2337910755,2.92091003316
8400,Oostende,Lariksenlaan,29,51.2104332137,2.90094413367
8400,Oostende,Orchideelaan,23,51.2114815507,2.92000059826
8400,Oostende,Sint-Catharinapolderstraat,33,51.219420604,2.90547266081
8400,Oostende,Strobloemlaan,13,51.2083565655,2.91958124931
8400,Oostende,Karel Van de Woestijnestraat,19,51.2198648448,2.90705349807
8400,Oostende,Waterwerkstraat,20,51.2164397515,2.9193743749
8400,Oostende,Mariakerkelaan,156,51.2119277917,2.9046178575
8400,Oostende,Gelukkige-Haardstraat,14,51.2122143315,2.91359322989
8400,Oostende,Limburgstraat,4,51.2210207518,2.89043419524
8400,Oostende,Dahlialaan,11,51.2140024385,2.92826286266
8400,Oostende,Waterlelielaan,19,51.2142388652,2.92329563979
8400,Oostende,Middenlaan,19,51.2045136579,2.86251021184
8400,Oostende,Hortensialaan,11,51.1984479339,2.97673892391
8400,Oostende,Lotuslaan,93,51.207760985,2.92207886687
8400,Oostende,Renteniersstraat,21,51.2230157839,2.90733643539
8400,Oostende,Voorhavenlaan,131,51.2309274585,2.94662055563
8400,Oostende,Elisabethlaan,246,51.2143301259,2.90303433232
8400,Oostende,Raversijdestraat,28,51.216955663,2.88104903754
8400,Oostende,Dokter Eduard Moreauxlaan,293,51.2404878775,2.94304378684
8400,Oostende,Lindenlaan,11,51.2106986037,2.90461363674
8400,Oostende,Steensedijk,639,51.213242429,2.89061254481
8400,Oostende,Waregemlaan,20,51.2098743554,2.88119325953
8400,Oostende,Alfons Pieterslaan,97A,51.2250703306,2.90990301056
8400,Oostende,Prins Roselaan,113,51.2086170326,2.88921578344
8400,Oostende,Leffingestraat,156,51.2175183667,2.90683829076
8400,Oostende,Schietbaanstraat,69,51.2310886984,2.9481586574
8400,Oostende,Merelstraat,8,51.210817452,2.93076934117
8400,Oostende,Vanderstichelenstraat,24,51.2151001365,2.9401888867
8400,Oostende,Kanariestraat,16,51.2114757369,2.93413967342
8400,Oostende,Zwaluwenstraat,103,51.2173799736,2.9118845013
8400,Oostende,Visserskaai,32,51.2330776651,2.92176573522
8400,Oostende,Klaprozenlaan,42,51.2108046948,2.87442171199
8400,Oostende,Klaprozenlaan,7,51.2100271728,2.87582737525
8400,Oostende,Maria Theresiastraat,43,51.2246470911,2.90516637399
8400,Oostende,Dokter Verhaeghestraat,100,51.2176010811,2.89834644005
8400,Oostende,Groenendaallaan,30,51.2116606095,2.88277245868
8400,Oostende,Aartshertoginnestraat,35,51.2284505764,2.91787582662
8400,Oostende,Overvloedstraat,48,51.2174912631,2.89645645089
8400,Oostende,Westlaan,89,51.2065627913,2.85875146456
8400,Oostende,Voorhavenlaan,42,51.2285087168,2.94327568638
8400,Oostende,Schietbaanstraat,16,51.2275573365,2.94406204173
8400,Oostende,Spaarzaamheidstraat,78,51.2171535631,2.89993189665
8400,Oostende,Duinenstraat,254,51.2046750426,2.85700933677
8400,Oostende,Steenovenstraat,39,51.2148604504,2.9385589822
8400,Oostende,Acacialaan,20,51.2137470142,2.88262584207
8400,Oostende,Leeuwerikenstraat,32,51.2134202669,2.90909201769
8400,Oostende,Elisabethlaan,192,51.2144797898,2.90037278944
8400,Oostende,Lindenlaan,64,51.2088190026,2.90321089994
8400,Oostende,Gistelsesteenweg,158,51.2090105094,2.93056068333
8400,Oostende,Voorhavenlaan,184,51.2330034509,2.95001457358
8400,Oostende,Stormmeeuwstraat,6,51.2062087973,2.92417868647
8400,Oostende,Tarwestraat,107,51.216103486,2.91062417441
8400,Oostende,Lotuslaan,75,51.207714996,2.9228392554
8400,Oostende,Vrijheidstraat,7,51.2163013258,2.90545341231
8400,Oostende,Ernest Feysplein,13,51.2262068303,2.92267001562
8400,Oostende,Plakkersstraat,55,51.2194161142,2.90445610734
8400,Oostende,Torhoutsesteenweg,282,51.2160000332,2.9072029402
8400,Oostende,Zandvoordestraat,132,51.2155174219,2.94061784686
8400,Oostende,Voorhavenlaan,203,51.232624604,2.95021626219
8400,Oostende,Peter Benoitstraat,45,51.2240931905,2.91185019309
8400,Oostende,Chaletstraat,1,51.2268868244,2.90887901748
8400,Oostende,Epsomlaan,34,51.2098596167,2.88337499395
8400,Oostende,Stuiverstraat,49,51.2191913902,2.90142626226
8400,Oostende,Brabantstraat,3,51.2326079213,2.91859262516
8400,Oostende,Visserskaai,14,51.2312331432,2.92269686689
8400,Oostende,Kapellestraat,66,51.2293576343,2.9200439383
8400,Oostende,Metselaarsstraat,68,51.220171331,2.9044888037
8400,Oostende,Vinkenstraat,18,51.2091430509,2.93338199889
8400,Oostende,Groenendaallaan,65,51.2108707993,2.88016901925
8400,Oostende,Albrecht Rodenbachstraat,21,51.2134635348,2.87743249516
8400,Oostende,Werktuigkundigenstraat,48,51.2325444853,2.94262450533
8400,Oostende,Torhoutsesteenweg,236,51.2174303894,2.90767060142
8400,Oostende,Egellaan,22,51.1978885598,2.9707264759
8400,Oostende,Zeelaan,23,51.2051432462,2.86320889175
8400,Oostende,Frère-Orbanstraat,110,51.2194359193,2.91269439854
8400,Oostende,Keignaertlaan,43,51.1994239561,2.96783909585
8400,Oostende,Duinhelmstraat,19,51.2126357147,2.87506042229
8400,Oostende,Spaarzaamheidstraat,25,51.2192963202,2.90018881495
8400,Oostende,Christinastraat,5,51.2331957504,2.91425449267
8400,Oostende,Ravelingenstraat,3,51.2351511055,2.94299501587
8400,Oostende,Oude Molenstraat,20,51.2222577108,2.90962090028
8400,Oostende,Verenigingstraat,55,51.2184666352,2.89875720517
8400,Oostende,Mariakerkelaan,336,51.2130761307,2.88919789317
8400,Oostende,Zandvoordestraat,375,51.2124050316,2.95474816434
8400,Oostende,Duinenstraat,83,51.2061267101,2.85900086189
8400,Oostende,Salvialaan,5,51.2132637133,2.92627074217
8400,Oostende,Sterstraat,36,51.2145942403,2.88911367326
8400,Oostende,Nieuwpoortsesteenweg,204,51.2147293363,2.88676371514
8400,Oostende,Hennepstraat,37,51.2189922539,2.90918578719
8400,Oostende,Torhoutsesteenweg,519,51.2087012125,2.90458099715
8400,Oostende,Kerkstraat,7,51.2315042525,2.91863997625
8400,Oostende,Zilverlaan,310,51.2091943851,2.9288786069
8400,Oostende,Northlaan,13,51.216928351,2.88993932847
8400,Oostende,Thomas Van Loostraat,50,51.2303666906,2.9450681707
8400,Oostende,Elisabethlaan,22,51.2157205413,2.89320883403
8400,Oostende,Rietstraat,40,51.2188129659,2.91246575812
8400,Oostende,Westlaan,48,51.2051477776,2.86115148303
8400,Oostende,Grachtstraat,12,51.2176616446,2.93264405187
8400,Oostende,Troonstraat,65,51.2201673561,2.88849667177
8400,Oostende,Grintweg,121,51.2014682882,2.95911738511
8400,Oostende,Laurierstraat,12,51.2065377002,2.9187542858
8400,Oostende,Stuiverstraat,404,51.2105312068,2.91547290362
8400,Oostende,Jan Diericksenstraat,6,51.2310808957,2.9473593206
8400,Oostende,Mariakerkelaan,174,51.2118780601,2.90362936763
8400,Oostende,Steensedijk,459,51.2077578377,2.8970972082
8400,Oostende,Roerdompstraat,41,51.2134287015,2.89435714869
8400,Oostende,Petunialaan,28,51.2114994852,2.92748665384
8400,Oostende,Gelukkige-Haardstraat,32,51.2126386247,2.9129397531
8400,Oostende,Leeuwerikenstraat,14,51.2138000976,2.90931030029
8400,Oostende,Duinenstraat,30,51.214040982,2.87679853072
8400,Oostende,Lindenlaan,46,51.2095164899,2.90338736289
8400,Oostende,Taboralaan,78,51.2392722251,2.94592450309
8400,Oostende,Frans Musinstraat,29,51.2241250498,2.90460821229
8400,Oostende,Schapenstraat,27,51.212590941,2.90969794819
8400,Oostende,Metselaarsstraat,15,51.2209016582,2.90277343173
8400,Oostende,Nachtegalenlaan,77,51.2153014892,2.92558448893
8400,Oostende,Voorhavenlaan,60,51.2293043745,2.94391345391
8400,Oostende,Winkelpad,17,51.2078992116,2.92163462992
8400,Oostende,Nachtegalenlaan,7,51.2148035806,2.91640893288
8400,Oostende,Klaprozenlaan,60,51.2115053802,2.87339647899
8400,Oostende,Stuiverstraat,450,51.2092563312,2.91739212432
8400,Oostende,Groenendaallaan,12,51.2120616541,2.88353031978
8400,Oostende,Stroombanklaan,77,51.2361752119,2.94126241371
8400,Oostende,Sint-Catharinaplein,2,51.2175616986,2.9050501304
8400,Oostende,Paul Michielslaan,57,51.2097071893,2.88620846626
8400,Oostende,Brugstraat,40,51.2047018564,2.91410214207
8400,Oostende,Nieuwlandstraat,78,51.2156519843,2.9085533899
8400,Oostende,Steensedijk,667,51.21376832,2.88992656271
8400,Oostende,Kaïrostraat,38,51.2245006432,2.91674337385
8400,Oostende,Spalaan,43,51.2076581381,2.88261326204
8400,Oostende,Honoré Borgersstraat,57,51.2160730546,2.90168624625
8400,Oostende,Torhoutsesteenweg,301,51.2163585948,2.90674022181
8400,Oostende,Camelialaan,1,51.2079360578,2.92270645903
8400,Oostende,Kerkgoedstraat,6,51.2162930746,2.93686216255
8400,Oostende,Beekstraat,20,51.2174648894,2.92686888834
8400,Oostende,Nieuwpoortsesteenweg,451,51.2160589449,2.89055335994
8400,Oostende,Hamsterstraat,14,51.1996154728,2.96891927897
8400,Oostende,Gerststraat,80,51.2173944863,2.91015165136
8400,Oostende,Nieuwedokstraat,45,51.2158885825,2.9342039391
8400,Oostende,Zelliklaan,41,51.2118389505,2.88995666059
8400,Oostende,Sint-Catharinaplein,26,51.21653018,2.90479677471
8400,Oostende,Dekenijstraat,14,51.2287235141,2.9222071013
8400,Oostende,Zandvoordedorpstraat,23,51.2009617825,2.97717880016
8400,Oostende,Duivenstraat,8,51.2110831078,2.91319926561
8400,Oostende,August Vermeylenstraat,110,51.217545522,2.93302410937
8400,Oostende,Leffingestraat,174,51.2172241145,2.90605260451
8400,Oostende,Vanderstichelenstraat,59,51.2143013987,2.93952169766
8400,Oostende,Onafhankelijkheidsstraat,8,51.21278075,2.90391863681
8400,Oostende,Korenbloemlaan,5,51.2113494729,2.92699519791
8400,Oostende,Vijverstraat,10,51.2176814378,2.92965719571
8400,Oostende,Marconistraat,38,51.2130703045,2.93760432741
8400,Oostende,Langestraat,31,51.2318038472,2.91451284006
8400,Oostende,Kastanjelaan,33,51.2110095495,2.90285554182
8400,Oostende,Heidebloemstraat,37,51.2048462187,2.91576760338
8400,Oostende,Edith Cavellstraat,40,51.2235090586,2.91524463382
8400,Oostende,Duivenhokstraat,96,51.2188313976,2.90414406236
8400,Oostende,Mariakerkelaan,211,51.2122735578,2.89760602236
8400,Oostende,Euphrosina Beernaertstraat,146,51.2267036795,2.90916910233
8400,Oostende,Amsterdamstraat,10,51.2257535284,2.91677481047
8400,Oostende,Nieuwpoortsesteenweg,505,51.2151392878,2.8883715065
8400,Oostende,Verlaatstraat,3,51.2177327084,2.92785034948
8400,Oostende,Torhoutsesteenweg,111,51.2224393944,2.90831642208
8400,Oostende,Zandvoordestraat,415,51.2102921586,2.96046367551
8400,Oostende,Vredestraat,69,51.2145246493,2.88933588923
8400,Oostende,Bronstraat,14,51.2135495147,2.91136386551
8400,Oostende,Molenaarsstraat,21,51.211593702,2.90664392734
8400,Oostende,Goedheidstraat,27,51.218611794,2.89827005913
8400,Oostende,Visserskaai,42,51.2338205492,2.92129833478
8400,Oostende,Stuiverstraat,67,51.2188623111,2.90203915113
8400,Oostende,Salvialaan,29,51.2133067275,2.9233142149
8400,Oostende,Dokter Eduard Moreauxlaan,43,51.2284669351,2.94154760591
8400,Oostende,Torhoutsesteenweg,465,51.2104206399,2.9051738338
8400,Oostende,Albert I-Promenade,82,51.2288417416,2.90810862728
8400,Oostende,Leeuwerikenstraat,203,51.2083610035,2.90643193745
8400,Oostende,Eduard De Cuyperstraat,10,51.2229175742,2.90351094629
8400,Oostende,Torhoutsesteenweg,389,51.2131457893,2.90591180593
8400,Oostende,Kemmelbergstraat,33,51.2293975199,2.90890337435
8400,Oostende,Leffingestraat,211,51.216670998,2.90391357203
8400,Oostende,Jules Peurquaetstraat,62,51.2251639945,2.91222192506
8400,Oostende,Constant Permekelaan,40,51.2161436623,2.91939273558
8400,Oostende,Vlaanderenstraat,9A,51.2326121666,2.91665189958
8400,Oostende,Zeelaan,51,51.2057867989,2.86243462117
8400,Oostende,Zilverlaan,66,51.2045075176,2.9188694657
8400,Oostende,Elisabethlaan,301,51.213954917,2.90477953817
8400,Oostende,Leeuwerikenstraat,60,51.2125513601,2.90873445738
8400,Oostende,Prof. Mac Leodplein,10,51.2209874131,2.90742947771
8400,Oostende,Beukenlaan,50,51.2112439575,2.89739287573
8400,Oostende,Sint-Paulusstraat,84,51.23081315,2.92268397269
8400,Oostende,Meidoornstraat,34,51.212654018,2.8987913538
8400,Oostende,Nieuwpoortsesteenweg,132,51.2163234149,2.89023520906
8400,Oostende,Madeliefjeslaan,70,51.211827078,2.87435160617
8400,Oostende,Sperwerstraat,1,51.2070661433,2.93345505032
8400,Oostende,Zandvoordestraat,322,51.211919028,2.95152612421
8400,Oostende,Stuiverstraat,85,51.2174200218,2.90427369298
8400,Oostende,Zilvermeeuwstraat,7,51.2051386235,2.92535756866
8400,Oostende,Generaal Jungbluthlaan,9,51.2155767747,2.91348705623
8400,Oostende,Dokter Eduard Moreauxlaan,61,51.2291266188,2.94141315664
8400,Oostende,Eduard Hammanstraat,64,51.2286508117,2.94508675974
8400,Oostende,Eikenlaan,24,51.2112986966,2.89583931812
8400,Oostende,Joseph Plateaustraat,9,51.2101125009,2.93616603831
8400,Oostende,Hulstlaan,9,51.2093816638,2.90179431864
8400,Oostende,Brugsesteenweg,146,51.2225475318,2.98739930226
8400,Oostende,Albrecht Rodenbachstraat,4,51.2122038484,2.87826873655
8400,Oostende,Langestraat,41A,51.232173504,2.91531637751
8400,Oostende,André Chocqueelstraat,5,51.2082356805,2.87527156154
8400,Oostende,Frère-Orbanstraat,145,51.2177749665,2.91537463304
8400,Oostende,Zwanenlaan,39,51.2004874619,2.96981923691
8400,Oostende,Noord-Edestraat,38,51.2283156734,2.94397487367
8400,Oostende,Vanderstichelenstraat,95,51.2136592748,2.93815666119
8400,Oostende,Marie-Joséstraat,3,51.2075339072,2.86166761879
8400,Oostende,Eendrachtstraat,32,51.2158345394,2.90466744418
8400,Oostende,Van Iseghemlaan,89,51.2319678447,2.91328613561
8400,Oostende,Vlinderstraat,16,51.2155073357,2.9249856508
8400,Oostende,Nieuwpoortsesteenweg,631,51.2127428043,2.88304773536
8400,Oostende,Mariakerkelaan,50,51.2119663395,2.91012340737
8400,Oostende,San Cirolaan,30,51.210248269,2.88117976304
8400,Oostende,Zeedijk,150,51.2184722186,2.88469848056
8400,Oostende,Stuurboordstraat,20,51.2365584882,2.94304721588
8400,Oostende,Jozef II-straat,40,51.22906693,2.91869657586
8400,Oostende,Grintweg,103,51.2038170874,2.96196765556
8400,Oostende,Sartlaan,37,51.2099535499,2.88765996775
8400,Oostende,Sint-Catharinapolderstraat,43,51.219794997,2.90562153836
8400,Oostende,Gerststraat,133,51.2152222498,2.90914284862
8400,Oostende,Stenedorpstraat,21,51.2020049005,2.91433647189
8400,Oostende,Stuiverstraat,228,51.2139101166,2.91024871289
8400,Oostende,Esdoornlaan,13,51.213098919,2.88231898902
8400,Oostende,Jules Peurquaetstraat,80,51.2248258741,2.91269636272
8400,Oostende,Prins Roselaan,141,51.2081485173,2.88878910893
8400,Oostende,Nieuwpoortsesteenweg,8,51.2243953259,2.90823971461
8400,Oostende,Transvaalstraat,5,51.2057319604,2.86073503177
8400,Oostende,Blankenbergestraat,11,51.2352805114,2.94138775416
8400,Oostende,Euphrosina Beernaertstraat,29,51.2271872275,2.91301165944
8400,Oostende,Spalaan,8,51.2066263633,2.8860175468
8400,Oostende,San Cirolaan,12,51.2106387393,2.88208248611
8400,Oostende,Libellaan,19,51.2028463704,2.96588960791
8400,Oostende,Plakkersstraat,3,51.2206190584,2.90254538397
8400,Oostende,Peter Benoitstraat,46A,51.2240034939,2.91258230218
8400,Oostende,Loodsenstraat,27,51.2327935477,2.94253827407
8400,Oostende,Eendrachtstraat,14,51.2162727624,2.90462735153
8400,Oostende,Koningsstraat,59,51.2287240004,2.90885386746
8400,Oostende,Passchijnstraat,24,51.2160889364,2.8883008593
8400,Oostende,Lijsterbeslaan,66,51.2156338693,2.8824533624
8400,Oostende,Nieuwlandstraat,96,51.2152258402,2.90841413817
8400,Oostende,Voorhavenlaan,113,51.2303389391,2.94578782206
8400,Oostende,Maurits Sabbestraat,9,51.2117347286,2.91026719689
8400,Oostende,Jules Peurquaetstraat,44,51.2259205425,2.91158937178
8400,Oostende,Elisabethlaan,299,51.2139565511,2.90467914624
8400,Oostende,Sint-Sebastiaansstraat,11,51.2315807016,2.91689078849
8400,Oostende,Kwartelstraat,15,51.2063283579,2.9277514311
8400,Oostende,Prof. Jozef Vercoulliestraat,20,51.2180514601,2.90164535438
8400,Oostende,Broederlijkheidstraat,37,51.2161635473,2.90024163159
8400,Oostende,Zwaluwenstraat,121,51.2174134592,2.91261065564
8400,Oostende,Zwaluwenstraat,32,51.2180682505,2.90650755493
8400,Oostende,Keignaertlaan,8,51.1977834093,2.96974890579
8400,Oostende,Waterwerkstraat,3,51.2168301777,2.91911645995
8400,Oostende,Francis Verestraat,74,51.2334688303,2.94819125701
8400,Oostende,Groentemarkt,20,51.2320310545,2.91910086125
8400,Oostende,Heidebloemstraat,19,51.2044916146,2.91649677053
8400,Oostende,Snepstraat,1,51.2081985945,2.93116549177
8400,Oostende,Frans Musinstraat,30,51.2239269976,2.90436130505
8400,Oostende,Strobloemlaan,31,51.207688382,2.92056161887
8400,Oostende,Platformstraat,3,51.2340184366,2.91890604521
8400,Oostende,Adelaarstraat,13,51.2050804035,2.92921736178
8400,Oostende,Madeliefjeslaan,52,51.2113928231,2.87479777671
8400,Oostende,Vanderstichelenstraat,77,51.2138340937,2.93903073811
8400,Oostende,Weidenstraat,17,51.2166551074,2.91773552097
8400,Oostende,Gelijkheidstraat,166,51.2160063151,2.89768126507
8400,Oostende,Zandvoordestraat,25,51.2167221647,2.93689136309
8400,Oostende,Lotuslaan,22,51.2086144043,2.92434279011
8400,Oostende,Kapittelstraat,21,51.1969220349,2.97721082755
8400,Oostende,Strobloemlaan,41,51.2074776534,2.92092137676
8400,Oostende,Honoré Borgersstraat,29,51.2168568982,2.90189578539
8400,Oostende,Westhinderstraat,25,51.2335084915,2.94226724364
8400,Oostende,Oostendse-Haardstraat,50,51.2166762046,2.89537277854
8400,Oostende,Paul Michielslaan,29,51.2085480694,2.88775725368
8400,Oostende,Graanmolenstraat,5,51.1976256811,2.97753125145
8400,Oostende,Frère-Orbanstraat,307,51.2165461186,2.92351158614
8400,Oostende,Chrysantenstraat,51,51.2102103919,2.91684503999
8400,Oostende,Nieuwpoortsesteenweg,114,51.2207569612,2.895339222
8400,Oostende,Leeuwerikenstraat,85,51.2118429542,2.90802249936
8400,Oostende,Langestraat,50A,51.2329090673,2.91644346718
8400,Oostende,Ibisstraat,16,51.2045238047,2.92792407987
8400,Oostende,Eigen-Haardstraat,29,51.2126637334,2.89704980315
8400,Oostende,Albert I-Promenade,48,51.2331659512,2.91418525515
8400,Oostende,Duindoornlaan,5,51.2140906628,2.87933482716
8400,Oostende,Rozemarijnstraat,33,51.2082043759,2.91709767219
8400,Oostende,Duivenhokstraat,71,51.2192337768,2.90278547978
8400,Oostende,Steensedijk,649,51.2134548445,2.89027988855
8400,Oostende,Zakstraat,12,51.2035352879,2.86318421023
8400,Oostende,Gouwelozestraat,48,51.2180976359,2.92971278209
8400,Oostende,Nachtegalenlaan,59,51.2149960207,2.92400263208
8400,Oostende,Zonnestraat,25,51.2168970692,2.93843327145
8400,Oostende,Stuiverstraat,364,51.2111900706,2.91445447473
8400,Oostende,Werkzaamheidstraat,72,51.2175127946,2.89770275543
8400,Oostende,Stationsstraat,166,51.2093368867,2.97753041235
8400,Oostende,Torhoutsesteenweg,75,51.2238604962,2.90870515555
8400,Oostende,Lelielaan,5,51.2134067957,2.93004612984
8400,Oostende,Nieuwpoortsesteenweg,911,51.2042244798,2.86405255226
8400,Oostende,Rietstraat,12,51.2187779075,2.91105750309
8400,Oostende,Steensedijk,477,51.2080091807,2.89645983265
8400,Oostende,Luchthavenstraat,19,51.2056974525,2.86393277698
8400,Oostende,Leeuwerikenstraat,42,51.21295218,2.90895608406
8400,Oostende,Wittenonnenstraat,53,51.230416144,2.91604256325
8400,Oostende,Emiel De Smitlaan,28,51.2082843418,2.86762694
8400,Oostende,Zeedijk,330,51.2127020866,2.8721682251
8400,Oostende,Sportstraat,55,51.2241572779,2.90349361929
8400,Oostende,Kapellestraat,38,51.2302674587,2.91908494742
8400,Oostende,Wilgenlaan,35,51.2135310941,2.88077606602
8400,Oostende,Panneputstraat,14,51.2074618792,2.97747254056
8400,Oostende,Leeuwerikenstraat,228,51.2077344221,2.90660915072
8400,Oostende,Torhoutsesteenweg,218,51.2183134619,2.90785022662
8400,Oostende,Nieuwpoortsesteenweg,641,51.2125834398,2.88268538062
8400,Oostende,Steenovenstraat,49,51.2147243606,2.93827816179
8400,Oostende,Oud Vliegveld,64,51.2051540271,2.90925515232
8400,Oostende,Sterstraat,18,51.2147354785,2.88848165764
8400,Oostende,Waregemlaan,3,51.2101414427,2.8825436053
8400,Oostende,Gistelsesteenweg,248,51.2061832543,2.93255425506
8400,Oostende,Van Hembdenstraat,53,51.2319316825,2.94868971176
8400,Oostende,Stanleylaan,76,51.2320372462,2.94459288852
8400,Oostende,Spaarzaamheidstraat,96,51.2165304312,2.89993720243
8400,Oostende,Meeuwenlaan,24,51.2166823913,2.9170870744
8400,Oostende,Van Dijckstraat,35,51.2108841705,2.90733987533
8400,Oostende,Lepelaarstraat,15,51.2060422702,2.92908550316
8400,Oostende,Schoolstraat,9,51.2039040362,2.86415619358
8400,Oostende,Schaafstraat,20,51.220448006,2.90138787746
8400,Oostende,Steensedijk,366,51.2106999803,2.89437725726
8400,Oostende,Alfons Pieterslaan,7,51.2267159235,2.91558925867
8400,Oostende,Vrijhavenstraat,12A,51.2258412634,2.92237338051
8400,Oostende,Oprit,15,51.2104693905,2.93135644377
8400,Oostende,Kerklaan,31,51.2145502631,2.93477757378
8400,Oostende,Stokkellaan,129,51.2097208744,2.88408903535
8400,Oostende,Broederlijkheidstraat,19,51.2167413654,2.90056914408
8400,Oostende,Vlaanderenstraat,5,51.2324304067,2.91696113403
8400,Oostende,Ieperstraat,66,51.2246962852,2.91733817524
8400,Oostende,Frère-Orbanstraat,4,51.2216336826,2.90875925505
8400,Oostende,Langestraat,41,51.2321423479,2.91527567889
8400,Oostende,Kraanvogelstraat,34,51.2052009482,2.92703219342
8400,Oostende,Torhoutsesteenweg,22,51.2270681192,2.91027549818
8400,Oostende,Rivierstraat,13A,51.2162620957,2.920745935
8400,Oostende,Kroonlaan,1,51.2139995946,2.90758524255
8400,Oostende,Troonstraat,37,51.2211690407,2.8907612017
8400,Oostende,Mansveldstraat,78,51.2330861261,2.9450723539
8400,Oostende,Jacob Besagestraat,12,51.2290243346,2.9423318067
8400,Oostende,Kievitstraat,22,51.2093369031,2.93138575158
8400,Oostende,Rozemarijnstraat,15,51.2070494425,2.9162509982
8400,Oostende,Torhoutsesteenweg,57,51.2249546238,2.90899175496
8400,Oostende,Guido Gezellestraat,74,51.2133587274,2.93364448803
8400,Oostende,Stuiverstraat,540,51.2058760866,2.9226941634
8400,Oostende,Steensedijk,313,51.2086421435,2.9020417011
8400,Oostende,Nieuwewerfkaai,1,51.2285346489,2.9384822822
8400,Oostende,Epsomlaan,62,51.2090675442,2.88230630569
8400,Oostende,Schelpenstraat,9,51.2154783281,2.89538513261
8400,Oostende,Steenbakkersstraat,60,51.2209591367,2.90520793624
8400,Oostende,Dokter Verhaeghestraat,36,51.2171041492,2.903050524
8400,Oostende,Nieuwpoortsesteenweg,149,51.2214912682,2.90250078719
8400,Oostende,Stanleylaan,23,51.231971269,2.9417957632
8400,Oostende,Verstellestraat,9,51.2313950388,2.94770629191
8400,Oostende,Nieuwpoortsesteenweg,340,51.2116699587,2.87985625166
8400,Oostende,Duivenhokstraat,53,51.2196004289,2.90222981803
8400,Oostende,August Vermeylenstraat,4,51.2169820102,2.9273244226
8400,Oostende,Nieuwpoortsesteenweg,275,51.2192170066,2.8974022099
8400,Oostende,Koopvaardijstraat,22,51.2361157732,2.94636723185
8400,Oostende,Nijverheidstraat,41,51.2197439777,2.90649024076
8400,Oostende,Sartlaan,19,51.2103527188,2.88834948607
8400,Oostende,Torenvalkstraat,3,51.2033397976,2.90683830011
8400,Oostende,Christinastraat,111,51.2294466231,2.91854602243
8400,Oostende,Adolf Buylstraat,46,51.2309453145,2.91495329157
8400,Oostende,Waterwerkstraat,27,51.2163002202,2.91888256622
8400,Oostende,Warschaustraat,10,51.2274723072,2.90961152964
8400,Oostende,Timmermanstraat,35,51.2195514903,2.90409181903
8400,Oostende,Rietstraat,65,51.2193408592,2.91411632321
8400,Oostende,Steensedijk,151,51.2028815514,2.90937674609
8400,Oostende,Smedenstraat,31,51.2114074921,2.90968457709
8400,Oostende,Werkzaamheidstraat,90,51.2170627729,2.8976253315
8400,Oostende,Oudstationstraat,7,51.2117955088,2.93029076367
8400,Oostende,Havikstraat,53,51.207463493,2.93461725574
8400,Oostende,Kwartelstraat,33,51.2066497653,2.92753098125
8400,Oostende,Plakkersstraat,27,51.2201850203,2.9032059605
8400,Oostende,Maria Theresiastraat,8,51.223609208,2.9058516493
8400,Oostende,Nieuwelangestraat,63,51.2151510342,2.93532337209
8400,Oostende,Schippersstraat,2,51.2340153607,2.91989522562
8400,Oostende,Mimosalaan,5,51.2124141893,2.92794819939
8400,Oostende,Ooststraat,61,51.2315429451,2.92144005235
8400,Oostende,Ieperstraat,13,51.2265841744,2.91501492589
8400,Oostende,Muscarstraat,25,51.2261927,2.9083765747
8400,Oostende,Plantijnstraat,5,51.2129440371,2.94161025229
8400,Oostende,Westdiepstraat,4,51.2351190247,2.94361549225
8400,Oostende,Blauwkasteelstraat,36,51.2168837268,2.90800035915
8400,Oostende,Stuiverstraat,311,51.2118535152,2.9125965447
8400,Oostende,Diksmuidestraat,9,51.2156235898,2.87814358317
8400,Oostende,Alfons Pieterslaan,42,51.2259316225,2.91419897654
8400,Oostende,Wellingtonstraat,46,51.225430318,2.90593741645
8400,Oostende,Kraanvogelstraat,16,51.2061043708,2.92545549498
8400,Oostende,Heilig-Hartlaan,20,51.2219821971,2.90509036631
8400,Oostende,Stationsstraat,184,51.209883448,2.9778258393
8400,Oostende,Palmenlaan,7,51.210481736,2.89869133378
8400,Oostende,Jozef II-straat,29,51.2288421465,2.91969182414
8400,Oostende,Sint-Amandsberglaan,65,51.2118027274,2.88896546576
8400,Oostende,Haverstraat,1,51.2181394883,2.91600903318
8400,Oostende,Flamingostraat,5,51.2076127997,2.92798197084
8400,Oostende,Spaarzaamheidstraat,160,51.2151364097,2.89938662104
8400,Oostende,Frère-Orbanstraat,263,51.2166643775,2.92182365545
8400,Oostende,Gelijkheidstraat,24,51.2152075025,2.90515620344
8400,Oostende,Dokter Verhaeghestraat,18,51.2170297843,2.90376030188
8400,Oostende,Goedheidstraat,3,51.2187394013,2.89648806043
8400,Oostende,Pareloesterlaan,30,51.2085297063,2.86595107716
8400,Oostende,Molendorpkaai,4,51.2209722771,2.94962992516
8400,Oostende,Guido Gezellestraat,56,51.2137855122,2.93368360459
8400,Oostende,Sint-Franciscusstraat,13,51.2322603699,2.92044978873
8400,Oostende,Sint-Annastraat,7,51.2142263505,2.93265862319
8400,Oostende,Prins Albertlaan,35,51.2225519004,2.94438558095
8400,Oostende,Zandvoordestraat,486,51.2075357458,2.97128682422
8400,Oostende,Lariksenlaan,40,51.2102266232,2.90144428164
8400,Oostende,Gelijkheidstraat,131,51.2160894284,2.89895021087
8400,Oostende,Rietstraat,30,51.2187182902,2.91206344591
8400,Oostende,Zandvoordestraat,78,51.2159881173,2.93842864675
8400,Oostende,Alfons Pieterslaan,60,51.2257178765,2.91347115457
8400,Oostende,Wellingtonstraat,64,51.2250157171,2.9048927993
8400,Oostende,Christinastraat,146,51.2281331067,2.92049262292
8400,Oostende,Dokter Verhaeghestraat,74B,51.2174360349,2.90001161225
8400,Oostende,Nieuwelangestraat,47,51.2156257506,2.93545278757
8400,Oostende,Polderdijk,10,51.1991411456,2.93988068112
8400,Oostende,Epsomlaan,44,51.2095345505,2.88308320301
8400,Oostende,Koolmeesstraat,39,51.2082743476,2.93047517562
8400,Oostende,Kemmelbergstraat,15,51.2289381561,2.90961993369
8400,Oostende,Steensedijk,495,51.207960068,2.89476911677
8400,Oostende,Oosthinderstraat,27,51.2377305802,2.94211301588
8400,Oostende,Sint-Paulusstraat,13,51.2293498299,2.91820381078
8400,Oostende,Zwaluwenstraat,67,51.2174887238,2.90967230167
8400,Oostende,Graaf de Smet de Naeyerlaan,68,51.2247537775,2.92579254316
8400,Oostende,Eendenlaan,7,51.2151400997,2.91301757207
8400,Oostende,Edward Vlietinckstraat,11,51.2072539728,2.93726178171
8400,Oostende,Hoopstraat,23,51.2126291734,2.89982342745
8400,Oostende,Weeshuisstraat,10,51.2229182361,2.90814394551
8400,Oostende,Torhoutsesteenweg,609,51.2022870595,2.90270811454
8400,Oostende,Zandvoordestraat,239,51.2138331444,2.94422665996
8400,Oostende,Voorhavenlaan,148,51.2322972819,2.94815606387
8400,Oostende,Brugstraat,30,51.2043354831,2.9137640904
8400,Oostende,Pareloesterlaan,12,51.2068300923,2.86798944801
8400,Oostende,Vindictivelaan,28,51.228911555,2.92315330278
8400,Oostende,Langestraat,119,51.234400803,2.92091186593
8400,Oostende,Distellaan,27,51.211650986,2.87736605268
8400,Oostende,Oud Vliegveld,46,51.2063701312,2.9120695536
8400,Oostende,Waterhoenlaan,5,51.2019383551,2.96718419979
8400,Oostende,Gerststraat,115,51.2156698818,2.90928229357
8400,Oostende,Dokter Verhaeghestraat,99,51.2181336032,2.896268116
8400,Oostende,Adolf Buylstraat,11,51.2319109112,2.91601232271
8400,Oostende,Pontonstraat,18,51.2155339912,2.92349513237
8400,Oostende,Kastanjelaan,68,51.2113538426,2.90243250548
8400,Oostende,Luchthavenstraat,37,51.206324979,2.86300803553
8400,Oostende,Frère-Orbanstraat,28,51.2211797236,2.90959320597
8400,Oostende,Longchamplaan,20,51.2115277221,2.89064797911
8400,Oostende,Jacob Besagestraat,30,51.2296440174,2.94243627939
8400,Oostende,Blauwkasteelstraat,18,51.2169779331,2.90676991095
8400,Oostende,Verlaatstraat,27,51.2164743714,2.92818295289
8400,Oostende,Mansveldstraat,25,51.2334425112,2.94482763178
8400,Oostende,Plantenstraat,75,51.2198567021,2.90892009487
8400,Oostende,Zuidstraat,8,51.229185669,2.92293317799
8400,Oostende,Zwaluwenstraat,14,51.2182261246,2.90557039787
8400,Oostende,Wierenstraat,24,51.2107468104,2.87402437472
8400,Oostende,Torhoutsesteenweg,192,51.2190028057,2.90792870234
8400,Oostende,Sterrebeeklaan,11,51.2078663352,2.88432251327
8400,Oostende,Druivenlaan,22,51.2047478921,2.91248856462
8400,Oostende,Grintweg,39,51.2016658326,2.97191408547
8400,Oostende,Amsterdamstraat,45,51.2250625982,2.91430525323
8400,Oostende,Graaf de Smet de Naeyerlaan,15,51.2257104647,2.92366858625
8400,Oostende,Prins Albertlaan,88,51.2214514305,2.94926904178
8400,Oostende,Sergeant De Bruynestraat,51,51.2327830635,2.94902922052
8400,Oostende,Dokter Eduard Moreauxlaan,139,51.2321384439,2.9410398829
8400,Oostende,Kasteelstraat,51,51.2032160225,2.97581892053
8400,Oostende,Taboralaan,160,51.2372255922,2.9479540755
8400,Oostende,August Vermeylenstraat,28,51.2172033929,2.92857542689
8400,Oostende,Distellaan,3,51.2109696863,2.87809175101
8400,Oostende,Nieuwpoortsesteenweg,558,51.2048921948,2.86471724652
8400,Oostende,Vanderstichelenstraat,141,51.2129305872,2.93591060349
8400,Oostende,Francis Verestraat,56,51.233116076,2.94724172696
8400,Oostende,Sint-Franciscusstraat,66,51.2304629731,2.92305795914
8400,Oostende,Gelijkheidstraat,59,51.215632333,2.90354080187
8400,Oostende,Irisstraat,6,51.2129749124,2.89647431077
8400,Oostende,Patrijsstraat,4,51.208855772,2.93168324101
8400,Oostende,Gelijkheidstraat,184,51.2162531409,2.8952800691
8400,Oostende,Sint-Amandsberglaan,30,51.2125751169,2.88761867845
8400,Oostende,Steenbakkersstraat,42,51.2211757664,2.9046750207
8400,Oostende,Hengelpad,12,51.2098603028,2.92195652224
8400,Oostende,Oosthinderstraat,3,51.2357257365,2.94304647066
8400,Oostende,Koninginnelaan,26,51.2257353333,2.90696128988
8400,Oostende,Zandvoordestraat,340,51.2115064266,2.95312840269
8400,Oostende,Kaaistraat,31,51.2308551031,2.92055743759
8400,Oostende,Prinses Clementinaplein,46,51.2228669882,2.90954213958
8400,Oostende,Primulapad,6,51.210859663,2.92012940333
8400,Oostende,Torhoutsesteenweg,308,51.2150778898,2.90698276271
8400,Oostende,Longchamplaan,101,51.2098479054,2.88691290473
8400,Oostende,Sportstraat,19,51.2232650796,2.90438509352
8400,Oostende,Sportstraat,3,51.2229394078,2.90472245458
8400,Oostende,Floralaan,17,51.1959851511,2.97246570351
8400,Oostende,Stenedorpstraat,56,51.2007618004,2.91419534109
8400,Oostende,Kerkstraat,14,51.2315796656,2.91903499147
8400,Oostende,Nieuwpoortsesteenweg,541,51.2144226249,2.88676644481
8400,Oostende,Nieuwpoortsesteenweg,713,51.2113134479,2.87995952017
8400,Oostende,Passchijnstraat,52,51.2164427619,2.88912475295
8400,Oostende,Spreeuwenlaan,10,51.19650152,2.97432249857
8400,Oostende,Steensedijk,80,51.2032711798,2.91367992957
8400,Oostende,Gentstraat,8,51.2253062523,2.91384651435
8400,Oostende,Plantenstraat,39,51.2209262263,2.91003247865
8400,Oostende,Floralaan,1,51.1965781567,2.97127296039
8400,Oostende,Ravelingenstraat,10,51.2357511635,2.94359746126
8400,Oostende,Aimé Liebaertstraat,59,51.2295551531,2.94435038375
8400,Oostende,Elisabethlaan,93,51.2144038853,2.89634304202
8400,Oostende,Steenbakkersstraat,113,51.2193200986,2.907108934
8400,Oostende,Langestraat,66,51.2333039501,2.91747236338
8400,Oostende,Kroonlaan,25,51.2134529518,2.90731995317
8400,Oostende,Kasteelstraat,76,51.2046508968,2.97635882393
8400,Oostende,Torhoutsesteenweg,174,51.2197040189,2.90810930897
8400,Oostende,Spaarzaamheidstraat,53,51.2186207511,2.90001110002
8400,Oostende,Mijterlaan,5,51.2071217683,2.86563504832
8400,Oostende,Zwaluwenstraat,60,51.2178793629,2.9082242765
8400,Oostende,Mariakerkelaan,246,51.2118646012,2.89774387349
8400,Oostende,Nieuwedokstraat,27,51.2162479964,2.93482587473
8400,Oostende,Klaprozenlaan,14,51.2100307286,2.87528308739
8400,Oostende,Torhoutsesteenweg,429,51.2118404865,2.90556126616
8400,Oostende,Keignaertlaan,68,51.2000345972,2.96800149281
8400,Oostende,Frère-Orbanstraat,99,51.2190168391,2.91277061122
8400,Oostende,Van Iseghemlaan,36,51.2337317461,2.9164946003
8400,Oostende,Ernest Claeslaan,23,51.1990745959,2.97435579594
8400,Oostende,Tarwestraat,82,51.2168609447,2.91121088094
8400,Oostende,Zeedijk,114,51.2218691972,2.89163221649
8400,Oostende,Blauwkasteelstraat,48,51.2167690729,2.90892267198
8400,Oostende,Parijsstraat,13,51.2284954708,2.90773230332
8400,Oostende,Sergeant De Bruynestraat,58,51.2323380561,2.94995076201
8400,Oostende,Dennenlaan,22,51.2089138896,2.89716966089
8400,Oostende,Alfons Pieterslaan,85,51.225247102,2.91052486875
8400,Oostende,Stuiverstraat,148,51.2165923764,2.90616159388
8400,Oostende,Monacoplein,5,51.2312713211,2.91333221712
8400,Oostende,Zeelaan,6,51.2049499376,2.86419631358
8400,Oostende,Flamingostraat,12,51.2082323597,2.92853961611
8400,Oostende,Schippersstraat,36,51.233229303,2.92088193828
8400,Oostende,Plantijnstraat,12,51.2124448369,2.93969107611
8400,Oostende,Brusselstraat,6,51.2298743223,2.91349050892
8400,Oostende,Koebrugstraat,8,51.2128643127,2.94558796542
8400,Oostende,Vrijheidstraat,14,51.2161457081,2.90582417492
8400,Oostende,Toekomststraat,8,51.2235300662,2.90817732858
8400,Oostende,Torhoutsesteenweg,547,51.2061697865,2.90346570596
8400,Oostende,Voorzienigheidstraat,9,51.2159152193,2.89440152175
8400,Oostende,Oostendse-Haardstraat,22,51.2174651209,2.89613304035
8400,Oostende,Kaaistraat,13,51.2313587902,2.9199385273
8400,Oostende,Schermplantenstraat,34,51.2135156713,2.87989353415
8400,Oostende,Lotuslaan,50,51.207916805,2.92411750395
8400,Oostende,Eduard Hammanstraat,28,51.229291336,2.94325649024
8400,Oostende,Bouwmeestersstraat,3,51.221569708,2.90625147449
8400,Oostende,Kruidenstraat,19,51.2055459509,2.91621622655
8400,Oostende,Leffingestraat,264,51.2148110538,2.90045053801
8400,Oostende,Verenigingstraat,37,51.2190995014,2.89863819761
8400,Oostende,Nijverheidstraat,84,51.2185611675,2.90650656183
8400,Oostende,Mariakerkelaan,264,51.2119808004,2.8954005486
8400,Oostende,Hennepstraat,20,51.2193039752,2.90926135404
8400,Oostende,Ieperstraat,41,51.2247854253,2.91682198619
8400,Oostende,Langestraat,84,51.2338420487,2.91881043032
8400,Oostende,Petunialaan,11,51.2130651767,2.92710835635
8400,Oostende,Zeedijk,147A,51.2187784496,2.88539563643
8400,Oostende,Wellingtonstraat,92,51.2243412576,2.90330830268
8400,Oostende,Beekstraat,19,51.2173960135,2.92649925923
8400,Oostende,Van Iseghemlaan,143,51.2287224011,2.91042980563
8400,Oostende,Kasteelstraat,58,51.2040127127,2.97669627802
8400,Oostende,Taboralaan,53,51.2362749145,2.94793263396
8400,Oostende,Limbalaan,4,51.2090195368,2.89860172342
8400,Oostende,Elisabethlaan,372,51.2151313438,2.91017632054
8400,Oostende,Leffingestraat,311,51.214861343,2.8998596385
8400,Oostende,Bauwensplein,20,51.211529988,2.88494951604
8400,Oostende,Torhoutsesteenweg,156,51.2205225929,2.90869367782
8400,Oostende,Molenhoekstraat,34,51.1948481279,2.98098953949
8400,Oostende,Overvloedstraat,98C,51.215620749,2.89602163663
8400,Oostende,Gistelsesteenweg,105,51.2112800349,2.92959773325
8400,Oostende,Steenbakkersstraat,67,51.2205632715,2.90513288662
8400,Oostende,Romestraat,49,51.2246664162,2.91556434784
8400,Oostende,Schaperijkreekstraat,18,51.2160610945,2.93633206148
8400,Oostende,Pensjagersstraat,22,51.2041609177,2.90676205662
8400,Oostende,Vaartstraat,9,51.2250531507,2.92577812696
8400,Oostende,Beukenlaan,22,51.2103686555,2.89599763888
8400,Oostende,Timmermanstraat,17,51.2191850795,2.90346256062
8400,Oostende,Kerkstraat,32,51.2307516111,2.92002741083
8400,Oostende,Zandvoordeschorredijkstraat,13,51.2130133143,2.94394839003
8400,Oostende,Van Iseghemlaan,18,51.234194749,2.91709651779
8400,Oostende,Kreekstraat,7,51.2176972177,2.93397510794
8400,Oostende,Timmermanstraat,1,51.2188145658,2.90275642393
8400,Oostende,Kruidenstraat,3,51.2051527812,2.91805915226
8400,Oostende,Prinses Clementinaplein,64,51.2229874306,2.91032736393
8400,Oostende,Torhoutsesteenweg,326,51.2146271165,2.90680035443
8400,Oostende,Leopold I-plein,2,51.2279405475,2.91104373416
8400,Oostende,Van Iseghemlaan,2,51.234927331,2.91815059978
8400,Oostende,Azalealaan,20,51.2129781367,2.92966100336
8400,Oostende,Alfons Pieterslaan,113,51.2249507471,2.90945718817
8400,Oostende,Elisabethlaan,346,51.2145913969,2.90774377206
8400,Oostende,Spalaan,68,51.2098825457,2.88040092959
8400,Oostende,Wezellaan,29,51.1969434285,2.97226247043
8400,Oostende,Lelielaan,12,51.2135531104,2.92946620641
8400,Oostende,Mariakerkelaan,22,51.211996041,2.91170137946
8400,Oostende,Schietbaanstraat,62,51.230455225,2.94721243496
8400,Oostende,Nieuwpoortsesteenweg,239,51.2198013541,2.8987098455
8400,Oostende,Schippersstraat,18,51.2336099727,2.92053188268
8400,Oostende,Koningsstraat,32,51.2296950421,2.91189670093
8400,Oostende,Zwaluwenstraat,184,51.2191629147,2.91495474761
8400,Oostende,Nieuwpoortsesteenweg,150,51.2160184245,2.88951998324
8400,Oostende,Nieuwlandstraat,53,51.2163696504,2.90825350754
8400,Oostende,Klaprozenlaan,32,51.2105746718,2.87467368895
8400,Oostende,Molenaarsstraat,74,51.2110694723,2.90873846557
8400,Oostende,Passchijnstraat,70,51.2167793993,2.88985429633
8400,Oostende,Plassendaalsesteenweg,29,51.2187975766,2.99600306293
8400,Oostende,Zandvoordestraat,461,51.2091003745,2.96853610102
8400,Oostende,Leeuwerikenstraat,131,51.2104634677,2.90741560052
8400,Oostende,Verenigingstraat,162,51.2154389658,2.89849260392
8400,Oostende,Thomas Van Loostraat,75,51.2298999349,2.94561407196
8400,Oostende,Kapittelstraat,56,51.1959746897,2.97461867888
8400,Oostende,Prinsenlaan,8,51.2224855705,2.91057999462
8400,Oostende,Thomas Van Loostraat,5,51.2306038639,2.94156268049
8400,Oostende,Groenendaallaan,40,51.2115346456,2.88241391565
8400,Oostende,Vingerlingstraat,28,51.2275413834,2.94312584841
8400,Oostende,Nieuwpoortsesteenweg,423,51.2167149262,2.89185325915
8400,Oostende,Peter Benoitstraat,27,51.2243919667,2.91130568683
8400,Oostende,Voorhavenlaan,32,51.2281233203,2.94283601513
8400,Oostende,Salvialaan,50,51.2138562992,2.92055165059
8400,Oostende,Metselaarsstraat,43,51.2204487151,2.90350460888
8400,Oostende,Roerdompstraat,13,51.2134125049,2.89642700652
8400,Oostende,Sint-Paulusstraat,41,51.2298972111,2.92001400333
8400,Oostende,Stokkellaan,76,51.2081442246,2.88531123388
8400,Oostende,Prof. Jozef Vercoulliestraat,55,51.217781372,2.90049876202
8400,Oostende,Christinastraat,50,51.2311923304,2.91700798244
8400,Oostende,Leffingestraat,246,51.2150458343,2.90103375554
8400,Oostende,Vooruitgangstraat,2B,51.2261536335,2.92519671743
8400,Oostende,Violierenlaan,36,51.2120706987,2.87942436448
8400,Oostende,Violierenlaan,2,51.2126662563,2.88078489934
8400,Oostende,Prins Albertlaan,17,51.2228290899,2.94302220195
8400,Oostende,Zandvoordestraat,71,51.2161785209,2.93882218295
8400,Oostende,Zwanenlaan,103,51.1973947491,2.97525076536
8400,Oostende,Ligusterlaan,4,51.2086171049,2.92056499475
8400,Oostende,Oudenburgsesteenweg,10,51.2208100355,2.95320351866
8400,Oostende,Gistelsesteenweg,59,51.2126969439,2.92852517357
8400,Oostende,Zwanenlaan,57,51.1997528639,2.97102607013
8400,Oostende,Nieuwpoortsesteenweg,33,51.2235911121,2.90719499719
8400,Oostende,Zwaluwenstraat,42,51.2180435156,2.90690657854
8400,Oostende,Schaafstraat,3,51.2200174356,2.90112441158
8400,Oostende,Vrijheidstraat,32,51.2156759792,2.9056865998
8400,Oostende,Wilgenlaan,1,51.2124705113,2.88136153817
8400,Oostende,Stuiverstraat,166,51.2162790512,2.90657451779
8400,Oostende,Zandvoordedorpstraat,94,51.1987418481,2.97784139355
8400,Oostende,Oud Vliegveld,28,51.2074662724,2.91030215884
8400,Oostende,Stokkellaan,122,51.2093994545,2.88389416381
8400,Oostende,Vanderstichelenstraat,70,51.214328324,2.93892298054
8400,Oostende,Stuiverstraat,318,51.2118688246,2.91344584501
8400,Oostende,Acacialaan,19,51.2140238736,2.88318800916
8400,Oostende,Sint-Jorisstraat,38,51.2148157826,2.93124127581
8400,Oostende,Acacialaan,3,51.2136122151,2.8838110336
8400,Oostende,Jan Diericksenstraat,13,51.2307622186,2.94730846448
8400,Oostende,Karel Janssenslaan,18,51.2280188246,2.91104157387
8400,Oostende,Corneel Heymansstraat,7,51.2062212051,2.93477751525
8400,Oostende,Lindenlaan,28,51.2101533543,2.90357604013
8400,Oostende,Velodroomstraat,33,51.2242312018,2.90517312505
8400,Oostende,Duinhelmstraat,20,51.2122443311,2.87500754064
8400,Oostende,Zandvoordestraat,139,51.2153761269,2.94171506379
8400,Oostende,Gerststraat,127A,51.215354752,2.90920011135
8400,Oostende,Schaafstraat,37,51.2208241494,2.90249670484
8400,Oostende,Pycke de ten Aerdelaan,26,51.2111276504,2.8874286082
8400,Oostende,Roekstraat,4,51.2056173367,2.92372257819
8400,Oostende,Havikstraat,8,51.2094752406,2.93499795913
8400,Oostende,Zilverlaan,41,51.2036532102,2.91601526264
8400,Oostende,Cirkelstraat,10,51.2335760242,2.91973431636
8400,Oostende,Brugsesteenweg,50,51.2205844177,2.97768168996
8400,Oostende,Wagenstraat,23,51.2186978803,2.90857099112
8400,Oostende,Kastanjelaan,43,51.2110571501,2.90227164823
8400,Oostende,Metselaarsstraat,61,51.2201411006,2.90394961638
8400,Oostende,Taboralaan,204,51.2358794288,2.94881494117
8400,Oostende,Dahlialaan,28,51.2140104979,2.92942690287
8400,Oostende,Thomas Van Loostraat,57,51.2303246454,2.94436095972
8400,Oostende,Gerststraat,34,51.2189631787,2.91060406944
8400,Oostende,Euphrosina Beernaertstraat,136,51.2267282637,2.91047726918
8400,Oostende,Nieuwpoortsesteenweg,68,51.2234115986,2.90566213619
8400,Oostende,Van Iseghemlaan,38D,51.2329880416,2.91548044
8400,Oostende,Thomas Van Loostraat,39,51.2304139357,2.94361608722
8400,Oostende,Vanderstichelenstraat,7,51.2153008678,2.94120749396
8400,Oostende,Slachtersstraat,20,51.2093697047,2.90606154486
8400,Oostende,Papaverstraat,5,51.2116536659,2.87630291593
8400,Oostende,Kaïrostraat,56,51.2241475025,2.91568832265
8400,Oostende,Mariakerkelaan,399,51.2137563166,2.8886077716
8400,Oostende,Heilig-Hartplein,10,51.221746167,2.90585023863
8400,Oostende,Frère-Orbanstraat,181,51.2172105173,2.91788945065
8400,Oostende,Hyacintenlaan,9,51.2159588958,2.88389436667
8400,Oostende,Werktuigkundigenstraat,36,51.2322302405,2.94250151779
8400,Oostende,Sint-Franciscusstraat,41,51.2308482025,2.92172007277
8400,Oostende,Boterbloemstraat,23,51.2017333309,2.97750166298
8400,Oostende,Zandvoordedorpstraat,76,51.1992394434,2.97784874221
8400,Oostende,Korenbloemlaan,65,51.2093263221,2.92151107503
8400,Oostende,De Rudderstraat,2,51.2326221222,2.94500260728
8400,Oostende,Verenigingstraat,19,51.2196303141,2.89899539402
8400,Oostende,Pauwenplein,9,51.2081611013,2.93208977425
8400,Oostende,Frère-Orbanstraat,117,51.2186365819,2.9134885125
8400,Oostende,Oude Molenstraat,19,51.2219424476,2.9097464388
8400,Oostende,Golvenstraat,27,51.2150040706,2.89834470224
8400,Oostende,Oude Molenstraat,3,51.2220868593,2.90902753278
8400,Oostende,Afrikalaan,47,51.2334912493,2.94639072224
8400,Oostende,Ganzestraat,31,51.2164043171,2.94142423141
8400,Oostende,Gerststraat,69,51.2172804981,2.90970758767
8400,Oostende,Schapenstraat,10,51.2132194076,2.9093672564
8400,Oostende,Westlaan,36,51.2047441352,2.86144230672
8400,Oostende,Egellaan,5,51.1982196938,2.97186226637
8400,Oostende,Dorpsstraat,99,51.2116703791,2.87233973153
8400,Oostende,Pycke de ten Aerdelaan,72,51.2103453599,2.88997437478
8400,Oostende,Zwanenlaan,93,51.1978877634,2.97438152646
8400,Oostende,Wilgenlaan,17,51.2128678108,2.8811059679
8400,Oostende,Nieuwpoortsesteenweg,15,51.2238793945,2.90797124911
8400,Oostende,Overvloedstraat,82,51.2165464756,2.89620283762
8400,Oostende,Van Dijckstraat,17,51.2110184943,2.90662073238
8400,Oostende,Keramiekstraat,6,51.216931542,2.93672046023
8400,Oostende,Duivenhokstraat,8,51.2207165443,2.90147506063
8400,Oostende,Gerststraat,87,51.2168234138,2.90958889968
8400,Oostende,Rogierlaan,41,51.2264428889,2.91140868415
8400,Oostende,Kaïrostraat,21,51.224729971,2.91657416383
8400,Oostende,Antwerpenstraat,10,51.2249682607,2.9128776127
8400,Oostende,Hooggeleedstraat,6,51.2136558291,2.95745117395
8400,Oostende,Resedalaan,11,51.2118652501,2.92598649473
8400,Oostende,Stuiverstraat,42,51.2195272287,2.90171346338
8400,Oostende,Stuiverstraat,382,51.210697865,2.91523727475
8400,Oostende,Dokter Eduard Moreauxlaan,149,51.2328263422,2.94096397821
8400,Oostende,Gerststraat,16,51.2197194122,2.91075593965
8400,Oostende,Steensedijk,186,51.2072518513,2.90791291338
8400,Oostende,Vanderstichelenstraat,52,51.2145803819,2.93951601344
8400,Oostende,Aartshertogstraat,78,51.2165816381,2.8836788606
8400,Oostende,Korenbloemlaan,12,51.2113241881,2.92553404524
8400,Oostende,Ruitingenstraat,13,51.2346138214,2.94449185821
8400,Oostende,Nieuwpoortsesteenweg,648,51.1963684838,2.84548529475
8400,Oostende,Elisabethlaan,5,51.21603601,2.89112810303
8400,Oostende,Sint-Lodewijksstraat,11,51.2136615927,2.93277706307
8400,Oostende,Overvloedstraat,2,51.2184558839,2.89675067672
8400,Oostende,Honoré Borgersstraat,50,51.2162763986,2.90225057648
8400,Oostende,Elisabethlaan,228,51.2144694293,2.90216781755
8400,Oostende,Stroombanklaan,32,51.2336111354,2.94303365106
8400,Oostende,Waterlelielaan,20,51.2142493176,2.92301075459
8400,Oostende,Euphrosina Beernaertstraat,118,51.2266592954,2.91113990611
8400,Oostende,Bonenstraat,1,51.2319539721,2.92106544464
8400,Oostende,Zeedijk,149,51.2185341272,2.88483909243
8400,Oostende,Perzikenlaan,32,51.2076187977,2.91245091181
8400,Oostende,Sint-Pietersstraat,4,51.229666292,2.92000957869
8400,Oostende,Beekstraat,3,51.217706776,2.92614337128
8400,Oostende,Westlaan,82,51.2063905271,2.85956751594
8400,Oostende,Zilverlaan,298,51.2084804654,2.92744580763
8400,Oostende,Bonenstraat,17,51.232142144,2.92167619858
8400,Oostende,Waterwerkstraat,19,51.2164620274,2.91892534811
8400,Oostende,Stokkellaan,140,51.2098191013,2.88344183622
8400,Oostende,Mariakerkelaan,128,51.2118366385,2.90656574934
8400,Oostende,Vrijheidstraat,49,51.2149805884,2.90506154834
8400,Oostende,Werktuigkundigenstraat,18,51.2315744459,2.94229490155
8400,Oostende,Torhoutsesteenweg,289,51.2167174289,2.90680870886
8400,Oostende,Lariksenlaan,30,51.2099153093,2.90119200685
8400,Oostende,Nieuwpoortsesteenweg,666,51.1957113416,2.84430382295
8400,Oostende,Stokkellaan,94,51.2086502118,2.88456034849
8400,Oostende,Zeedijk,357,51.2069565505,2.85913043941
8400,Oostende,Sportstraat,37,51.2237681563,2.90381065154
8400,Oostende,Christinastraat,136,51.2284134986,2.9202055677
8400,Oostende,Zwanenlaan,75,51.1990837835,2.97221702454
8400,Oostende,Torhoutsesteenweg,565,51.2053785704,2.90373498996
8400,Oostende,Frère-Orbanstraat,163,51.2173452826,2.91732554569
8400,Oostende,Nachtegalenlaan,14,51.2151463729,2.91872403977
8400,Oostende,Leeuwerikenstraat,67,51.2126907283,2.90836481456
8400,Oostende,Steenovenstraat,22,51.2152908603,2.93881632554
8400,Oostende,Onafhankelijkheidsstraat,68,51.2137662964,2.89814166777
8400,Oostende,Leffingestraat,128,51.2182529258,2.90857561454
8400,Oostende,Stroombanklaan,14,51.233126348,2.94348493626
8400,Oostende,Waregemlaan,19,51.2096986216,2.8815240475
8400,Oostende,Stormvogelstraat,8,51.2098811785,2.93392606829
8400,Oostende,Dilbeeklaan,34,51.210683824,2.8843044322
8400,Oostende,Voorhavenlaan,49,51.2280423719,2.94331027183
8400,Oostende,Euphrosina Beernaertstraat,50,51.2274027794,2.91502692256
8400,Oostende,Aartshertogstraat,25,51.215764993,2.88601666027
8400,Oostende,Westlaan,18,51.2043033594,2.86197274816
8400,Oostende,Werktuigkundigenstraat,2,51.2308863346,2.94210717847
8400,Oostende,Pycke de ten Aerdelaan,54,51.2107278016,2.88899684099
8400,Oostende,Binnenpad,4,51.2105288763,2.92336621183
8400,Oostende,Frère-Orbanstraat,335,51.2164695219,2.92538874594
8400,Oostende,Zandvoordedorpstraat,6,51.2015143684,2.97464250076
8400,Oostende,Sint-Antoniusstraat,5,51.231363535,2.94136273353
8400,Oostende,Voorhavenlaan,138,51.2320968353,2.94781421011
8400,Oostende,Stuiverstraat,60,51.2192621082,2.90207582562
8400,Oostende,Middenlaan,20,51.2049993532,2.86264036541
8400,Oostende,Wagenmakersstraat,5,51.2087382381,2.90550226474
8400,Oostende,Brouwerijstraat,5,51.2159769022,2.94010406415
8400,Oostende,Spaarzaamheidstraat,71,51.217905872,2.8997591872
8400,Oostende,Manestraat,17,51.2164977343,2.93922179525
8400,Oostende,Taboralaan,8,51.2396189605,2.94407086773
8400,Oostende,Simon Stevinstraat,20,51.2106927379,2.95575944205
8400,Oostende,Lobelialaan,12,51.212946672,2.9221671178
8400,Oostende,Tarwestraat,100,51.2160105391,2.91104076981
8400,Oostende,Steenbakkersstraat,85,51.2200804915,2.90591693721
8400,Oostende,Middenlaan,55,51.2054169072,2.86153620968
8400,Oostende,Ravenlaan,4,51.2021939258,2.96658379984
8400,Oostende,Frans Musinstraat,12,51.223368156,2.90500650017
8400,Oostende,Geraniumlaan,33,51.2142546894,2.87773313617
8400,Oostende,Passchijnstraat,11A,51.2154604564,2.88762068451
8400,Oostende,Nieuwelangestraat,116,51.2135891656,2.93479509196
8400,Oostende,Onafhankelijkheidsstraat,15,51.2130889127,2.9038734629
8400,Oostende,Brugsesteenweg,136,51.2224736899,2.98703456381
8400,Oostende,Fazantstraat,9,51.2068998593,2.93289499807
8400,Oostende,Gistelsesteenweg,123,51.2104137635,2.9302935756
8400,Oostende,Nijverheidstraat,66,51.2190647959,2.90664480896
8400,Oostende,Kerkgoedstraat,13,51.2160277632,2.93709862151
8400,Oostende,Kaïrostraat,74,51.2239677817,2.91500713693
8400,Oostende,Duivenstraat,15,51.2111438568,2.91274450586
8400,Oostende,Nieuwlandstraat,8,51.2181549642,2.90918263943
8400,Oostende,Eigen-Haardstraat,50,51.2124081428,2.89747610598
8400,Oostende,Rozenlaan,6,51.2143134606,2.88525161489
8400,Oostende,Koningsstraat,14,51.2301387243,2.91276015769
8400,Oostende,Madeliefjeslaan,7,51.2106167712,2.87694725158
8400,Oostende,Louisastraat,12,51.2333609557,2.91676232986
8400,Oostende,Madeliefjeslaan,77,51.2126175308,2.87379925749
8400,Oostende,Renteniersstraat,4,51.2234655584,2.90728540524
8400,Oostende,Fazantstraat,16,51.2070597315,2.9325863838
8400,Oostende,Raversijdestraat,46,51.2162048935,2.87965625369
8400,Oostende,Schietbaanstraat,80,51.2316507699,2.94977821966
8400,Oostende,Dokter Verhaeghestraat,107,51.2181101863,2.89581706626
8400,Oostende,Stationsstraat,158,51.209068714,2.97740043934
8400,Oostende,Stuurboordstraat,3,51.2374515949,2.94207357635
8400,Oostende,Torhoutsesteenweg,610,51.2035764871,2.90474394926
8400,Oostende,Leeuwerikenstraat,49,51.2130438914,2.90853468363
8400,Oostende,Vijverstraat,27,51.217307902,2.92933231987
8400,Oostende,Groentemarkt,19,51.2319559308,2.91917694148
8400,Oostende,Wulklaan,18,51.2067993886,2.86442005029
8400,Oostende,Kapellestraat,41A,51.2303432658,2.91866118545
8400,Oostende,Torenvalkstraat,10,51.2028812261,2.90812000669
8400,Oostende,Stuiverstraat,211,51.2147358265,2.90841731041
8400,Oostende,Zwaluwenstraat,128,51.2179273054,2.91319255796
8400,Oostende,Kapellestraat,21,51.2309122405,2.91800801223
8400,Oostende,Prof. Jozef Vercoulliestraat,19,51.2184526346,2.90145966459
8400,Oostende,Prof. Jozef Vercoulliestraat,3,51.2186867107,2.90210980761
8400,Oostende,Amsterdamstraat,27,51.2255227496,2.9153836108
8400,Oostende,Tarwestraat,2,51.2192199993,2.9118566661
8400,Oostende,Alfons Pieterslaan,32,51.2260608737,2.91475991842
8400,Oostende,Pauwenplein,16,51.2077898495,2.93252970484
8400,Oostende,Grintweg,75,51.2015314366,2.96988424622
8400,Oostende,Zwitserlandstraat,12,51.215558049,2.88776817431
8400,Oostende,Wilgenlaan,55A,51.2147414707,2.88009217203
8400,Oostende,Stokkellaan,23,51.2075944885,2.88650974278
8400,Oostende,Elisabethlaan,429,51.2141121733,2.91226595941
8400,Oostende,Christinastraat,12,51.2333121963,2.91470995456
8400,Oostende,Nieuwpoortsesteenweg,139,51.2216681003,2.90305900451
8400,Oostende,Vrijheidstraat,67,51.2145052542,2.90491428346
8400,Oostende,Vanderstichelenstraat,123,51.2132068781,2.93672915655
8400,Oostende,Zeedijk,167,51.2172125549,2.88090227521
8400,Oostende,Stenenstraat,11,51.218120703,2.91266831384
8400,Oostende,Regenboogpad,2,51.2097482812,2.91937929495
8400,Oostende,Eikenlaan,7,51.2115700324,2.89522687639
8400,Oostende,Honoré Borgersstraat,30,51.2168890583,2.90240853374
8400,Oostende,Nieuwpoortsesteenweg,476,51.2096874216,2.87542074466
8400,Oostende,Stenedorpstraat,4,51.2022447723,2.91479078888
8400,Oostende,Paul Michielslaan,30,51.2083815667,2.88736938041
8400,Oostende,Vredestraat,19B,51.2155543829,2.89134934389
8400,Oostende,Eksterstraat,14,51.2096729219,2.93272249338
8400,Oostende,Lavendelstraat,19,51.2060619738,2.91698385822
8400,Oostende,Sergeant De Bruynestraat,23,51.2337735991,2.94793738971
8400,Oostende,Duivenhokstraat,106,51.2186391397,2.90427807829
8400,Oostende,Oudstationstraat,14,51.2120224824,2.93239654235
8400,Oostende,Wulklaan,2,51.2065018492,2.86626856595
8400,Oostende,Prins Albertlaan,63,51.2221089842,2.94650932605
8400,Oostende,Prinses Stefanieplein,23,51.2243851132,2.91063285372
8400,Oostende,Muntstraat,25,51.2154761889,2.93453597233
8400,Oostende,Visserskaai,49,51.2344653279,2.92104218084
8400,Oostende,Ooststraat,33,51.2306860436,2.9192029544
8400,Oostende,Koningsstraat,67,51.2285400999,2.90855091968
8400,Oostende,Leopold Van Tyghemlaan,46,51.2163125831,2.88550740096
8400,Oostende,Luchthavenstraat,20,51.20594025,2.86433311394
8400,Oostende,Rietmusstraat,12,51.2049969587,2.93043494737
8400,Oostende,Vrijheidstraat,85,51.2134092336,2.9046503755
8400,Oostende,Hazenlaan,2,51.1991844753,2.96931297374
8400,Oostende,Prins Albertlaan,81,51.2215549676,2.94877985945
8400,Oostende,Westdiepstraat,11,51.2344061848,2.94365832839
8400,Oostende,Nieuwpoortsesteenweg,393,51.2171506044,2.89282662481
8400,Oostende,Wapenplein,8A,51.2324420582,2.91750047548
8400,Oostende,Torhoutsesteenweg,354,51.2135106929,2.90642009745
8400,Oostende,Duivenhokstraat,78,51.2191493236,2.90342102355
8400,Oostende,Rozemarijnstraat,43,51.2077977349,2.9178947642
8400,Oostende,Zeedijk,185,51.2161178667,2.87837858248
8400,Oostende,Hamsterstraat,49,51.1987568801,2.97019950508
8400,Oostende,Eigen-Haardstraat,30,51.2129748845,2.89763514935
8400,Oostende,Spoorwegstraat,36,51.2224574215,2.91657147368
8400,Oostende,Boekareststraat,7,51.2349214692,2.91875051698
8400,Oostende,Cederdreef,1,51.2214713262,2.92106953936
8400,Oostende,Torhoutsesteenweg,1D,51.2273435557,2.90979997397
8400,Oostende,Spaarzaamheidstraat,8,51.2195571299,2.90061651578
8400,Oostende,Taboralaan,242,51.2341364019,2.9499498893
8400,Oostende,Mariakerkelaan,192,51.2118725897,2.90283973172
8400,Oostende,Goedheidstraat,10,51.2189437704,2.89742185149
8400,Oostende,Brouwerijstraat,22,51.2162374934,2.94060768367
8400,Oostende,Klimoplaan,18,51.1981357227,2.97535870761
8400,Oostende,Steenovenstraat,42,51.2150119624,2.93808569269
8400,Oostende,Sint-Amandsberglaan,40,51.212572261,2.88884830467
8400,Oostende,Gouwelozestraat,100,51.2185451168,2.93449028705
8400,Oostende,Steenbakkersstraat,32,51.2213664435,2.90434792313
8400,Oostende,Passchijnstraat,7,51.2153706604,2.88737074271
8400,Oostende,Afrikalaan,35,51.2332195141,2.94666263602
8400,Oostende,Nieuwedokstraat,47,51.2158467256,2.93414768237
8400,Oostende,Kerkgoedstraat,31,51.215663076,2.93679747466
8400,Oostende,Lotuslaan,5,51.209985745,2.91972687193
8400,Oostende,Lotuslaan,39,51.2092132815,2.92383133077
8400,Oostende,Mimosalaan,65,51.2117837043,2.92121155917
8400,Oostende,Alfons Pieterslaan,14,51.2263417391,2.91583672978
8400,Oostende,Stroombanklaan,70,51.234803813,2.94187562822
8400,Oostende,Lavendelstraat,3,51.2050657858,2.91852324847
8400,Oostende,Mariakerkelaan,228,51.2116829352,2.8988810645
8400,Oostende,Velodroomstraat,53,51.2238347884,2.90426927867
8400,Oostende,Grintweg,57,51.2018823926,2.97104599938
8400,Oostende,Jacob Besagestraat,40,51.2301276454,2.94268695771
8400,Oostende,Overvloedstraat,36,51.2177789575,2.89660884531
8400,Oostende,Gerststraat,9,51.2200273945,2.91042621235
8400,Oostende,Steensedijk,248,51.2087669694,2.90367682677
8400,Oostende,Timmermanstraat,63,51.2199839641,2.9048945252
8400,Oostende,Klaprozenlaan,67,51.2116493178,2.87380208577
8400,Oostende,Langestraat,13,51.231464802,2.91363304068
8400,Oostende,Nieuwelangestraat,88,51.2142549732,2.93486938477
8400,Oostende,Honoré Borgersstraat,12,51.2179546319,2.90267451095
8400,Oostende,Frère-Orbanstraat,11,51.2211884195,2.90885536674
8400,Oostende,Gistelsesteenweg,24,51.2157770853,2.92588082797
8400,Oostende,Peter Benoitstraat,47,51.2240565763,2.91190660042
8400,Oostende,Voorhavenlaan,67,51.2285644251,2.9438627509
8400,Oostende,Petunialaan,46,51.2099556411,2.92709809677
8400,Oostende,Taboralaan,260,51.2336498481,2.95025595774
8400,Oostende,Euphrosina Beernaertstraat,12,51.2280815614,2.91863328568
8400,Oostende,Kievitstraat,5,51.2100183762,2.93152076446
8400,Oostende,Loodsenstraat,10,51.2331430915,2.94235288351
8400,Oostende,Salvialaan,30,51.213711395,2.92288213985
8400,Oostende,Van Iseghemlaan,82,51.2304946501,2.91228611265
8400,Oostende,Notelaarsstraat,21,51.2136957471,2.9135291294
8400,Oostende,Leon Spilliaertstraat,89,51.226283487,2.91392054851
8400,Oostende,Stokkellaan,157,51.2106392246,2.88307965716
8400,Oostende,Leffingestraat,192,51.2162210684,2.90388676057
8400,Oostende,Leeuwerikenstraat,211,51.2081144725,2.90634305728
8400,Oostende,Christinastraat,30,51.2320117392,2.91601634138
8400,Oostende,Gistelsesteenweg,141,51.2094787181,2.93085668795
8400,Oostende,Nieuwpoortsesteenweg,375,51.2174396133,2.89345149386
8400,Oostende,Timmermanstraat,81,51.2203009959,2.90532636372
8400,Oostende,Tarwestraat,36,51.2182739311,2.91162739466
8400,Oostende,Emiel De Smitlaan,11,51.2073158573,2.86804066022
8400,Oostende,Hendrik Baelskaai,48,51.2306455899,2.93878668289
8400,Oostende,Steensedijk,266,51.2088832223,2.90242284676
8400,Oostende,Nieuwstraat,6,51.23324417,2.92104629747
8400,Oostende,Klimoplaan,2,51.1991116038,2.97499359222
8400,Oostende,Ijzerstraat,11,51.2295725827,2.9127207014
8400,Oostende,Peter Benoitstraat,73,51.2236046375,2.91281151192
8400,Oostende,Roerdompstraat,66,51.2146540565,2.89030228821
8400,Oostende,Noord-Edestraat,41,51.2280282225,2.9438894421
8400,Oostende,Edmond Laponstraat,35,51.2257412841,2.9079961182
8400,Oostende,Voorhavenlaan,85,51.2294074515,2.944694244
8400,Oostende,Zonnestraat,8,51.2164763502,2.93846435061
8400,Oostende,Perzikenlaan,70,51.209719855,2.90935635298
8400,Oostende,Spoorwegstraat,18,51.2240448894,2.91732565991
8400,Oostende,Taboralaan,106,51.2386987466,2.94647719254
8400,Oostende,Werkzaamheidstraat,79,51.2171082176,2.89719530943
8400,Oostende,Leeuwerikenstraat,184,51.2088904572,2.90725547916
8400,Oostende,Plantenstraat,50,51.2204719259,2.91003007951
8400,Oostende,Nieuwlandstraat,106,51.2146859254,2.90819843473
8400,Oostende,Ganzestraat,13,51.2160306432,2.94121923034
8400,Oostende,Aimé Liebaertstraat,24,51.2301072853,2.94241495135
8400,Oostende,Lindenlaan,48,51.209461745,2.90338779419
8400,Oostende,Dokter Eduard Moreauxlaan,167,51.2335138636,2.94088665083
8400,Oostende,Vredestraat,44,51.2139541352,2.88880446758
8400,Oostende,Dilbeeklaan,9,51.2117876739,2.8838844231
8400,Oostende,Mariakerkelaan,57,51.2122934259,2.90965171685
8400,Oostende,Kapellestraat,41,51.2304705129,2.91849556782
8400,Oostende,Brugsesteenweg,30,51.2189478291,2.96827615729
8400,Oostende,Grintweg,93,51.2022059213,2.96890110166
8400,Oostende,Elisabethlaan,326,51.2144301729,2.9069628359
8400,Oostende,Eksterstraat,32,51.2100781894,2.93422558419
8400,Oostende,Spalaan,15,51.2066438422,2.88511749725
8400,Oostende,Steenbakkersstraat,14,51.2216466014,2.9038635401
8400,Oostende,Lijndraaiersstraat,31,51.2255237671,2.92573278436
8400,Oostende,Jules Peurquaetstraat,87,51.2240352326,2.91302814466
8400,Oostende,Spechtstraat,1,51.2073689888,2.93339320999
8400,Oostende,Hertstraat,24,51.2325530922,2.91364375893
8400,Oostende,Veldstraat,8,51.2038940483,2.91514410767
8400,Oostende,Molenaarsstraat,38,51.2112758361,2.90687874785
8400,Oostende,Deurnelaan,6,51.2129074222,2.88776443354
8400,Oostende,Hofstedestraat,68,51.2162995452,2.9248826886
8400,Oostende,Sint-Sebastiaansstraat,28,51.2307453318,2.91526437839
8400,Oostende,Christinastraat,118,51.2290972238,2.91929056866
8400,Oostende,Torhoutsesteenweg,372,51.2130386884,2.9064765453
8400,Oostende,Noord-Edestraat,21,51.2283830244,2.9425511605
8400,Oostende,Elzenlaan,12,51.2104953794,2.90339053878
8400,Oostende,Duinhelmstraat,3,51.2134936719,2.87650756983
8400,Oostende,Koningsstraat,52,51.2290175705,2.91037346763
8400,Oostende,Landbouwersstraat,6,51.2170456059,2.89366307542
8400,Oostende,Kasteelstraat,23,51.2024577202,2.97521677504
8400,Oostende,Keignaertlaan,15,51.1983036552,2.96864697944
8400,Oostende,Tarwestraat,135,51.2153574897,2.91040586581
8400,Oostende,Fregatstraat,4,51.2262630195,2.92495909531
8400,Oostende,Ankerstraat,6,51.2337280615,2.93895578806
8400,Oostende,Koopvaardijstraat,5,51.2375564477,2.94638472156
8400,Oostende,Koopvaardijstraat,39,51.2356291077,2.94677545904
8400,Oostende,Constant Permekelaan,30,51.21614543,2.91853953357
8400,Oostende,Marie-Joséstraat,10,51.2079085294,2.86181552869
8400,Oostende,Heilig-Hartlaan,19,51.2218077096,2.90464086842
8400,Oostende,Torhoutsesteenweg,201,51.2195268523,2.90753664844
8400,Oostende,Zandvoordestraat,8,51.2169737954,2.9348357728
8400,Oostende,Heilig-Hartlaan,3,51.2220619634,2.90406824786
8400,Oostende,Duinhelmstraat,37,51.2120402316,2.87383908377
8400,Oostende,Gelijkheidstraat,70,51.2153736206,2.90323801957
8400,Oostende,Steenbakkersstraat,49,51.2208847614,2.90460283961
8400,Oostende,Aartshertogstraat,96,51.2168792519,2.88315934559
8400,Oostende,Maurits Sabbestraat,26,51.2080379858,2.90726085696
8400,Oostende,Edith Cavellstraat,30,51.2236959104,2.91510136884
8400,Oostende,Romestraat,67,51.2241188482,2.91601965191
8400,Oostende,Kapucijnenstraat,46,51.2340011428,2.91753944922
8400,Oostende,Sint-Clarastraat,20,51.2063869461,2.92033223953
8400,Oostende,Muscarstraat,8,51.2255895022,2.90887495466
8400,Oostende,Gelijkheidstraat,138,51.2157904661,2.89968508999
8400,Oostende,Rietstraat,29,51.2184637667,2.91208427793
8400,Oostende,Leffingestraat,93,51.2190156056,2.90970857309
8400,Oostende,Torhoutsesteenweg,136,51.2211951536,2.90843955849
8400,Oostende,Nieuwpoortsesteenweg,304,51.21250906,2.88171743284
8400,Oostende,Jozef II-straat,12,51.2290278104,2.91757378938
8400,Oostende,Platformstraat,10,51.2340333507,2.91851650595
8400,Oostende,Mariakerkelaan,93,51.2122368444,2.90787948523
8400,Oostende,Stockholmstraat,33,51.2258413403,2.91708806467
8400,Oostende,Kroonlaan,63,51.2126235278,2.90710961945
8400,Oostende,Stokkellaan,175,51.2109888107,2.88273989588
8400,Oostende,Loodsenstraat,45,51.2327234182,2.94384335463
8400,Oostende,Zandvoordeschorredijkstraat,31,51.2125760135,2.94378225569
8400,Oostende,Nieuwpoortsesteenweg,361A,51.2177222023,2.89411694217
8400,Oostende,Guido Gezellestraat,38,51.2143341731,2.93369807453
8400,Oostende,Luikstraat,3,51.2223502065,2.89293868774
8400,Oostende,Nieuwpoortsesteenweg,86,51.2229748712,2.90496558432
8400,Oostende,Verlaatstraat,10,51.2178114213,2.9281939123
8400,Oostende,Dorpsstraat,11,51.2095650247,2.87396605526
8400,Oostende,Dahlialaan,48,51.2126803842,2.93168666558
8400,Oostende,Derbylaan,5,51.212800149,2.88364794156
8400,Oostende,Romestraat,85,51.2237419995,2.91648953002
8400,Oostende,Zeedijk,337,51.208058633,2.86195394652
8400,Oostende,Torhoutsesteenweg,440,51.2109718138,2.90588478912
8400,Oostende,Nieuwpoortsesteenweg,322,51.2120040381,2.880399233
8400,Oostende,Hospitaalstraat,18,51.2232696501,2.916188553
8400,Oostende,Romestraat,14,51.2257302476,2.91494518566
8400,Oostende,Zandvoordedorpstraat,122,51.1978570437,2.97883474696
8400,Oostende,Gistelsesteenweg,95,51.2117078415,2.92928481928
8400,Oostende,Jacob Besagestraat,29,51.2295652061,2.94308775098
8400,Oostende,Longchamplaan,19,51.2112489297,2.89056835665
8400,Oostende,Voorzienigheidstraat,16,51.2157563431,2.89486875893
8400,Oostende,Sint-Amandsberglaan,29,51.2123520202,2.88799519287
8400,Oostende,Leeuwerikenstraat,166,51.2095417686,2.90740611196
8400,Oostende,Mariakerkelaan,75,51.2122658826,2.90896424715
8400,Oostende,Begonialaan,22,51.2138954058,2.92906344741
8400,Oostende,Graaf de Smet de Naeyerlaan,19A,51.225544129,2.92348303197
8400,Oostende,Schermplantenstraat,72,51.2117451333,2.87548684772
8400,Oostende,Koebrugstraat,25,51.2118219545,2.94585277953
8400,Oostende,Stanleylaan,6,51.2325584735,2.94120515802
8400,Oostende,Vanderstichelenstraat,105,51.2135087093,2.93767518609
8400,Oostende,Adolf Buylstraat,28,51.2314245122,2.9159215126
8400,Oostende,Kapittelstraat,38,51.1969307731,2.97631900813
8400,Oostende,Keignaertlaan,33,51.1991104543,2.96800447641
8400,Oostende,Zeedijk,250,51.2145252172,2.87588124851
8400,Oostende,Torhoutsesteenweg,118,51.2219303078,2.90871160245
8400,Oostende,Spalaan,33,51.2072599849,2.8833235089
8400,Oostende,Prof. Jozef Vercoulliestraat,37,51.2180457057,2.90100765011
8400,Oostende,Edith Cavellstraat,12,51.2242242026,2.91457750764
8400,Oostende,Leffingestraat,75,51.2194968998,2.910828317
8400,Oostende,Mariakerkeplein,5,51.2145245831,2.88738429774
8400,Oostende,August Vermeylenstraat,11,51.2168005495,2.92785967418
8400,Oostende,Koolmeesstraat,22,51.2084067246,2.92987270472
8400,Oostende,Gelijkheidstraat,52,51.2153309992,2.90390497612
8400,Oostende,Zandvoordestraat,257,51.2137192121,2.94492607136
8400,Oostende,Ringlaan,1,51.2155501304,2.93208036913
8400,Oostende,Patrijsstraat,11,51.2086366168,2.9314632859
8400,Oostende,Schaafstraat,19,51.220485546,2.90189935056
8400,Oostende,Guido Gezellestraat,4,51.2154997187,2.9336816876
8400,Oostende,Longchamplaan,3,51.2111133612,2.89123048258
8400,Oostende,Sleutelbloemlaan,5,51.212998877,2.92109956729
8400,Oostende,Druivenlaan,5,51.2055491112,2.91387737366
8400,Oostende,Wellingtonstraat,28,51.2260666716,2.90742395965
8400,Oostende,Zuidstraat,15,51.2287820896,2.92255680155
8400,Oostende,Schermplantenstraat,54,51.212341805,2.87676813474
8400,Oostende,Frère-Orbanstraat,217,51.21691906,2.9195541638
8400,Oostende,Koolmeesstraat,57,51.2072597114,2.92887863027
8400,Oostende,Sartlaan,20,51.2103147133,2.88899777707
8400,Oostende,Elisabethlaan,308,51.2143528975,2.90554845298
8400,Oostende,Verlorenstraat,5,51.2339262722,2.91761409534
8400,Oostende,Lijsterstraat,21,51.2106148789,2.93189141102
8400,Oostende,Eksterstraat,49,51.2104455954,2.93466871703
8400,Oostende,Tijmstraat,1,51.2049855906,2.91690400389
8400,Oostende,Stationsstraat,138,51.2084705962,2.97704029577
8400,Oostende,Gistelsesteenweg,77,51.2122570074,2.9288384756
8400,Oostende,Torhoutsesteenweg,390,51.2125620437,2.9061722942
8400,Oostende,Torhoutsesteenweg,50,51.2257897993,2.90972730832
8400,Oostende,Warschaustraat,27,51.2275200939,2.90908355885
8400,Oostende,Nieuwpoortsesteenweg,494,51.2093923428,2.87472886994
8400,Oostende,Taboralaan,124,51.2381399855,2.94707281279
8400,Oostende,Maria Theresiastraat,33,51.2244555105,2.90541334346
8400,Oostende,Plantenstraat,5,51.2218286406,2.91025006799
8400,Oostende,Jules Peurquaetstraat,69,51.2245918113,2.91239284416
8400,Oostende,Paasbloemlaan,7,51.2113210187,2.92478099088
8400,Oostende,Stokkellaan,193,51.2113396293,2.88225509735
8400,Oostende,Spaarzaamheidstraat,106,51.2161507227,2.89963609734
8400,Oostende,Torhoutsesteenweg,1B,51.2274653145,2.90990469591
8400,Oostende,Ooststraat,68,51.2319339457,2.92189029026
8400,Oostende,Vindictivelaan,11,51.2279234772,2.91995819258
8400,Oostende,Langestraat,112,51.234430079,2.92032168247
8400,Oostende,Leeuwerikenstraat,148,51.2101249334,2.90762944506
8400,Oostende,Bakboordstraat,16,51.2375410286,2.94502039876
8400,Oostende,Hoefijzerstraat,7,51.2082286662,2.90542163867
8400,Oostende,Dokter Verhaeghestraat,92,51.2174996115,2.89933980989
8400,Oostende,Steensedijk,284,51.2089221532,2.90139399318
8400,Oostende,August Vermeylenstraat,64,51.2174020597,2.93029552663
8400,Oostende,Wittenonnenstraat,22B,51.2308958103,2.91790714426
8400,Oostende,Papegaaistraat,30,51.2061591268,2.93004448533
8400,Oostende,Goedheidstraat,45,51.218359199,2.89950212356
8400,Oostende,Hendrik Serruyslaan,68,51.2281187169,2.91762369759
8400,Oostende,Molenhoekstraat,9,51.196552731,2.97841872973
8400,Oostende,Wielewaalstraat,6,51.2069339885,2.92656875719
8400,Oostende,Spaarzaamheidstraat,159,51.2153247709,2.89904072176
8400,Oostende,Romestraat,32,51.2251907443,2.91544936464
8400,Oostende,Zandvoordedorpstraat,157,51.1954181331,2.98290087412
8400,Oostende,Wittenonnenstraat,25,51.2309696342,2.91744663614
8400,Oostende,Distellaan,10,51.2110053236,2.87750277217
8400,Oostende,Doornenlaan,4,51.2096672517,2.90300262769
8400,Oostende,Tarwestraat,18,51.2188027655,2.91173971368
8400,Oostende,Werkzaamheidstraat,97,51.216605516,2.89710366357
8400,Oostende,Kapucijnenstraat,11,51.2337449226,2.91834561741
8400,Oostende,Alfons Pieterslaan,49,51.2257486604,2.91230546378
8400,Oostende,Jozef II-straat,30,51.2290590084,2.91838038298
8400,Oostende,Vredestraat,19D,51.2154933466,2.89120598523
8400,Oostende,Nijverheidstraat,112,51.2178606147,2.906234203
8400,Oostende,Perzikenlaan,52,51.2087211847,2.91076672439
8400,Oostende,August Beernaertstraat,21,51.2128752624,2.93415016957
8400,Oostende,Schapenstraat,19,51.2127252205,2.90949851202
8400,Oostende,Euphrosina Beernaertstraat,83,51.2269078841,2.90936903236
8400,Oostende,Metselaarsstraat,23,51.2207055076,2.90294866859
8400,Oostende,Zandvoordestraat,124,51.21557805,2.94031553379
8400,Oostende,Nieuwpoortsesteenweg,214,51.2145917877,2.8860035636
8400,Oostende,Kaaistraat,1A,51.2315506375,2.91956413202
8400,Oostende,Zandvoordedorpstraat,119,51.1963129277,2.98064937401
8400,Oostende,Sterstraat,4,51.2148347352,2.88789319786
8400,Oostende,Maria Theresiastraat,51,51.2247923141,2.90503095713
8400,Oostende,Oude Molenstraat,10,51.2223308377,2.90913571765
8400,Oostende,Zandvoordestraat,385,51.2114561943,2.95574619599
8400,Oostende,Leeuwerikenstraat,128,51.2105852275,2.90787666922
8400,Oostende,August Vermeylenstraat,120,51.2174900216,2.9334214816
8400,Oostende,Nieuwlandstraat,4C,51.2182597783,2.90916719188
8400,Oostende,Pareloesterlaan,22,51.2075407096,2.86720547266
8400,Oostende,Sint-Paulusstraat,21,51.2294195473,2.91847140523
8400,Oostende,Verenigingstraat,10,51.2199730742,2.89958600054
8400,Oostende,Torhoutsesteenweg,290,51.215528403,2.90699140578
8400,Oostende,Zandvoordedorpstraat,15,51.2010089799,2.97577404129
8400,Oostende,Druivenlaan,12,51.2055679545,2.91326812557
8400,Oostende,Werktuigkundigenstraat,11,51.2310393037,2.94251388473
8400,Oostende,Blauwkasteelstraat,92,51.2165579309,2.91156461723
8400,Oostende,Romestraat,52,51.2241414867,2.91656743157
8400,Oostende,Dokter Eduard Moreauxlaan,267,51.238886146,2.9417247786
8400,Oostende,Verenigde-Natieslaan,3,51.2235421491,2.91762492077
8400,Oostende,Gistelsesteenweg,42,51.2137147311,2.92719105668
8400,Oostende,Zwanenlaan,40,51.2003273948,2.96915463648
8400,Oostende,Hennepstraat,3,51.2196321613,2.90822365071
8400,Oostende,Karel Van de Woestijnestraat,27,51.2196432101,2.90630214231
8400,Oostende,Jules Peurquaetstraat,26,51.2262159908,2.91107401134
8400,Oostende,Vanderstichelenstraat,32,51.2148521005,2.94012190579
8400,Oostende,Kapellestraat,56,51.2296794094,2.91961254318
8400,Oostende,Bakboordstraat,26,51.2370058516,2.94394463076
8400,Oostende,Westlaan,11,51.2040959544,2.86153551639
8400,Oostende,Nieuwpoortsesteenweg,568,51.2047835161,2.86432261014
8400,Oostende,Brusselstraat,15,51.2298591506,2.91268855784
8400,Oostende,Arendstraat,1,51.2085011025,2.93279992189
8400,Oostende,Leeuwerikenstraat,24,51.2135822553,2.90918557141
8400,Oostende,Toekomststraat,17,51.2231999421,2.90811851636
8400,Oostende,Koebrugstraat,17,51.2123343016,2.94577832587
8400,Oostende,Honoré Borgersstraat,65,51.2158552438,2.90164442677
8400,Oostende,Cirkelstraat,19,51.2336631845,2.92057519465
8400,Oostende,Paul Michielslaan,65,51.2099567207,2.88599758182
8400,Oostende,Prinsenlaan,35,51.2207997536,2.91122265835
8400,Oostende,Victor Ghyselincklaan,1,51.2003554393,2.9710389308
8400,Oostende,Amsterdamstraat,47,51.2250401963,2.91422348418
8400,Oostende,Noord-Edestraat,6,51.2287006825,2.94170468381
8400,Oostende,Gerststraat,54,51.2183662996,2.91035417311
8400,Oostende,Schaperijkreekstraat,9,51.2158792377,2.93590263081
8400,Oostende,Schoolstraat,16,51.2034566869,2.8640720166
8400,Oostende,Honoré Borgersstraat,83,51.2151745104,2.9013619424
8400,Oostende,Luxemburgstraat,7,51.2202431133,2.88876727226
8400,Oostende,Graaf de Smet de Naeyerlaan,58,51.2246851835,2.92539464425
8400,Oostende,Groenendaallaan,57,51.2110692679,2.88057333062
8400,Oostende,Steensedijk,693,51.2146083541,2.88937231244
8400,Oostende,Azalealaan,3,51.2128991354,2.93046828898
8400,Oostende,Acacialaan,10,51.2134304656,2.88301195098
8400,Oostende,Vissersplein,5,51.2321256075,2.9217574734
8400,Oostende,Pensjagersstraat,5,51.203601099,2.9069365855
8400,Oostende,Rozemarijnstraat,8,51.2067890382,2.91678133808
8400,Oostende,Mariakerkelaan,148,51.2119076794,2.90495399248
8400,Oostende,Sint-Niklaasstraat,1A,51.2336792879,2.91766316593
8400,Oostende,Zilverlaan,21,51.2032610505,2.91534156431
8400,Oostende,Nieuwelangestraat,25,51.2160582801,2.93547642957
8400,Oostende,Fortuinstraat,2B,51.2259817814,2.92281487144
8400,Oostende,Berkenlaan,1,51.2103360541,2.89488183595
8400,Oostende,Beukenlaan,5,51.2109523262,2.8954874177
8400,Oostende,Prins Roselaan,49,51.210624101,2.89089845855
8400,Oostende,August Vermeylenstraat,82,51.2175380407,2.93152728465
8400,Oostende,Notelaarsstraat,6,51.214013824,2.91320816608
8400,Oostende,Oosthinderstraat,45,51.2388161715,2.94342271987
8400,Oostende,Troonstraat,57,51.2204300561,2.88917263877
8400,Oostende,Visserskaai,24,51.231874788,2.9224120619
8400,Oostende,Primulapad,15,51.2107594073,2.92185378413
8400,Oostende,Torhoutsesteenweg,663,51.1975280054,2.90149827183
8400,Oostende,Vinkenstraat,28,51.209469738,2.9338549935
8400,Oostende,Bauwensplein,3,51.2117001288,2.8857988957
8400,Oostende,Nieuwpoortsesteenweg,586,51.2040028428,2.8626877006
8400,Oostende,Leffingestraat,148,51.2180027939,2.90788185834
8400,Oostende,Schietbaanstraat,79,51.2316213419,2.94967071885
8400,Oostende,Nieuwpoortsesteenweg,195,51.2207484379,2.90089368554
8400,Oostende,Stuiverstraat,264,51.2130012076,2.91171421511
8400,Oostende,Koolmeesstraat,29,51.208575606,2.93028297923
8400,Oostende,Aimé Liebaertstraat,42,51.229970746,2.94357278531
8400,Oostende,Sint-Franciscusstraat,21,51.2319592896,2.92070657866
8400,Oostende,Distellaan,45,51.2120131195,2.87690331641
8400,Oostende,Blauwvoetstraat,7,51.2054124579,2.93005605876
8400,Oostende,Pycke de ten Aerdelaan,69,51.2103661037,2.89050458214
8400,Oostende,Aartshertogstraat,63,51.2164522776,2.88461057631
8400,Oostende,Jacob Besagestraat,22,51.229437115,2.94249243577
8400,Oostende,Druivenlaan,30,51.2043231559,2.91180659456
8400,Oostende,Begonialaan,29,51.2125526092,2.92932645675
8400,Oostende,Groendreef,12,51.2182475649,2.92366443744
8400,Oostende,Voorzienigheidstraat,2,51.2162867983,2.89498698646
8400,Oostende,Sint-Antoniusstraat,40,51.2314345565,2.9430477859
8400,Oostende,Petunialaan,36,51.2106528303,2.92771075503
8400,Oostende,Passchijnstraat,49,51.2164171534,2.88961455689
8400,Oostende,Leffingestraat,166,51.2172600764,2.90641622152
8400,Oostende,Longchamplaan,136,51.2090308037,2.8851506542
8400,Oostende,Vanderstichelenstraat,14,51.2152187768,2.94061825771
8400,Oostende,Slachtersstraat,27,51.2095853725,2.90638812359
8400,Oostende,Gelukkige-Haardstraat,24,51.2124052204,2.91328869789
8400,Oostende,Sint-Clarastraat,3,51.2060402056,2.91863865309
8400,Oostende,Kastanjelaan,76,51.2113658166,2.90200616995
8400,Oostende,De Rudderstraat,11,51.2323830893,2.94442094659
8400,Oostende,August Vermeylenstraat,102,51.2175530939,2.93267774135
8400,Oostende,Jozef II-straat,39,51.2289755032,2.9205682673
8400,Oostende,Steensedijk,675,51.2138643251,2.88958070004
8400,Oostende,Spaarzaamheidstraat,150,51.2154124621,2.89949229802
8400,Oostende,Victorialaan,45,51.23287856,2.93725030653
8400,Oostende,Doornenlaan,13,51.2092365536,2.90275051873
8400,Oostende,Zwaluwenstraat,95,51.2173183529,2.91149462598
8400,Oostende,Zwaluwenstraat,59,51.2175091042,2.90937863609
8400,Oostende,Westlaan,9,51.2040527156,2.86159229687
8400,Oostende,August Beernaertstraat,6,51.2132836846,2.93456544418
8400,Oostende,Duinhelmstraat,27,51.2125178102,2.87482931109
8400,Oostende,Torhoutsesteenweg,12,51.2273348066,2.91043926078
8400,Oostende,Orchideelaan,15,51.2119934821,2.92005469298
8400,Oostende,Aimé Liebaertstraat,60,51.2298219908,2.94434409517
8400,Oostende,Prins Albertlaan,96,51.2211110128,2.94972147805
8400,Oostende,Vredestraat,7,51.2165125845,2.89338246965
8400,Oostende,Vinkenstraat,4,51.2086656127,2.93254010164
8400,Oostende,Chrysantenstraat,15,51.2112960865,2.91500465667
8400,Oostende,Ieperstraat,21,51.2258760318,2.91565938239
8400,Oostende,Zandvoordestraat,260,51.213201454,2.94574600812
8400,Oostende,Rozenlaan,15,51.2147909251,2.8852297035
8400,Oostende,Waterwerkstraat,10,51.2166459659,2.91946087024
8400,Oostende,Kapellestraat,74,51.2288847929,2.92051681715
8400,Oostende,Maurits Sabbestraat,16,51.2094403507,2.90859894621
8400,Oostende,Sterstraat,28,51.2146533439,2.88880776492
8400,Oostende,Koopvaardijstraat,12,51.236777016,2.94545015042
8400,Oostende,Spalaan,51,51.208034827,2.88190511817
8400,Oostende,Plakkersstraat,10,51.2203655131,2.90239845568
8400,Oostende,Nieuwpoortsesteenweg,177,51.2210703494,2.90159449407
8400,Oostende,Mariakerkelaan,328,51.2128876376,2.88975380202
8400,Oostende,Elisabethlaan,379,51.2140841701,2.91009598076
8400,Oostende,Kapellestraat,84B,51.2285500181,2.92112772468
8400,Oostende,Raversijdestraat,18,51.2167713629,2.88166372729
8400,Oostende,Wagenstraat,8,51.2191945662,2.9083000542
8400,Oostende,Gelijkheidstraat,67,51.2156624376,2.90322780111
8400,Oostende,Zandvoordestraat,106,51.2156307547,2.93988577891
8400,Oostende,Filip Van Maestrichtplein,7,51.2243871771,2.91356736617
8400,Oostende,Prins Roselaan,85,51.2097460037,2.88988259163
8400,Oostende,Gerststraat,72,51.2178523314,2.91028105884
8400,Oostende,Euphrosina Beernaertstraat,65,51.226934721,2.91064133982
8400,Oostende,Waregemlaan,10,51.2102424014,2.88201424786
8400,Oostende,Stuiverstraat,272A,51.2127495747,2.91212299606
8400,Oostende,Frans Musinstraat,50,51.2243500367,2.90388643871
8400,Oostende,Windenstraat,17,51.2135243235,2.91190227774
8400,Oostende,Christinastraat,83,51.2301304597,2.91760448503
8400,Oostende,Duivenhokstraat,35,51.2200039781,2.90190934079
8400,Oostende,Torhoutsesteenweg,254,51.2169796897,2.90739942298
8400,Oostende,Honoré Borgersstraat,101,51.21468854,2.90133600379
8400,Oostende,Koninginnelaan,64,51.2245831917,2.90869627662
8400,Oostende,Eigen-Haardstraat,39,51.2123424271,2.89699223635
8400,Oostende,Mariakerkelaan,166,51.2119314286,2.9041202127
8400,Oostende,Kievitstraat,12,51.2096807583,2.93112554791
8400,Oostende,Torhoutsesteenweg,540,51.2075901029,2.90504465179
8400,Oostende,Frère-Orbanstraat,102,51.2195795426,2.91241376686
8400,Oostende,Graaf de Smet de Naeyerlaan,76,51.2248442267,2.92610286188
8400,Oostende,Van Hembdenstraat,17,51.2333916835,2.94712735947
8400,Oostende,Keignaertlaan,51,51.1997690607,2.96769294042
8400,Oostende,Steensedijk,657,51.2136033366,2.89011243375
8400,Oostende,Leon Spilliaertstraat,4,51.2290965311,2.91160869433
8400,Oostende,Steenovenstraat,5,51.2154679567,2.93960405058
8400,Oostende,Van Iseghemlaan,11,51.2349136452,2.91745978386
8400,Oostende,Stenenstraat,66,51.2168269985,2.91400318089
8400,Oostende,Fazantstraat,2,51.207486644,2.93276173021
8400,Oostende,Esdoornlaan,6,51.21291637,2.8820791824
8400,Oostende,Adelaarstraat,21,51.2054106866,2.92897991003
8400,Oostende,Aartshertoginnestraat,25,51.2292080244,2.91744618748
8400,Oostende,Kersenlaan,24,51.2111536788,2.90004564898
8400,Oostende,Torhoutsesteenweg,700,51.1951579223,2.90177438631
8400,Oostende,Plakkersstraat,45,51.219856893,2.90372948944
8400,Oostende,Schaperijkreekstraat,11,51.2159267139,2.93591076324
8400,Oostende,Steensedijk,449,51.2079234235,2.89735618683
8400,Oostende,Havikstraat,35,51.2084518267,2.93479196971
8400,Oostende,Taboralaan,88,51.239039258,2.94613827108
8400,Oostende,Duinenstraat,93,51.2058804769,2.85797409849
8400,Oostende,Zilverlaan,300,51.2085909582,2.92767482445
8400,Oostende,Moerasstraat,3,51.2224815605,2.91018183422
8400,Oostende,Verenigingstraat,116,51.2169959624,2.89873770123
8400,Oostende,Thomas Van Loostraat,40,51.2305605219,2.94435919647
8400,Oostende,Lotuslaan,30,51.2082951716,2.92482182406
8400,Oostende,Pauwenplein,2,51.2074344085,2.9323173814
8400,Oostende,Ernest Claeslaan,8,51.1997339634,2.97570120219
8400,Oostende,Schildersstraat,4,51.2207343863,2.90554969644
8400,Oostende,Zwaluwenstraat,113,51.2173947355,2.91230933767
8400,Oostende,Lotuslaan,65,51.2079702305,2.92338378988
8400,Oostende,Kruidenstraat,10,51.2053343243,2.91704356407
8400,Oostende,Elisabethlaan,274,51.2143616939,2.90441421773
8400,Oostende,Stuiverstraat,59,51.2189869728,2.90176839069
8400,Oostende,Leopold Van Tyghemlaan,18,51.2165322193,2.88837081885
8400,Oostende,Euphrosina Beernaertstraat,39,51.2271356936,2.91249868101
8400,Oostende,Zeedijk,350,51.2074647591,2.86022132401
8400,Oostende,Leopold II-laan,4,51.2297132015,2.91413959336
8400,Oostende,Nieuwlandstraat,88,51.215440143,2.90842689714
8400,Oostende,Molenstraat,5,51.2228389717,2.9082845833
8400,Oostende,Schippersstraat,11,51.2333759734,2.92027580811
8400,Oostende,Stokkellaan,147,51.2104430322,2.88329229728
8400,Oostende,Bloemenstraat,7,51.2187147766,2.95983319539
8400,Oostende,Frère-Orbanstraat,66,51.2202377011,2.9112015682
8400,Oostende,Mariakerkelaan,184,51.211891406,2.9031828029
8400,Oostende,Zakstraat,22,51.2033827886,2.86289289626
8400,Oostende,Klaprozenlaan,52,51.211199367,2.87371759966
8400,Oostende,Meiboomlaan,2,51.2153757642,2.917995325
8400,Oostende,Marie-Joséplein,3,51.2309002555,2.91360626691
8400,Oostende,Steenovenstraat,95,51.2143836679,2.93617143362
8400,Oostende,Goudsbloemlaan,1,51.2111623316,2.92267587965
8400,Oostende,Vrijhavenstraat,32,51.2263429433,2.92428913191
8400,Oostende,Violierenlaan,46,51.2118940812,2.87905642314
8400,Oostende,Kapittelstraat,13,51.1971059264,2.97785638087
8400,Oostende,Taboralaan,35,51.2379497446,2.94663780851
8400,Oostende,Wapenplein,3,51.2317761352,2.91708775242
8400,Oostende,Voorhavenlaan,121,51.2305318234,2.94606845716
8400,Oostende,Sportstraat,10,51.2230629646,2.90412958614
8400,Oostende,Mariakerkelaan,131,51.2122319032,2.90497888738
8400,Oostende,Chrysantenstraat,33,51.2108497187,2.91577214149
8400,Oostende,Dokter Verhaeghestraat,72B,51.2174246066,2.90011933468
8400,Oostende,Leffingestraat,203,51.2167466709,2.90418747121
8400,Oostende,Lotuslaan,12,51.208922239,2.92427758524
8400,Oostende,Nieuwpoortsesteenweg,741,51.2107998812,2.87863549082
8400,Oostende,Sprookjespad,20,51.2105212657,2.92169270773
8400,Oostende,Nieuwpoortsesteenweg,51,51.2232260331,2.90642474165
8400,Oostende,Lotuslaan,83,51.2080315075,2.92212371983
8400,Oostende,Rozenlaan,33,51.2150478067,2.88465898072
8400,Oostende,Peter Benoitstraat,20,51.2246499583,2.91139856116
8400,Oostende,Waterlelielaan,3,51.214182348,2.92636128635
8400,Oostende,Honoré Borgersstraat,39,51.2165841468,2.90180959839
8400,Oostende,Paul Michielslaan,39,51.2089080596,2.88720639044
8400,Oostende,Karel Van de Woestijnestraat,3,51.2200756106,2.90760220323
8400,Oostende,Nieuwlandstraat,35,51.2170645822,2.90844232183
8400,Oostende,Leffingestraat,131,51.2184147907,2.90822955762
8400,Oostende,San Cirolaan,22,51.210431473,2.88157869147
8400,Oostende,Zeedijk,142,51.2194379114,2.88606496739
8400,Oostende,Stockholmstraat,51,51.2252976076,2.91767324447
8400,Oostende,Egellaan,40,51.1979157364,2.97257735847
8400,Oostende,Winkelpad,1,51.2074708252,2.92153127463
8400,Oostende,Middenlaan,3,51.204119653,2.86293680697
8400,Oostende,Van Iseghemlaan,64,51.231705915,2.91344294547
8400,Oostende,Torhoutsesteenweg,90E,51.2230430642,2.90897054858
8400,Oostende,Dokter Eduard Moreauxlaan,23,51.2279283115,2.94159716353
8400,Oostende,Chaletstraat,17,51.2274985093,2.90815785505
8400,Oostende,Gerststraat,90,51.2171499986,2.9101041837
8400,Oostende,Zandvoordestraat,150,51.2152179914,2.94136490946
8400,Oostende,Overvloedstraat,9,51.2183824434,2.89635416942
8400,Oostende,Steenovenstraat,77,51.2143854133,2.93737732961
8400,Oostende,Rode-Kruisstraat,7,51.2155305652,2.89729904188
8400,Oostende,Olmenlaan,24,51.2113960859,2.89883986274
8400,Oostende,Torhoutsesteenweg,272,51.2163754692,2.90726174876
8400,Oostende,Elisabethlaan,256,51.2143404263,2.90345927924
8400,Oostende,Acacialaan,45,51.2151989307,2.88209633392
8400,Oostende,Zandvoordedorpstraat,137,51.1959539745,2.98142453311
8400,Oostende,Schapenstraat,37,51.212443292,2.90997237434
8400,Oostende,Zandvoordestraat,242,51.2133693195,2.94475439468
8400,Oostende,Van Iseghemlaan,135,51.2289859688,2.9108219097
8400,Oostende,Gouwelozestraat,28,51.2179754487,2.92762225613
8400,Oostende,Oudenburgsesteenweg,19,51.2206793967,2.9539387348
8400,Oostende,Esdoornlaan,21,51.2132916914,2.8821562537
8400,Oostende,Mariakerkelaan,203,51.2122449549,2.89800240444
8400,Oostende,Kievitstraat,30,51.2091003819,2.93154918575
8400,Oostende,Zwanenlaan,29,51.2008608483,2.96923680166
8400,Oostende,Graaf de Smet de Naeyerlaan,94,51.2250371019,2.92676221863
8400,Oostende,Koninginnelaan,46,51.2253244259,2.907684169
8400,Oostende,Voorhavenlaan,174,51.2328492313,2.94962132481
8400,Oostende,Spaarzaamheidstraat,88,51.2167674202,2.90000303219
8400,Oostende,Pycke de ten Aerdelaan,48,51.2108840302,2.88862160723
8400,Oostende,Molenaarsstraat,13,51.2115786413,2.90635656101
8400,Oostende,Stuiverstraat,440,51.209449637,2.9170932773
8400,Oostende,Stuiverstraat,24,51.2198892555,2.90117668872
8400,Oostende,Zeedijk,160,51.2179018045,2.88284505602
8400,Oostende,Vrijhavenstraat,14,51.2259849087,2.92293833498
8400,Oostende,Christinastraat,39,51.2318069188,2.91582382597
8400,Oostende,Hamsterstraat,24,51.1989375864,2.96963775264
8400,Oostende,Schippersstraat,46,51.2329110444,2.92121902466
8400,Oostende,Vrijheidstraat,70,51.2145228797,2.90533599643
8400,Oostende,Salvialaan,39,51.2134598955,2.92174641203
8400,Oostende,Leon Spilliaertstraat,28,51.2268889721,2.91374530996
8400,Oostende,Albert I-Promenade,4,51.2346925165,2.92044799772
8400,Oostende,Zandvoordedorpstraat,33,51.2003009027,2.97705469692
8400,Oostende,Verenigingstraat,134,51.2165049922,2.89855548645
8400,Oostende,Beekstraat,10,51.2176578004,2.92667582866
8400,Oostende,De Rudderstraat,9,51.2324121125,2.944330134
8400,Oostende,Leffingestraat,184,51.2163683987,2.90405949291
8400,Oostende,Verenigingstraat,45,51.21892866,2.89879503968
8400,Oostende,Elisabethlaan,397,51.2140780382,2.91064124757
8400,Oostende,Nieuwpoortsesteenweg,461,51.215947796,2.89014820026
8400,Oostende,Vanderstichelenstraat,49,51.2144103006,2.93979218697
8400,Oostende,Kapellestraat,6,51.2315143537,2.91777005284
8400,Oostende,Karel Janssenslaan,9,51.2296099461,2.91381391343
8400,Oostende,Nieuwedokstraat,55,51.215690317,2.9338972674
8400,Oostende,Hennepstraat,27,51.2191878127,2.90887446122
8400,Oostende,Leopold II-laan,28,51.2307089957,2.91290143759
8400,Oostende,Torhoutsesteenweg,529,51.2076857003,2.90356637103
8400,Oostende,Leopold Van Tyghemlaan,36,51.2158971499,2.88644705083
8400,Oostende,Grintweg,131,51.2027681542,2.95629176005
8400,Oostende,Leeuwerikenstraat,192,51.2086973215,2.90703510833
8400,Oostende,Violierenlaan,64,51.211519866,2.87827541646
8400,Oostende,Muntstraat,17,51.2156766836,2.93454469524
8400,Oostende,Salvialaan,12,51.2135080037,2.92501331524
8400,Oostende,Peter Benoitstraat,55,51.2239351656,2.91216580738
8400,Oostende,Oudstrijdersplein,5,51.2025594395,2.91504758692
8400,Oostende,Duinenstraat,282,51.2001667975,2.84740361781
8400,Oostende,Elfenpad,5,51.209694975,2.9239639753
8400,Oostende,Elisabethlaan,221,51.2138405717,2.90167529235
8400,Oostende,Zeelaan,33,51.2052695606,2.86301833812
8400,Oostende,Brugstraat,50,51.2050357815,2.91452850841
8400,Oostende,Verenigde-Natieslaan,27,51.217875187,2.92085576186
8400,Oostende,Rosmolenstraat,20,51.2042767191,2.90566521452
8400,Oostende,Albrecht Rodenbachstraat,31,51.213817279,2.87698174717
8400,Oostende,Nachtegalenlaan,67,51.2149823381,2.92492875325
8400,Oostende,Gouwelozestraat,4,51.2177659239,2.9253691036
8400,Oostende,Marconistraat,6,51.2124002188,2.93611482644
8400,Oostende,Groenendaallaan,75,51.2107064479,2.8798254547
8400,Oostende,Nieuwpoortsesteenweg,533,51.214481399,2.8870588768
8400,Oostende,Londenstraat,3,51.2344543849,2.91997924832
8400,Oostende,Bikkelpad,6,51.2085997148,2.92312599101
8400,Oostende,Sint-Franciscusstraat,56,51.2307550844,2.92233180701
8400,Oostende,Luikstraat,10,51.2219844839,2.89272949997
8400,Oostende,Jules Peurquaetstraat,90,51.2246154203,2.9128720186
8400,Oostende,Verlaatstraat,19,51.2166779813,2.92812999937
8400,Oostende,Schorredijk,2,51.1991372456,2.91156483368
8400,Oostende,Sartlaan,27,51.2101508578,2.88800236452
8400,Oostende,Zwanenlaan,5,51.201673859,2.96900478211
8400,Oostende,Blauwkasteelstraat,28,51.216955259,2.90763409281
8400,Oostende,Manestraat,25,51.2167556234,2.93930063928
8400,Oostende,Gerststraat,123,51.2154874965,2.90922601833
8400,Oostende,Steenovenstraat,59,51.2146016942,2.9379625777
8400,Oostende,Werktuigkundigenstraat,46,51.2324953426,2.94258992311
8400,Oostende,Troonstraat,22,51.2201675832,2.89080095098
8400,Oostende,Sint-Paulusstraat,56,51.2303000361,2.92078344393
8400,Oostende,Gelijkheidstraat,32,51.2151486825,2.90487820439
8400,Oostende,Nachtegalenlaan,49,51.2149359933,2.92245283601
8400,Oostende,Leffingestraat,40,51.2202335999,2.91398655429
8400,Oostende,Zandvoordestraat,332,51.2117526451,2.95230093573
8400,Oostende,Madeliefjeslaan,60,51.2115914949,2.87461178254
8400,Oostende,Van Hembdenstraat,63,51.2317028512,2.94891891412
8400,Oostende,Longchamplaan,10,51.2114195984,2.89120418071
8400,Oostende,Kapucijnenstraat,36,51.2336731859,2.91796464725
8400,Oostende,Egellaan,12,51.1986295979,2.97121968649
8400,Oostende,Albrecht Rodenbachstraat,13,51.2128570533,2.87818116541
8400,Oostende,Torhoutsesteenweg,83,51.2236320788,2.90854665946
8400,Oostende,Werkzaamheidstraat,48,51.2179265609,2.89780709146
8400,Oostende,Dilbeeklaan,2,51.2118211029,2.88464239626
8400,Oostende,Steensedijk,485,51.2081894915,2.89607458346
8400,Oostende,Spaarzaamheidstraat,139,51.2161240322,2.8993112804
8400,Oostende,Broederlijkheidstraat,27,51.2165253078,2.90053099585
8400,Oostende,Metselaarsstraat,58,51.2203527012,2.9042015165
8400,Oostende,Dennenlaan,40,51.2094752445,2.8969896503
8400,Oostende,Graaf de Smet de Naeyerlaan,23,51.225470588,2.92376249559
8400,Oostende,Jozef II-straat,50,51.2291141453,2.91960777089
8400,Oostende,Van Iseghemlaan,100,51.2294081628,2.91160425523
8400,Oostende,Francis Verestraat,66,51.2333634603,2.94789117506
8400,Oostende,Lindenlaan,4,51.210855754,2.90423628121
8400,Oostende,Gistelsesteenweg,168,51.2086087129,2.93086145918
8400,Oostende,Hertstraat,7,51.2317535269,2.91504880768
8400,Oostende,Molenaarsstraat,31,51.2115027127,2.9069849991
8400,Oostende,Grintweg,113,51.2027305803,2.9604071045
8400,Oostende,Stokkellaan,137,51.2101397115,2.88395877107
8400,Oostende,Hortensialaan,4,51.199265557,2.97701202317
8400,Oostende,Constant Permekelaan,50,51.216189909,2.91981400768
8400,Oostende,Stuiverstraat,238,51.2137426129,2.91052433818
8400,Oostende,Schrijverspad,7,51.2094994692,2.92482019127
