PKANCODE,COMMUNE_NL,STREET_NL,HUISNR,LAT,LON
8490,Jabbeke,De Baetsdreef,10,51.1561764143,3.12048642739
8490,Jabbeke,Oude Dorpsweg,95,51.1871907551,3.14308704624
8490,Jabbeke,Zwanestraat,23,51.1825659532,3.08936800621
8490,Jabbeke,Willemijnenweg,15,51.1686906469,3.07232284139
8490,Jabbeke,Fazantendreef,13,51.1828302337,3.13379792367
8490,Jabbeke,Beisbroekdreef,3,51.1818705844,3.14115974254
8490,Jabbeke,Weststraat,55,51.1826857348,3.07856228365
8490,Jabbeke,Schoolstraat,39,51.1907314093,3.13746896868
8490,Jabbeke,de Manlaan,17,51.2020462912,3.14763651933
8490,Jabbeke,Cathilleweg,33,51.2106543948,3.07469945895
8490,Jabbeke,Stationsstraat,43,51.1857216149,3.09257387433
8490,Jabbeke,Mosselstraat,30,51.1521533688,3.07223556199
8490,Jabbeke,Koornblomme,22,51.1773150092,3.08362930693
8490,Jabbeke,Aartrijksesteenweg,34,51.1781392746,3.08782608516
8490,Jabbeke,Oude Dorpsweg,77,51.1888365812,3.14355410829
8490,Jabbeke,Vedastusstraat,50,51.167473402,3.06354424345
8490,Jabbeke,Cousseweg,6,51.1826575817,3.08323894164
8490,Jabbeke,Mosselstraat,12,51.1639192218,3.07165831203
8490,Jabbeke,Joorisstraat,5,51.1894686791,3.14825864534
8490,Jabbeke,Provenhofstraat,102,51.1935188747,3.14695941404
8490,Jabbeke,Kievitstraat,7,51.1849754845,3.09042157853
8490,Jabbeke,Bunderhoek,8,51.1916821564,3.13692471563
8490,Jabbeke,Groenwalle,45,51.1940009984,3.14857907567
8490,Jabbeke,Eernegemweg,64,51.1678314401,3.11816862297
8490,Jabbeke,Aartrijksesteenweg,16,51.1796990168,3.08794219859
8490,Jabbeke,Klaverveld,5,51.1786380001,3.08324448554
8490,Jabbeke,Oude Dorpsweg,113,51.1862479497,3.14322938209
8490,Jabbeke,Kerkebeekstraat,19,51.1829856801,3.1457131531
8490,Jabbeke,Kroondreef,12,51.1802989607,3.10305909903
8490,Jabbeke,Hogedijkenstraat,13,51.1791775453,3.09239903513
8490,Jabbeke,Gistelsteenweg,514,51.1743149167,3.05967431331
8490,Jabbeke,Langendorpweg,4,51.2237285498,3.09114823537
8490,Jabbeke,Constant Permekelaan,12,51.1821679457,3.09572638246
8490,Jabbeke,Provenhofstraat,84,51.1931901254,3.14644668217
8490,Jabbeke,Varsenareweg,14,51.183319445,3.0973040248
8490,Jabbeke,Bremstraat,11,51.1758929996,3.07700088036
8490,Jabbeke,Lindenlaan,4,51.1811666997,3.14046009299
8490,Jabbeke,Ettelgemstraat,20,51.1807501723,3.08223660436
8490,Jabbeke,Gistelsteenweg,338,51.1800520662,3.08357957321
8490,Jabbeke,Uytdreve,20,51.1890616779,3.13486720971
8490,Jabbeke,Kapelrie,38,51.1867816375,3.14164914362
8490,Jabbeke,Joorisstraat,29,51.1884806758,3.14905667398
8490,Jabbeke,Westmoere,37,51.1658847797,3.12064275851
8490,Jabbeke,Gistelsteenweg,176,51.1775418244,3.12674661575
8490,Jabbeke,Oude Dorpsweg,21A,51.1898695393,3.14822470359
8490,Jabbeke,Zuidstraat,15,51.1794226258,3.08705099952
8490,Jabbeke,Koning Albertstraat,3,51.1883031723,3.14332391724
8490,Jabbeke,Koffiestraat,11,51.1813605941,3.09237797544
8490,Jabbeke,Oude Dorpsweg,7,51.1897835759,3.14967754553
8490,Jabbeke,Gistelsteenweg,532,51.1724358797,3.05846953328
8490,Jabbeke,Constant Permekelaan,30,51.1810464447,3.09736163205
8490,Jabbeke,Gistelsteenweg,123,51.1864625793,3.14731588144
8490,Jabbeke,Spanjaardstraat,33,51.2162546549,3.07319559588
8490,Jabbeke,Oudenburgweg,25,51.1880016836,3.13881669882
8490,Jabbeke,Gistelsteenweg,158,51.1806814952,3.13693317372
8490,Jabbeke,Groenwalle,10,51.1948084115,3.15250990414
8490,Jabbeke,Gemeneweidestraat,9,51.1797921279,3.06521343646
8490,Jabbeke,Oude Dorpsweg,59,51.1899178039,3.14425103096
8490,Jabbeke,Cathilleweg,150,51.217582628,3.06826446398
8490,Jabbeke,Provenhofstraat,38,51.1925140155,3.14652547501
8490,Jabbeke,Zilverstraat,7,51.1655649451,3.08064996111
8490,Jabbeke,Steenovenstraat,21,51.1840147031,3.14429471256
8490,Jabbeke,Eernegemweg,82,51.1675410065,3.11588856777
8490,Jabbeke,Oude Bruggeweg,5,51.1693752658,3.10543301818
8490,Jabbeke,Boekweitstraat,15,51.1758100899,3.0856882505
8490,Jabbeke,Lindenlaan,28,51.1786992714,3.13629695411
8490,Jabbeke,Oudenburgweg,1,51.1884218745,3.14142120481
8490,Jabbeke,Oudenburgweg,71,51.1839781285,3.12786589655
8490,Jabbeke,Gistelsteenweg,585,51.1731042148,3.06288132402
8490,Jabbeke,Gistelsteenweg,384,51.1786699491,3.07834772412
8490,Jabbeke,Sint Sebastiaanstraat,11,51.1875656114,3.14581103296
8490,Jabbeke,Eikendreef,18,51.1854018312,3.13501056924
8490,Jabbeke,Legeweg,41,51.1966149041,3.14215609026
8490,Jabbeke,Stationsstraat,8,51.183854857,3.09521435981
8490,Jabbeke,Gistelsteenweg,442,51.1762932915,3.0710820298
8490,Jabbeke,Lange Dreef,21,51.1666703535,3.08938806321
8490,Jabbeke,Gistelsteenweg,231,51.1763046489,3.12113081418
8490,Jabbeke,Cathilleweg,86,51.21380456,3.07287359446
8490,Jabbeke,Windmolenstraat,32,51.183281838,3.08032450003
8490,Jabbeke,Zomerweg,14,51.1747829919,3.09412804325
8490,Jabbeke,Reigerzele,15,51.1922240827,3.13587505668
8490,Jabbeke,Lanestraat,1A,51.1685425792,3.06502638415
8490,Jabbeke,Oudenburgweg,53,51.1870843762,3.13454782953
8490,Jabbeke,Leeuwerikstraat,6,51.1843092343,3.08786278029
8490,Jabbeke,Gistelsteenweg,70,51.1889787263,3.14987795318
8490,Jabbeke,Gistelsteenweg,105,51.1869344855,3.14816353907
8490,Jabbeke,Zeeweg,35,51.1869958232,3.15313013703
8490,Jabbeke,Gistelsteenweg,460,51.1748286356,3.06643046228
8490,Jabbeke,Jabbekestraat,11,51.1705632694,3.07374289974
8490,Jabbeke,Eernegemweg,135,51.1649270334,3.10861943712
8490,Jabbeke,Legeweg,50A,51.1932887282,3.13500398139
8490,Jabbeke,Aartrijksesteenweg,69,51.1769443824,3.08832768135
8490,Jabbeke,Nieuwenhovedreef,13,51.1855368184,3.13726552427
8490,Jabbeke,Windmolenstraat,14,51.1815537009,3.08131320827
8490,Jabbeke,Grote Thems,17,51.1871502992,3.1537279194
8490,Jabbeke,Popstaelstraat,31,51.1915736137,3.14934710589
8490,Jabbeke,Boekhoutestraat,25,51.1749232296,3.12980821232
8490,Jabbeke,Kwetshagestraat,13,51.1970597634,3.11857519127
8490,Jabbeke,Gistelsteenweg,567,51.1739229282,3.0656256875
8490,Jabbeke,Bekegemstraat,1F,51.1651010191,3.0688180086
8490,Jabbeke,Spanjaardstraat,15,51.2150749887,3.07279092857
8490,Jabbeke,Vaartdijk-Noord,2,51.2092228898,3.12512652001
8490,Jabbeke,Coudeveldt,39,51.1943961872,3.14563865429
8490,Jabbeke,Lanestraat,1C,51.1682110941,3.06455160559
8490,Jabbeke,Cathilleweg,122,51.2163529949,3.07044012671
8490,Jabbeke,Legeweg,13,51.1910794916,3.10379311835
8490,Jabbeke,Gistelsteenweg,52,51.1904364603,3.15152340467
8490,Jabbeke,Kapelrie,48,51.1878126701,3.14088733346
8490,Jabbeke,Westmoere,20,51.1668856725,3.1213714135
8490,Jabbeke,Ettelgemstraat,37,51.1791491103,3.07861123747
8490,Jabbeke,Lijsterdreef,21,51.1838457774,3.13330475427
8490,Jabbeke,Zomerweg,32,51.1646031336,3.09868785461
8490,Jabbeke,Ganzeveld,4,51.1796922372,3.08570099703
8490,Jabbeke,Sarkoheemstraat,7,51.1670954012,3.06950918928
8490,Jabbeke,Gistelsteenweg,549,51.1745510974,3.06776721916
8490,Jabbeke,Westernieuwweg,19,51.1905519366,3.13909771216
8490,Jabbeke,Zandstraat,69,51.1943253895,3.15202002638
8490,Jabbeke,Zerkegemstraat,34,51.1744959213,3.07970513025
8490,Jabbeke,Westernieuwweg,9A,51.1902442263,3.13980737588
8490,Jabbeke,Beisbroekdreef,7A,51.1807381803,3.14282605484
8490,Jabbeke,Grote Thems,88,51.18927315,3.15627798317
8490,Jabbeke,Legeweg,31,51.192584049,3.13008884083
8490,Jabbeke,Noordstraat,38,51.1766426215,3.05734176876
8490,Jabbeke,Tafeldijcken,6,51.1830894355,3.13829142604
8490,Jabbeke,Snellegemstraat,2C,51.1645658103,3.08228420007
8490,Jabbeke,Zerkegemstraat,16,51.1784149204,3.08544103827
8490,Jabbeke,Isenbaertstraat,88,51.1619869259,3.12052044327
8490,Jabbeke,Grote Thems,35,51.1889697648,3.15374050372
8490,Jabbeke,Bekegemstraat,52,51.1588270897,3.05775344409
8490,Jabbeke,Hagebos,9,51.1907049507,3.13320977183
8490,Jabbeke,Woudweg naar Loppem,4,51.1600043072,3.14028929112
8490,Jabbeke,Stationsstraat,61,51.1980649001,3.08943778862
8490,Jabbeke,Ketelweg,1,51.1808140682,3.08373853173
8490,Jabbeke,Cathilleweg,15,51.2100307234,3.07510575915
8490,Jabbeke,Gistelsteenweg,213,51.1791686453,3.13611765534
8490,Jabbeke,Paradijsweg,2,51.1650407441,3.06941892979
8490,Jabbeke,Vloethemveldstraat,3,51.155748198,3.10125231295
8490,Jabbeke,Bekegemstraat,40D,51.159480373,3.06126395656
8490,Jabbeke,Nachtegaalstraat,20,51.216033962,3.07451817961
8490,Jabbeke,Popstaelstraat,66,51.1939007302,3.14800112153
8490,Jabbeke,Willemijnenweg,33,51.1670797597,3.07277536413
8490,Jabbeke,Eernegemweg,117,51.1656001766,3.11104758528
8490,Jabbeke,Zeeweg,17,51.1883524163,3.15164068692
8490,Jabbeke,Duineweg,4,51.1706787917,3.05317001848
8490,Jabbeke,Popstaelstraat,13,51.1909725584,3.14980872558
8490,Jabbeke,Cathilleweg,68,51.212887706,3.07387620834
8490,Jabbeke,Gistelsteenweg,266,51.179770683,3.10158765027
8490,Jabbeke,Zandstraat,34,51.1924287661,3.14952648809
8490,Jabbeke,Kerkeweg,37,51.1734494314,3.12370000202
8490,Jabbeke,Gistelsteenweg,667,51.1713010317,3.05270574692
8490,Jabbeke,Dorpsstraat,20,51.1831769043,3.09361909651
8490,Jabbeke,Gistelsteenweg,406,51.177353056,3.0760395765
8490,Jabbeke,Hogeweg,7,51.2071597337,3.14766599933
8490,Jabbeke,Zuidstraat,8,51.1798756389,3.08610759267
8490,Jabbeke,Korte Zomerweg,7,51.1785490373,3.09565542298
8490,Jabbeke,Mosselstraat,19,51.1629492906,3.07469105085
8490,Jabbeke,Kouter,14,51.1664970066,3.10342769906
8490,Jabbeke,Kapellestraat,12,51.1815365593,3.09316385237
8490,Jabbeke,Gistelsteenweg,151,51.1845459818,3.14370332336
8490,Jabbeke,Kerkebeekstraat,12,51.1829019672,3.14433076067
8490,Jabbeke,Woudweg naar Zedelgem,13,51.1650591025,3.11412783341
8490,Jabbeke,Flamincka Park,31,51.1891551978,3.0854414757
8490,Jabbeke,Gistelsteenweg,34,51.191212696,3.15273520457
8490,Jabbeke,Molenstraat,2,51.1967838389,3.1314595377
8490,Jabbeke,Koffiestraat,4,51.1819079732,3.09272646141
8490,Jabbeke,Zandweg naar Zerkegem,12,51.1617937999,3.09194158967
8490,Jabbeke,Stationsstraat,78,51.1932870132,3.09320813593
8490,Jabbeke,Hogedijkenstraat,1A,51.1797995126,3.09384449259
8490,Jabbeke,Westmoere,55,51.1658096234,3.11934975984
8490,Jabbeke,Provenhofstraat,13,51.1917990375,3.14559282694
8490,Jabbeke,Walbekestraat,10,51.1770704146,3.10498040396
8490,Jabbeke,Oude Gistelsteenweg,7,51.1783169046,3.13287623588
8490,Jabbeke,Hogedijkenstraat,6,51.1797123551,3.09217459393
8490,Jabbeke,Fazantendreef,6,51.184893126,3.13534027832
8490,Jabbeke,Constant Permekelaan,5,51.1828768858,3.09605205762
8490,Jabbeke,Willemijnenweg,8,51.1680853419,3.07053679266
8490,Jabbeke,Kapelrie,13,51.1873610557,3.13909135193
8490,Jabbeke,Grote Thems,53,51.1899936697,3.15745265097
8490,Jabbeke,Gistelsteenweg,303,51.178583,3.10611168678
8490,Jabbeke,Ettelgemstraat,73,51.1782329067,3.05943045198
8490,Jabbeke,D'Hooghe Noene,14,51.1925776409,3.15234584726
8490,Jabbeke,Kerkebeekstraat,30,51.1827236272,3.14604313394
8490,Jabbeke,Joorisstraat,22,51.1889435067,3.14791974725
8490,Jabbeke,Gistelsteenweg,16,51.1919248031,3.15697592653
8490,Jabbeke,Spanjaardstraat,51,51.219922743,3.07491990947
8490,Jabbeke,Kasteeldreef,8,51.1828447393,3.1248507812
8490,Jabbeke,Caverstraat,33,51.1847982221,3.08795678971
8490,Jabbeke,Popstaelstraat,84,51.2003170696,3.14017616687
8490,Jabbeke,Elfhoekstraat,12,51.1914621026,3.09767537565
8490,Jabbeke,Wallenhove,8,51.1642233933,3.0699518239
8490,Jabbeke,Paardenmarkt,10,51.1814323827,3.0847303267
8490,Jabbeke,Provenhofstraat,31,51.1921084336,3.1449645378
8490,Jabbeke,Kalsijdeweg,19,51.2150182663,3.06195734036
8490,Jabbeke,Stationsstraat,96,51.1960596407,3.0918582567
8490,Jabbeke,Steenovenstraat,74,51.1856109188,3.14725748633
8490,Jabbeke,Eernegemweg,99,51.1665024714,3.11337898986
8490,Jabbeke,Merelstraat,9,51.1855689793,3.08947295592
8490,Jabbeke,Cruceweghe,14,51.185186655,3.13972594367
8490,Jabbeke,Ettelgemstraat,55,51.1787964386,3.0746317199
8490,Jabbeke,Lindenlaan,21,51.1791264915,3.13821479005
8490,Jabbeke,Oude Stokerijstraat,11,51.1739168442,3.08519382901
8490,Jabbeke,Zomerweg,7,51.1789962378,3.09753874352
8490,Jabbeke,Stationsstraat,160,51.2008668429,3.08916394229
8490,Jabbeke,Westmoere,73,51.166979674,3.11894383177
8490,Jabbeke,Gerststraat,9,51.1746913732,3.08391617438
8490,Jabbeke,Kerkebeekstraat,108,51.1822957351,3.14698391603
8490,Jabbeke,Oostmoerstraat,29,51.1684208184,3.12728216632
8490,Jabbeke,Zakjestraat,1,51.2108965958,3.07566254859
8490,Jabbeke,Cathilleweg,157,51.2190436996,3.06628391977
8490,Jabbeke,Tafeldijcken,41,51.1838176175,3.1356873818
8490,Jabbeke,Oude Dorpsweg,42,51.1905864438,3.14607351955
8490,Jabbeke,Steenovenstraat,28,51.1840102109,3.14573637813
8490,Jabbeke,Schoolstraat,32,51.1907380214,3.13847536387
8490,Jabbeke,Hageweg,34,51.1614174472,3.12885540096
8490,Jabbeke,Cathilleweg,104,51.2149128571,3.07193375211
8490,Jabbeke,Kerkebeekstraat,126,51.1832513724,3.14831804294
8490,Jabbeke,Zerkegemstraat,32A,51.1777903903,3.0820013612
8490,Jabbeke,Steenovenstraat,56,51.1843671727,3.14606460198
8490,Jabbeke,Constant Permekelaan,19,51.1823732913,3.09654624206
8490,Jabbeke,Boekweitstraat,8,51.1751991991,3.08467590734
8490,Jabbeke,Bremstraat,4,51.1766302983,3.07778582149
8490,Jabbeke,Oude Dorpsweg,24,51.1904219077,3.14736693078
8490,Jabbeke,Oude Dorpsweg,60,51.1899673965,3.14284290383
8490,Jabbeke,Stationsstraat,142,51.1994241949,3.09326891443
8490,Jabbeke,Cleene Laene,2A,51.1913190258,3.14801441584
8490,Jabbeke,Westmoere,91,51.1677774682,3.1210907849
8490,Jabbeke,Weststraat,47A,51.1837252887,3.08018252435
8490,Jabbeke,Van Larebekelaan,8,51.1866455193,3.09701317022
8490,Jabbeke,Gistelsteenweg,321,51.1785677336,3.10345700784
8490,Jabbeke,Kapelrie,31,51.1863759583,3.14053517553
8490,Jabbeke,Gistelsteenweg,649,51.1707967807,3.05509678677
8490,Jabbeke,Groenwalle,27,51.1938450241,3.14921480295
8490,Jabbeke,Ettelgemstraat,66A,51.1793329866,3.07620359012
8490,Jabbeke,Varsenareweg,7,51.1836047189,3.09572797184
8490,Jabbeke,Aartrijksesteenweg,123,51.1633436953,3.08505073774
8490,Jabbeke,Zerkegemstraat,9,51.1781910277,3.08701086392
8490,Jabbeke,Stationsstraat,122,51.1979338768,3.09123808003
8490,Jabbeke,Koornblomme,40,51.1769832073,3.08392004442
8490,Jabbeke,Weststraat,20,51.1865623513,3.08731459444
8490,Jabbeke,Noordstraat,13,51.1733899193,3.05768567162
8490,Jabbeke,Dwarsstraat,4,51.1809811507,3.09919893071
8490,Jabbeke,Zerkegemstraat,49E,51.1762066933,3.08261721497
8490,Jabbeke,Lanestraat,13,51.1668407534,3.06265522981
8490,Jabbeke,Aartrijksesteenweg,70,51.1735102631,3.08617374647
8490,Jabbeke,Zandstraat,9,51.1913401615,3.14562359183
8490,Jabbeke,Kerkeweg,55,51.175782486,3.12366768562
8490,Jabbeke,Vedastusstraat,14,51.1701133771,3.06024282384
8490,Jabbeke,Paardenmarkt,3,51.181887537,3.08495352997
8490,Jabbeke,Spanjaardstraat,8,51.214737718,3.0727686642
8490,Jabbeke,Isenbaertstraat,106,51.1582537232,3.12584255873
8490,Jabbeke,Tafeldijcken,23,51.1823509984,3.1365292526
8490,Jabbeke,Gistelsteenweg,69,51.1898353952,3.15173163166
8490,Jabbeke,Steedje,8,51.1592392923,3.07402439037
8490,Jabbeke,Vedastusstraat,11A,51.1713167916,3.06030949183
8490,Jabbeke,Aartrijksesteenweg,105,51.1644579935,3.0853235176
8490,Jabbeke,Aartrijksesteenweg,52,51.1759746536,3.0870679839
8490,Jabbeke,Walbekestraat,3,51.1780550782,3.10528370544
8490,Jabbeke,Halvemaanstraat,5,51.1821027786,3.0867612971
8490,Jabbeke,Eernegemweg,145,51.1639855819,3.10604833947
8490,Jabbeke,Gistelsteenweg,238,51.1792725052,3.10657317872
8490,Jabbeke,Kwetshagestraat,6,51.1960928797,3.11978805538
8490,Jabbeke,Vedastusstraat,32,51.1685994534,3.06267096379
8490,Jabbeke,Torhoutweg,24,51.1875308794,3.07086463588
8490,Jabbeke,Provenhofstraat,66,51.1929772343,3.14628873178
8490,Jabbeke,Kwetshagestraat,1A,51.1874038361,3.12389660849
8490,Jabbeke,Aartrijksesteenweg,9,51.1806615012,3.08909021999
8490,Jabbeke,Spoorwegstraat,1,51.1995426601,3.09013747766
8490,Jabbeke,Legeweg,6,51.1895471722,3.11722135733
8490,Jabbeke,Hugo Verrieststraat,11,51.1826512185,3.0972444107
8490,Jabbeke,Stationsstraat,104,51.1964858563,3.09174257789
8490,Jabbeke,Eernegemweg,11,51.1683324652,3.12170054648
8490,Jabbeke,Gistelsteenweg,459,51.178918895,3.08207610003
8490,Jabbeke,Windmolenstraat,7,51.1803783539,3.08124621174
8490,Jabbeke,Bekegemstraat,34,51.1639252978,3.06617214275
8490,Jabbeke,Eernegemweg,110,51.166878799,3.11224685071
8490,Jabbeke,Gistelsteenweg,560,51.1722167569,3.05489567352
8490,Jabbeke,Westernieuwweg,30,51.1906010838,3.14034031942
8490,Jabbeke,J. Noterdaemestraat,34,51.1663503697,3.1163105721
8490,Jabbeke,Westernieuwweg,83,51.1996445685,3.12823577321
8490,Jabbeke,Gistelsteenweg,629,51.1716236006,3.05691055758
8490,Jabbeke,Caverstraat,15,51.1836991685,3.09078480191
8490,Jabbeke,Cathilleweg,139,51.2182596418,3.06676846039
8490,Jabbeke,Zandstraat,52,51.1927352698,3.15069948945
8490,Jabbeke,Isenbaertstraat,71,51.1651517232,3.1164689674
8490,Jabbeke,Gistelsteenweg,495,51.1774563087,3.07824024551
8490,Jabbeke,Zeeweg,47,51.1855867325,3.15441159249
8490,Jabbeke,Stationsstraat,61C,51.1967672059,3.0908161638
8490,Jabbeke,Coudeveldt,32,51.1942832861,3.14534416901
8490,Jabbeke,J. Noterdaemestraat,16,51.1663515143,3.11769993505
8490,Jabbeke,Kroondreef,65,51.183933786,3.09779494435
8490,Jabbeke,Ganzeveld,21,51.1793620047,3.08467141128
8490,Jabbeke,Vaartdijk-Noord,9,51.2038092844,3.0968878718
8490,Jabbeke,Grote Thems,71,51.1895021087,3.1587689274
8490,Jabbeke,Bitterstraat,1,51.1818871076,3.08770609715
8490,Jabbeke,Bekegemstraat,16,51.1653061724,3.06808307881
8490,Jabbeke,Kroondreef,30,51.181238501,3.10129865166
8490,Jabbeke,Westernieuwweg,12,51.1899363556,3.14159268266
8490,Jabbeke,Popstaelstraat,6,51.1906806448,3.15106311026
8490,Jabbeke,Stationsstraat,61A,51.1963857622,3.09094865398
8490,Jabbeke,Gistelsteenweg,542,51.1723191611,3.05731617488
8490,Jabbeke,Ettelgemstraat,91,51.1779558065,3.0526777903
8490,Jabbeke,Hagebos,26,51.1920650045,3.13349337828
8490,Jabbeke,Stationsstraat,25,51.1844754752,3.09312646594
8490,Jabbeke,Cathilleweg,51,51.2119118252,3.07356880397
8490,Jabbeke,Zandwege,13,51.1902543772,3.13486157775
8490,Jabbeke,Zeeweg,53,51.1846548639,3.1551385895
8490,Jabbeke,Gistelsteenweg,477,51.1782693876,3.08047625888
8490,Jabbeke,Bitterstraat,17,51.1829415396,3.08724275944
8490,Jabbeke,Coudeveldt,14,51.1921770718,3.14339818895
8490,Jabbeke,Rozenlaan,6,51.1656748147,3.07133402251
8490,Jabbeke,Westernieuwweg,65,51.1956849571,3.13441155149
8490,Jabbeke,Cathilleweg,8,51.2088871778,3.07775064778
8490,Jabbeke,Gistelsteenweg,87,51.1881554158,3.15014506873
8490,Jabbeke,Dorpsstraat,3,51.1828746067,3.09487249199
8490,Jabbeke,Beisbroekdreef,20,51.1800339239,3.14285212597
8490,Jabbeke,Kroondreef,83,51.1858154342,3.09725879152
8490,Jabbeke,Noordstraat,31,51.1745164604,3.05708713864
8490,Jabbeke,Dorpsstraat,37,51.1817604402,3.09060400847
8490,Jabbeke,Legeweg,38,51.1924195801,3.13346954563
8490,Jabbeke,Bitterstraat,6A,51.1820259429,3.08809892338
8490,Jabbeke,Aartrijksesteenweg,24,51.1791648721,3.08788719726
8490,Jabbeke,Boekweitstraat,1,51.1756461379,3.08452346171
8490,Jabbeke,Dorpsstraat,19,51.182148412,3.09234814191
8490,Jabbeke,Zuidstraat,25,51.1786917462,3.08698438943
8490,Jabbeke,Eernegemweg,56,51.1681281389,3.1185456107
8490,Jabbeke,Ganzeveld,11,51.1788414102,3.08554960042
8490,Jabbeke,Merelstraat,24,51.1865484712,3.08989285577
8490,Jabbeke,Caverstraat,43,51.1853912681,3.0868691112
8490,Jabbeke,Mosselstraat,20,51.1633295165,3.07258717485
8490,Jabbeke,Elfhoekstraat,5,51.191218907,3.09808314567
8490,Jabbeke,Schoolstraat,29,51.1900419867,3.13750346162
8490,Jabbeke,Koornblomme,32,51.1770435765,3.08429652737
8490,Jabbeke,Bedevaartstraat,12,51.1608117461,3.06013138964
8490,Jabbeke,Woudweg naar Zedelgem,4,51.1663659523,3.11258737098
8490,Jabbeke,Van Larebekelaan,1,51.1862496404,3.0981782045
8490,Jabbeke,Noordstraat,58,51.183217043,3.0558675932
8490,Jabbeke,Oostmoerstraat,32,51.1678446631,3.12736797565
8490,Jabbeke,Duikerstraat,4,51.2022052412,3.0955013385
8490,Jabbeke,Koornblomme,14,51.1774112527,3.08402268273
8490,Jabbeke,Hildeghemweg,5,51.159191242,3.1016123714
8490,Jabbeke,Varsenareweg,22,51.1837823744,3.10000188014
8490,Jabbeke,Ettelgemstraat,46A,51.1800885541,3.07866895085
8490,Jabbeke,Willemijnenweg,25,51.1678715929,3.07299662035
8490,Jabbeke,Zakjestraat,8,51.2105425978,3.07654440573
8490,Jabbeke,Oude Dorpsweg,103,51.1870215413,3.14399512521
8490,Jabbeke,Tentestuk,4,51.1595563516,3.06050996681
8490,Jabbeke,Flamincka Park,4,51.1869250834,3.08212494131
8490,Jabbeke,Oude Stokerijstraat,28,51.1748637127,3.08314774278
8490,Jabbeke,Hogedijkenstraat,23,51.1790498498,3.09157154713
8490,Jabbeke,Gistelsteenweg,392,51.1783072244,3.07770727645
8490,Jabbeke,Eernegemweg,74,51.1676601159,3.11656643345
8490,Jabbeke,Kerkeweg,12,51.1702270295,3.12317102153
8490,Jabbeke,Aartrijksesteenweg,161,51.1481953174,3.08842633065
8490,Jabbeke,Van Larebekelaan,25,51.1863159496,3.09755614513
8490,Jabbeke,Gistelsteenweg,577,51.172008795,3.06467263364
8490,Jabbeke,Zandweg naar Zerkegem,5,51.1637155226,3.08702177572
8490,Jabbeke,Oude Dorpsweg,69,51.1894663478,3.14347091577
8490,Jabbeke,Oudenburgweg,15,51.1881251366,3.14023681231
8490,Jabbeke,Provenhofstraat,4,51.1920401453,3.14643630727
8490,Jabbeke,Tempeliersstraat,15,51.1817213055,3.0833067729
8490,Jabbeke,Steenovenstraat,11,51.1839348973,3.14304793309
8490,Jabbeke,Leeuwerikstraat,13,51.1834322603,3.08825974376
8490,Jabbeke,Kapellestraat,5,51.1806975939,3.09502800579
8490,Jabbeke,Kasteeldreef,1,51.1819329123,3.12181415939
8490,Jabbeke,Kalsijdeweg,20,51.2148313642,3.06885043348
8490,Jabbeke,Ettelgemstraat,30,51.1800809471,3.08076568241
8490,Jabbeke,Provenhofstraat,94,51.1931966633,3.14723581259
8490,Jabbeke,Oude Dorpsweg,87,51.1880039985,3.14289946916
8490,Jabbeke,Uytdreve,30,51.1883341226,3.13590826468
8490,Jabbeke,Caverstraat,6,51.1832752894,3.09292267269
8490,Jabbeke,Oude Dorpsweg,121,51.1856306378,3.14282317742
8490,Jabbeke,Kerkebeekstraat,5,51.1829903396,3.14335951735
8490,Jabbeke,Gistelsteenweg,356,51.1791579362,3.08146522678
8490,Jabbeke,Kapelrie,4,51.1879419021,3.13949948417
8490,Jabbeke,Maalderijstraat,5,51.171241822,3.05699378484
8490,Jabbeke,Koffiestraat,21,51.1807579612,3.09164997439
8490,Jabbeke,Uytdreve,12,51.1895020183,3.13567928848
8490,Jabbeke,Gistelsteenweg,595,51.1725496973,3.06127813834
8490,Jabbeke,Ettelgemstraat,12,51.1803685416,3.08364037455
8490,Jabbeke,Gistelsteenweg,186,51.1779845397,3.12546109304
8490,Jabbeke,Zuidstraat,1,51.1803205017,3.0868159551
8490,Jabbeke,Eernegemweg,92,51.1671959278,3.11453671706
8490,Jabbeke,Tulpenlaan,7,51.1648890012,3.07230840338
8490,Jabbeke,Gistelsteenweg,133,51.1856965342,3.14540911787
8490,Jabbeke,Constant Permekelaan,20,51.1818150734,3.09661780809
8490,Jabbeke,Koning Albertstraat,19,51.1874176093,3.14540836333
8490,Jabbeke,Barletegemweg,5,51.1494640796,3.07832448865
8490,Jabbeke,Beukendreef,10,51.1667820905,3.08742120352
8490,Jabbeke,Boekhoutestraat,33,51.1753731771,3.13055524473
8490,Jabbeke,Bremstraat,21,51.1751881328,3.07633777241
8490,Jabbeke,Grote Thems,114,51.188919578,3.1580666117
8490,Jabbeke,Legeweg,23,51.1953210101,3.11284540816
8490,Jabbeke,Oude Dorpsweg,31A,51.1900492491,3.14673721392
8490,Jabbeke,Kapelrie,58,51.1869465001,3.13894935259
8490,Jabbeke,Provenhofstraat,41,51.192390998,3.14551350869
8490,Jabbeke,Eikendreef,2,51.1835325645,3.13100097591
8490,Jabbeke,Lindenlaan,18A,51.1795142488,3.13788948583
8490,Jabbeke,Lettenburgstraat,4,51.1867188717,3.09361647655
8490,Jabbeke,Bekegemstraat,9,51.1642463428,3.06812360254
8490,Jabbeke,Eernegemweg,125,51.1652419061,3.11016730866
8490,Jabbeke,Grote Thems,27,51.1882837057,3.15258118517
8490,Jabbeke,Gistelsteenweg,203,51.1799439406,3.13744750473
8490,Jabbeke,Groenwalle,3,51.1940839478,3.15090451002
8490,Jabbeke,Aartrijksesteenweg,59,51.1772351393,3.08854568003
8490,Jabbeke,Gistelsteenweg,60,51.1903410522,3.15098827942
8490,Jabbeke,Oudenburgweg,47,51.1874518779,3.13588321229
8490,Jabbeke,Westmoere,12,51.1671125245,3.12186052235
8490,Jabbeke,Gistelsteenweg,470,51.1745540575,3.06541700963
8490,Jabbeke,Westernieuwweg,5,51.1899757382,3.14040756057
8490,Jabbeke,Gistelsteenweg,115,51.184997475,3.14919172932
8490,Jabbeke,Nieuwenhovedreef,23,51.1843193109,3.1386443627
8490,Jabbeke,Constant Permekelaan,37,51.1817320938,3.09756165949
8490,Jabbeke,Gistelsteenweg,221,51.1777357584,3.12435601899
8490,Jabbeke,Weststraat,19,51.1864812112,3.08864559918
8490,Jabbeke,Noordstraat,4,51.1728744751,3.05892142986
8490,Jabbeke,Isenbaertstraat,27,51.1737233795,3.11532627966
8490,Jabbeke,Cruceweghe,7,51.1852831294,3.13879390955
8490,Jabbeke,Vedastusstraat,7,51.1717072524,3.05963014998
8490,Jabbeke,Kapelrie,76,51.186335477,3.1395120286
8490,Jabbeke,Kwetshagestraat,23,51.1983804226,3.11736624096
8490,Jabbeke,Cathilleweg,96,51.2143758328,3.07211643294
8490,Jabbeke,Graaf De Renesselaan,2,51.1847015198,3.09475555539
8490,Jabbeke,Gistelsteenweg,452,51.1750125923,3.06713425243
8490,Jabbeke,Reigerzele,6,51.1921693055,3.13477791196
8490,Jabbeke,Zandstraat,77,51.1947673551,3.15294948902
8490,Jabbeke,Lanestraat,4,51.1693673525,3.06481774936
8490,Jabbeke,J. Noterdaemestraat,9,51.1658051787,3.11783367493
8490,Jabbeke,Schoolstraat,7,51.1890732252,3.13858876269
8490,Jabbeke,Gemeneweidestraat,6B,51.1850607069,3.06529090681
8490,Jabbeke,Cathilleweg,1,51.2041169206,3.08245246298
8490,Jabbeke,Paddegatstraat,1,51.2144292942,3.06741554417
8490,Jabbeke,Eernegemweg,28,51.1684869392,3.12086878252
8490,Jabbeke,Kroondreef,5,51.1803846561,3.10218844493
8490,Jabbeke,Eikendreef,26,51.1864220664,3.13724231582
8490,Jabbeke,Kalsijdeweg,37,51.2149251874,3.05829793857
8490,Jabbeke,Zandwege,4,51.1903104963,3.13567366921
8490,Jabbeke,Mosselstraat,5,51.1644358277,3.07362897672
8490,Jabbeke,Kerkebeekstraat,55,51.1841594918,3.14877734856
8490,Jabbeke,Lijsterdreef,11,51.1819470542,3.13464758615
8490,Jabbeke,Bitterstraat,8,51.1822406932,3.08815539627
8490,Jabbeke,Oudenburgweg,63,51.1859465892,3.13056362544
8490,Jabbeke,Westmoere,30,51.1666145776,3.12022603926
8490,Jabbeke,Gistelsteenweg,42,51.1905858752,3.15205669524
8490,Jabbeke,Lange Dreef,11,51.1665183889,3.0869048185
8490,Jabbeke,Bakeroothoek,2,51.19102717,3.13987932391
8490,Jabbeke,Oudenburgweg,33,51.1880291647,3.13809714051
8490,Jabbeke,Coudeveldt,29,51.1935936273,3.14536453366
8490,Jabbeke,Zuidmoere,1,51.1683758491,3.12336767438
8490,Jabbeke,Gistelsteenweg,9,51.19132538,3.15833697643
8490,Jabbeke,Wielewaalstraat,11,51.1875142851,3.08694142054
8490,Jabbeke,Bekegemstraat,42,51.1591467943,3.05940072929
8490,Jabbeke,Zeeweg,27,51.1876065698,3.15252572667
8490,Jabbeke,Bitterstraat,10,51.1823465546,3.08811029705
8490,Jabbeke,Popstaelstraat,76,51.199456493,3.14143194036
8490,Jabbeke,Coudeveldt,40,51.194562788,3.1454843499
8490,Jabbeke,Gistelsteenweg,524,51.1728585937,3.05952450984
8490,Jabbeke,Steedje,1,51.1585335798,3.07491874341
8490,Jabbeke,Bosweg,6,51.1694142766,3.12432450388
8490,Jabbeke,Paradijsweg,6B,51.1636815088,3.06885923211
8490,Jabbeke,Oudenburgweg,45,51.1871452805,3.13621488584
8490,Jabbeke,Kouter,7,51.1680537079,3.10606775752
8490,Jabbeke,Isenbaertstraat,98,51.1611278905,3.12215852801
8490,Jabbeke,Halfweghuisstraat,10,51.1785337578,3.12557518966
8490,Jabbeke,Gistelsteenweg,559,51.1741318531,3.06614742611
8490,Jabbeke,Vaartdijk-Noord,16,51.2036393145,3.05812359747
8490,Jabbeke,Popstaelstraat,58,51.1932035802,3.14861079316
8490,Jabbeke,Paradijsweg,18,51.1631799256,3.06941193166
8490,Jabbeke,J. Noterdaemestraat,42,51.1658316874,3.11715350376
8490,Jabbeke,Fonteinebeekdreef,6,51.184903819,3.12993271438
8490,Jabbeke,Zandstraat,24,51.1916698059,3.14791883285
8490,Jabbeke,Grote Thems,98,51.1881641691,3.15772385297
8490,Jabbeke,Gistelsteenweg,506,51.1731093547,3.0607693753
8490,Jabbeke,Zerkegemstraat,24,51.1783036311,3.08432436573
8490,Jabbeke,Vedastusstraat,29,51.1684229143,3.0635517392
8490,Jabbeke,Zwaluwstraat,6,51.1831416427,3.08866865074
8490,Jabbeke,Zandstraat,59,51.1934015571,3.15031284532
8490,Jabbeke,Cathilleweg,130,51.2166316884,3.06966327111
8490,Jabbeke,Coudeveldt,7,51.1922048007,3.14451278977
8490,Jabbeke,Mosselstraat,37,51.1494245528,3.08495963188
8490,Jabbeke,Nachtegaalstraat,30,51.2160835489,3.07541887063
8490,Jabbeke,Cathilleweg,78,51.2134057738,3.07357943149
8490,Jabbeke,Aartrijksesteenweg,77,51.1762247926,3.08823271386
8490,Jabbeke,Popstaelstraat,23,51.1913477554,3.14953526609
8490,Jabbeke,Warandedreef,11,51.1913176781,3.15344162428
8490,Jabbeke,Eernegemweg,107,51.1659013287,3.1121536122
8490,Jabbeke,Monnikenveld,16,51.1827044817,3.08461752876
8490,Jabbeke,Gistelsteenweg,256,51.1796261471,3.10248706505
8490,Jabbeke,Meersbeekstraat,12,51.1634713702,3.1227725495
8490,Jabbeke,Varsenareweg,29,51.1861487604,3.10147632583
8490,Jabbeke,Grote Thems,63,51.19046074,3.158168985
8490,Jabbeke,Gistelsteenweg,140A,51.1827107851,3.13959587443
8490,Jabbeke,Kerkebeekstraat,116,51.1826580288,3.14783722175
8490,Jabbeke,Constant Permekelaan,73,51.180346924,3.09904053588
8490,Jabbeke,Gistelsteenweg,434,51.1765688716,3.07222409813
8490,Jabbeke,Gistelsteenweg,399,51.1803976087,3.09039072803
8490,Jabbeke,Isenbaertstraat,63,51.1657396387,3.11610232133
8490,Jabbeke,Tempeliersstraat,8,51.1812741174,3.08403968356
8490,Jabbeke,Oudenburgweg,8,51.1887690738,3.1403581994
8490,Jabbeke,Westmoere,65,51.1665750766,3.11867526306
8490,Jabbeke,Oude Stokerijstraat,21,51.1737978442,3.08378173255
8490,Jabbeke,Schooiweg,4,51.1834227773,3.060322371
8490,Jabbeke,Dorpsstraat,30,51.1826417528,3.09267079038
8490,Jabbeke,Provenhofstraat,23,51.1914388325,3.14514232154
8490,Jabbeke,Zeeweg,3,51.1892481887,3.15126026729
8490,Jabbeke,Westmoere,83,51.1673408776,3.11998885142
8490,Jabbeke,Kerkebeekstraat,20,51.1830723873,3.14488384652
8490,Jabbeke,Steenovenstraat,82,51.1845161108,3.14794983813
8490,Jabbeke,Hageweg,42,51.1594582002,3.13110162219
8490,Jabbeke,Gistelsteenweg,274,51.1798484345,3.1010669216
8490,Jabbeke,Gistelsteenweg,570,51.1718576773,3.05352005962
8490,Jabbeke,Westernieuwweg,37,51.1920681747,3.13714901092
8490,Jabbeke,Bedevaartstraat,5,51.1655372853,3.06146729927
8490,Jabbeke,Beisbroekdreef,12,51.1808867771,3.14149169203
8490,Jabbeke,Kapelrie,23,51.1870061366,3.14052632095
8490,Jabbeke,Gistelsteenweg,161,51.1836337681,3.1416122991
8490,Jabbeke,Isenbaertstraat,81,51.1643954359,3.11765124195
8490,Jabbeke,Groenwalle,35,51.1942299269,3.14955126285
8490,Jabbeke,Vedastusstraat,57,51.1669262255,3.06862793445
8490,Jabbeke,Bunderhoek,15,51.191265194,3.13622427343
8490,Jabbeke,Stationsstraat,33,51.1851278961,3.09302081013
8490,Jabbeke,Cathilleweg,147,51.2185948087,3.06658317757
8490,Jabbeke,Oude Dorpsweg,52,51.1902646124,3.14416282262
8490,Jabbeke,Groenwalle,17,51.193466201,3.14962471813
8490,Jabbeke,Cathilleweg,43,51.2113095867,3.07354301334
8490,Jabbeke,Sarkoheemstraat,21C,51.1662884027,3.07128709295
8490,Jabbeke,Steenovenstraat,46,51.18439204,3.14716550325
8490,Jabbeke,Koffiestraat,28,51.1800754537,3.09045275519
8490,Jabbeke,Ettelgemstraat,83,51.1781144122,3.05400444431
8490,Jabbeke,Oostmoerstraat,39,51.1683280295,3.13107705405
8490,Jabbeke,Kastanjebosstraat,15,51.1769476943,3.07956121557
8490,Jabbeke,Grote Thems,3,51.1852707023,3.15544929028
8490,Jabbeke,Oude Dorpsweg,16,51.1905064809,3.14846183664
8490,Jabbeke,Koning Albertstraat,12,51.187045208,3.14477855257
8490,Jabbeke,Stationsstraat,86,51.1952293701,3.0921272029
8490,Jabbeke,Bremstraat,28,51.1757503325,3.07612141731
8490,Jabbeke,Flamincka Park,23,51.1911111771,3.08524006072
8490,Jabbeke,Steenovenstraat,64,51.1847157969,3.14708207848
8490,Jabbeke,Stationsstraat,170,51.203188074,3.08478311813
8490,Jabbeke,Zandstraat,12C,51.1912491135,3.14673799239
8490,Jabbeke,Noordstraat,41,51.1771151095,3.05621408003
8490,Jabbeke,Constant Permekelaan,55,51.1812100696,3.09803128632
8490,Jabbeke,Lindenlaan,11,51.1799553575,3.13964123552
8490,Jabbeke,Stationsstraat,152,51.1995213948,3.09092290013
8490,Jabbeke,Isenbaertstraat,3,51.1782701255,3.11201296606
8490,Jabbeke,Halvemaanstraat,14,51.1820744267,3.08577227307
8490,Jabbeke,Oude Dorpsweg,70,51.1897405581,3.14264085634
8490,Jabbeke,Ten Bogaerde,22,51.1851019663,3.14143853298
8490,Jabbeke,Gistelsteenweg,659,51.171351448,3.05313204901
8490,Jabbeke,Schoolstraat,22,51.1902367478,3.13842291102
8490,Jabbeke,Gistelsteenweg,311,51.1784622727,3.10555701743
8490,Jabbeke,Isenbaertstraat,10,51.1782205513,3.11113027888
8490,Jabbeke,Zuidstraat,4A,51.1801651483,3.08616056989
8490,Jabbeke,Cruceweghe,22,51.1856446688,3.14026947016
8490,Jabbeke,Eernegemweg,48,51.1682307344,3.11926153987
8490,Jabbeke,Kastanjebosstraat,1,51.1772175906,3.07847567594
8490,Jabbeke,Eernegemweg,2,51.1691294346,3.12203474936
8490,Jabbeke,Oude Dorpsweg,34,51.1904191881,3.14670363895
8490,Jabbeke,Cleene Laene,6,51.1911266236,3.14816894584
8490,Jabbeke,Uytdreve,5,51.1897382709,3.13711963944
8490,Jabbeke,Kapelrie,41,51.1872951488,3.14167684415
8490,Jabbeke,Hugo Verrieststraat,21,51.1825651826,3.09826402706
8490,Jabbeke,Kroondreef,73,51.1845713823,3.09742226961
8490,Jabbeke,Provenhofstraat,58,51.1928906823,3.14562130528
8490,Jabbeke,Sparredreef,6,51.1847952601,3.13110338936
8490,Jabbeke,Tafeldijcken,13,51.1822107834,3.13802436659
8490,Jabbeke,Jabbekestraat,28,51.1689301556,3.07177552759
8490,Jabbeke,Ketelweg,8,51.1813367073,3.08305775701
8490,Jabbeke,Weststraat,30,51.1857907237,3.08383385432
8490,Jabbeke,Nachtegaalstraat,5,51.2167851997,3.07484345595
8490,Jabbeke,Gistelsteenweg,59,51.189959073,3.15262065435
8490,Jabbeke,Aartrijksesteenweg,60,51.1750603566,3.0868500993
8490,Jabbeke,Kroondreef,55,51.1827161352,3.09822344495
8490,Jabbeke,Gistelsteenweg,487,51.1775706805,3.07925511146
8490,Jabbeke,Kapelrie,17C,51.1873443061,3.1371025466
8490,Jabbeke,Westernieuwweg,91,51.2033866,3.1284476865
8490,Jabbeke,Lanestraat,23,51.1672039642,3.06105559197
8490,Jabbeke,Lange Dreef,4,51.165450496,3.08696458296
8490,Jabbeke,Popstaelstraat,41,51.1919683084,3.14902920924
8490,Jabbeke,Westmoere,19,51.1669106108,3.12242270588
8490,Jabbeke,Kapelrie,17A,51.1871084741,3.13785905941
8490,Jabbeke,Westernieuwweg,73,51.1983544826,3.13002197748
8490,Jabbeke,Gistelsteenweg,95,51.1875450616,3.14935634595
8490,Jabbeke,Lijsterdreef,4,51.1808933172,3.13641797022
8490,Jabbeke,Koornblomme,50,51.1768656272,3.08430943151
8490,Jabbeke,Provenhofstraat,76,51.1935099436,3.14616504732
8490,Jabbeke,Koornblomme,7,51.1769248136,3.08500745393
8490,Jabbeke,Aartrijksesteenweg,42,51.1772597894,3.08751039581
8490,Jabbeke,Gistelsteenweg,469,51.1784889701,3.08128100477
8490,Jabbeke,Gistelsteenweg,228,51.1791602252,3.10846886921
8490,Jabbeke,Noordstraat,23,51.1740417198,3.05746143472
8490,Jabbeke,Zeeweg,45,51.1858495614,3.15418990344
8490,Jabbeke,Roggestraat,6,51.1749942682,3.08612812306
8490,Jabbeke,Wielewaalstraat,4,51.1869690854,3.0857596337
8490,Jabbeke,Kwetshagestraat,2A,51.1944638665,3.12093916391
8490,Jabbeke,Oude Stokerijstraat,2,51.1746018653,3.08660912536
8490,Jabbeke,Westernieuwweg,55,51.193465609,3.13581908798
8490,Jabbeke,Vedastusstraat,22,51.169399754,3.06138791989
8490,Jabbeke,Zandwege,23,51.1917720434,3.13535451456
8490,Jabbeke,Zeeweg,10,51.1889991847,3.15059812608
8490,Jabbeke,Bitterstraat,27,51.1855788224,3.08575292465
8490,Jabbeke,Stationsstraat,68,51.1912187009,3.09341401179
8490,Jabbeke,Cathilleweg,61,51.212416356,3.07318524049
8490,Jabbeke,Zandstraat,42,51.1925601907,3.14992707133
8490,Jabbeke,Gistelsteenweg,157B,51.1839491041,3.14218160225
8490,Jabbeke,Veldstraat,2,51.1794148107,3.09902783849
8490,Jabbeke,Stationsstraat,130,51.1983145424,3.09123324066
8490,Jabbeke,Cathilleweg,129,51.2179060402,3.06588366885
8490,Jabbeke,Krakeelstraat,1D,51.1683930858,3.06818414238
8490,Jabbeke,Snellegemstraat,15,51.1654712922,3.07593577317
8490,Jabbeke,Gistelsteenweg,143,51.1848518517,3.14419293948
8490,Jabbeke,Sarkoheemstraat,21A,51.1663999924,3.07115015658
8490,Jabbeke,Hagebos,18,51.1912930313,3.13386960096
8490,Jabbeke,Bekegemstraat,24,51.1645752542,3.06711671441
8490,Jabbeke,Westmoere,5,51.166503393,3.12339672714
8490,Jabbeke,Hellegatstraat,3,51.1832530276,3.04983001618
8490,Jabbeke,Coudeveldt,22,51.1930774048,3.14453625771
8490,Jabbeke,Eernegemweg,100,51.1669373335,3.11371962302
8490,Jabbeke,Stationsstraat,15,51.1840148474,3.09393578878
8490,Jabbeke,Kerkebeekstraat,37,51.1837766767,3.14779037499
8490,Jabbeke,Caverstraat,25,51.1841500167,3.08938109806
8490,Jabbeke,Hogedijkenstraat,41,51.178782926,3.09014016187
8490,Jabbeke,Stationsstraat,112,51.196915149,3.09162881588
8490,Jabbeke,Warandedreef,4,51.1920913061,3.1545765781
8490,Jabbeke,Kerkeweg,30,51.1718434968,3.12341905995
8490,Jabbeke,Duineweg,11,51.1686387546,3.05391014495
8490,Jabbeke,Gistelsteenweg,150A,51.1812710785,3.13770443205
8490,Jabbeke,J. Noterdaemestraat,24,51.1667063541,3.11769243199
8490,Jabbeke,Eernegemweg,153,51.1613615047,3.09997995661
8490,Jabbeke,Nachtegaalstraat,19,51.2165299151,3.09534729262
8490,Jabbeke,Gistelsteenweg,552,51.1721488086,3.05590005504
8490,Jabbeke,Gistelsteenweg,619,51.1718107969,3.05801458527
8490,Jabbeke,Stationsstraat,1,51.1831849465,3.094289726
8490,Jabbeke,Spanjaardstraat,43,51.2172869966,3.07362670401
8490,Jabbeke,Joorisstraat,14,51.189135068,3.14746626113
8490,Jabbeke,Kroondreef,20,51.1808266874,3.10242346791
8490,Jabbeke,Bekegemstraat,59,51.1587722515,3.06097340152
8490,Jabbeke,Tafeldijcken,31,51.1830936152,3.13557848527
8490,Jabbeke,Gistelsteenweg,77,51.1894272837,3.15176859338
8490,Jabbeke,Snellegemstraat,1,51.1637772363,3.0838806919
8490,Jabbeke,Hageweg,49,51.1592722815,3.13293848495
8490,Jabbeke,Zerkegemstraat,32,51.1780884792,3.0834787258
8490,Jabbeke,Cathilleweg,137,51.2181657192,3.06681116267
8490,Jabbeke,Grote Thems,108,51.189429935,3.15726928992
8490,Jabbeke,Westmoere,35,51.1659873459,3.12098246582
8490,Jabbeke,Aartrijksesteenweg,48,51.1765519677,3.08743127838
8490,Jabbeke,Bitterstraat,3,51.1824986412,3.08741154108
8490,Jabbeke,Gistelsteenweg,119A,51.1854219245,3.14881273444
8490,Jabbeke,Gistelsteenweg,178,51.1776319457,3.12647705705
8490,Jabbeke,Gistelsteenweg,493,51.1775703296,3.07863812645
8490,Jabbeke,Zandstraat,14,51.1914216214,3.14701588029
8490,Jabbeke,Torhoutweg,29,51.1816712076,3.07129271471
8490,Jabbeke,Snellegemstraat,2A,51.1643607184,3.08355337119
8490,Jabbeke,Zerkegemstraat,14,51.1784779994,3.08565355459
8490,Jabbeke,Hogedijkenstraat,33,51.1789352935,3.09097869439
8490,Jabbeke,Cathilleweg,13,51.209915489,3.07516462804
8490,Jabbeke,Ten Bogaerde,19,51.1852573014,3.14084053487
8490,Jabbeke,Aartrijksesteenweg,171,51.1445325824,3.0858465115
8490,Jabbeke,Spanjaardstraat,31,51.2161014647,3.0731131072
8490,Jabbeke,Gistelsteenweg,530,51.1725377218,3.05896290911
8490,Jabbeke,Steenovenstraat,48,51.1842329263,3.14689631761
8490,Jabbeke,Bekegemstraat,40B,51.1597460768,3.06174775538
8490,Jabbeke,Zeeweg,20,51.1880233435,3.15093758666
8490,Jabbeke,Nachtegaalstraat,17,51.219219579,3.08699343017
8490,Jabbeke,Van Larebekelaan,17,51.1859088472,3.09550578774
8490,Jabbeke,Paradijsweg,11,51.1640664927,3.06954883573
8490,Jabbeke,Zandstraat,48,51.1927150932,3.15039900596
8490,Jabbeke,Oude Dorpsweg,57,51.1898661304,3.14444365366
8490,Jabbeke,Lindenlaan,6,51.181055982,3.14013489444
8490,Jabbeke,Lijsterdreef,4D,51.18135215,3.13646064085
8490,Jabbeke,Popstaelstraat,15,51.1910448258,3.14974675311
8490,Jabbeke,Steenovenstraat,23,51.1842116209,3.14450711148
8490,Jabbeke,Gistelsteenweg,382,51.1784134181,3.07888672034
8490,Jabbeke,Zandstraat,32,51.1925263925,3.14926484738
8490,Jabbeke,Dorpsstraat,1,51.1828882813,3.09518208061
8490,Jabbeke,Eernegemweg,9,51.1684156265,3.12202477673
8490,Jabbeke,Gistelsteenweg,39,51.1905066558,3.15445914236
8490,Jabbeke,Willemijnenweg,17,51.1685456534,3.07246342571
8490,Jabbeke,Gistelsteenweg,346,51.1796507996,3.08265779136
8490,Jabbeke,Stationsstraat,118B,51.1976885091,3.09162582556
8490,Jabbeke,Reigerzele,13,51.1919284517,3.13563765365
8490,Jabbeke,Jabbekestraat,26,51.1688542907,3.07157172165
8490,Jabbeke,Boterstraat,20,51.1739996724,3.1184440457
8490,Jabbeke,Weststraat,53,51.182818385,3.07873155034
8490,Jabbeke,Zomerweg,16,51.1728289428,3.09414376855
8490,Jabbeke,Cathilleweg,82A,51.2135932438,3.07268795298
8490,Jabbeke,Eernegemweg,133,51.1649770665,3.10901185944
8490,Jabbeke,Veldstraat,14A,51.1781109433,3.09834374872
8490,Jabbeke,Gistelsteenweg,364,51.1788692328,3.08061188742
8490,Jabbeke,Cathilleweg,31,51.2105713064,3.07477132104
8490,Jabbeke,Eernegemweg,44,51.1681319559,3.11978209682
8490,Jabbeke,Eikendreef,21,51.1866307116,3.13653430634
8490,Jabbeke,Caverstraat,38,51.1852995903,3.08808164526
8490,Jabbeke,Vedastusstraat,52,51.1675298548,3.06413808125
8490,Jabbeke,Hugo Verrieststraat,9,51.1826405414,3.09713771024
8490,Jabbeke,Nachtegaalstraat,35,51.209398379,3.12285557556
8490,Jabbeke,Eernegemweg,62,51.1680340144,3.11815476215
8490,Jabbeke,Oude Dorpsweg,111,51.1864351474,3.14322375279
8490,Jabbeke,Provenhofstraat,104,51.193598747,3.14688535999
8490,Jabbeke,Lijsterdreef,18,51.1833124383,3.13472692629
8490,Jabbeke,Kievitstraat,5,51.1848950519,3.09012481988
8490,Jabbeke,Nieuwenhovedreef,15,51.1853469944,3.13754546086
8490,Jabbeke,Cousseweg,4,51.182710821,3.08350524117
8490,Jabbeke,Bekegemstraat,39,51.1584728791,3.06558535124
8490,Jabbeke,Westmoere,17,51.1669702657,3.12264074289
8490,Jabbeke,Kwetshagestraat,15,51.1975366943,3.11782111161
8490,Jabbeke,Westmoere,47,51.165994783,3.11971242034
8490,Jabbeke,Spanjaardstraat,13,51.2151450294,3.07257857168
8490,Jabbeke,Vedastusstraat,70,51.1665866725,3.06626878692
8490,Jabbeke,Legeweg,15,51.1913936067,3.10502982666
8490,Jabbeke,Westernieuwweg,98,51.2159381208,3.12055519598
8490,Jabbeke,De Baetsdreef,8,51.1597852493,3.11790553213
8490,Jabbeke,Spoorwegstraat,3,51.1993424044,3.08971699136
8490,Jabbeke,Gistelsteenweg,299,51.1783956339,3.10641295432
8490,Jabbeke,Gistelsteenweg,196,51.1784131293,3.12422698115
8490,Jabbeke,Walbekestraat,1,51.1785476456,3.1052682315
8490,Jabbeke,Isenbaertstraat,20,51.1775308296,3.11131404395
8490,Jabbeke,Lettenburgstraat,4A,51.1875800343,3.09446928853
8490,Jabbeke,Gistelsteenweg,512,51.1728909418,3.0603347431
8490,Jabbeke,Roodborstjesstraat,4,51.1837281748,3.0861922795
8490,Jabbeke,Gistelsteenweg,547,51.1745738419,3.06789787112
8490,Jabbeke,Zandstraat,67,51.194120445,3.15175997402
8490,Jabbeke,Duineweg,6B,51.1687515559,3.05069672303
8490,Jabbeke,Sarkoheemstraat,5,51.1670124845,3.06940025015
8490,Jabbeke,Gistelsteenweg,133A,51.185549117,3.14512388922
8490,Jabbeke,Groenwalle,19,51.1933474289,3.14937015549
8490,Jabbeke,Coudeveldt,19,51.1927699285,3.14446406167
8490,Jabbeke,Nieuwenhovedreef,33,51.1836000582,3.13974353605
8490,Jabbeke,Steenovenstraat,76,51.1853464882,3.14758396307
8490,Jabbeke,Elfhoekstraat,10,51.1913363586,3.09904948666
8490,Jabbeke,Gistelsteenweg,243,51.1780252153,3.11594764949
8490,Jabbeke,Stationsstraat,94,51.1959529439,3.0918843542
8490,Jabbeke,Koffiestraat,26,51.1802396513,3.09066452001
8490,Jabbeke,Popstaelstraat,68,51.194257892,3.14767044462
8490,Jabbeke,Bekegemstraat,50,51.1588724898,3.05805325402
8490,Jabbeke,Tafeldijcken,4,51.1832907919,3.13859236174
8490,Jabbeke,Bremstraat,26,51.1759213057,3.07593104883
8490,Jabbeke,Aartrijksesteenweg,49,51.1779633966,3.08863584004
8490,Jabbeke,Zakjestraat,3,51.2110690985,3.07562041241
8490,Jabbeke,Zuidstraat,13,51.1795340453,3.08704593859
8490,Jabbeke,Grote Thems,37,51.1890975057,3.15412514252
8490,Jabbeke,Oude Dorpsweg,5,51.1895901639,3.14970820336
8490,Jabbeke,Kapelrie,68,51.1857483319,3.13798046077
8490,Jabbeke,Legeweg,33,51.1937375671,3.13409807844
8490,Jabbeke,Constant Permekelaan,27,51.1820108914,3.09713755225
8490,Jabbeke,Kastanjebosstraat,2A,51.1771976778,3.0777882982
8490,Jabbeke,Steenovenstraat,58,51.1844204796,3.14644684
8490,Jabbeke,Klaproos,1,51.1764232651,3.08323738184
8490,Jabbeke,Oudenburgweg,23,51.1880304166,3.13897759012
8490,Jabbeke,Gistelsteenweg,125,51.1861463037,3.14635759727
8490,Jabbeke,Eernegemweg,115,51.1656176773,3.11129819358
8490,Jabbeke,Gistelsteenweg,211,51.1793569274,3.13637113122
8490,Jabbeke,Bosweg,38,51.172125357,3.13176693504
8490,Jabbeke,Oudenburgweg,73,51.1850045843,3.12701025405
8490,Jabbeke,Oude Bruggeweg,7,51.1692931126,3.10521574277
8490,Jabbeke,Duineweg,6,51.1691149293,3.05116407575
8490,Jabbeke,Gistelsteenweg,429,51.1802907198,3.08572831769
8490,Jabbeke,Meersbeekstraat,1,51.1636190673,3.11971547105
8490,Jabbeke,Kalsijdeweg,27,51.2152952359,3.06121657379
8490,Jabbeke,Cathilleweg,66,51.2128442233,3.07396085982
8490,Jabbeke,Eernegemweg,80,51.1677531926,3.11598425575
8490,Jabbeke,Legeweg,43,51.1974427671,3.14509738399
8490,Jabbeke,Kerkebeekstraat,45,51.1842135276,3.14802054452
8490,Jabbeke,de Manlaan,20,51.1937667486,3.15497393487
8490,Jabbeke,Gistelsteenweg,665,51.1713224392,3.05284399975
8490,Jabbeke,Kapellestraat,10,51.1818282118,3.09309924261
8490,Jabbeke,Aartrijksesteenweg,100,51.1609881788,3.08334163816
8490,Jabbeke,Zwanestraat,25,51.1828619254,3.08927907954
8490,Jabbeke,Hageweg,39,51.1624145504,3.12873071023
8490,Jabbeke,Oude Dorpsweg,29,51.1898930428,3.14747132307
8490,Jabbeke,Merelstraat,32,51.1862089572,3.08888251296
8490,Jabbeke,Dorpsstraat,53,51.1816873598,3.08921715149
8490,Jabbeke,Oudenburgweg,55,51.1865578525,3.13320594745
8490,Jabbeke,Gistelsteenweg,440,51.1763649011,3.07138953075
8490,Jabbeke,Aartrijksesteenweg,32,51.1782936545,3.08779510462
8490,Jabbeke,Groenwalle,8,51.1946652635,3.15213106085
8490,Jabbeke,Stationsstraat,119,51.2032043239,3.08371357163
8490,Jabbeke,Zandweg naar Zerkegem,10,51.161843018,3.09115560904
8490,Jabbeke,Kerkebeekstraat,47,51.1843157011,3.14825174327
8490,Jabbeke,Gistelsteenweg,107,51.1855968677,3.14964954672
8490,Jabbeke,Cathilleweg,165,51.2232656592,3.06638235005
8490,Jabbeke,Stationsstraat,41,51.185605744,3.09264956593
8490,Jabbeke,Leeuwerikstraat,4,51.1845103642,3.08782379008
8490,Jabbeke,Kerkebeekstraat,10,51.1827350669,3.14399614422
8490,Jabbeke,Koornblomme,24,51.1773021105,3.08353441027
8490,Jabbeke,Sarkoheemstraat,29,51.1657377453,3.0708020841
8490,Jabbeke,Kerkeweg,17,51.1715120175,3.12238498959
8490,Jabbeke,Zeeweg,37,51.1868432911,3.15328101854
8490,Jabbeke,Popstaelstraat,33,51.191628745,3.14930589441
8490,Jabbeke,Zerkegemstraat,49,51.1770679584,3.08243860153
8490,Jabbeke,Aartrijksesteenweg,67,51.1770962103,3.08834325465
8490,Jabbeke,Joorisstraat,7,51.1893673411,3.1482737406
8490,Jabbeke,Vedastusstraat,31A,51.1679506379,3.06481883944
8490,Jabbeke,Korte Zerkegemstraat,5,51.1781646809,3.08161718374
8490,Jabbeke,Oude Stokerijstraat,9,51.1740172437,3.08546536323
8490,Jabbeke,Merelstraat,14,51.1853851305,3.09043625275
8490,Jabbeke,Aartrijksesteenweg,14,51.17981312,3.08794421753
8490,Jabbeke,Zilverstraat,2,51.1679911073,3.0778786349
8490,Jabbeke,Walbekestraat,12,51.1767995011,3.10468997217
8490,Jabbeke,Ettelgemstraat,88,51.1788870828,3.0551187452
8490,Jabbeke,Kasteeldreef,13,51.1850679584,3.12154518498
8490,Jabbeke,Popstaelstraat,86,51.201682222,3.14403909402
8490,Jabbeke,Cathilleweg,120,51.2163222962,3.0707556041
8490,Jabbeke,Zandstraat,49,51.1930166091,3.14940512166
8490,Jabbeke,Gistelsteenweg,50,51.1904613767,3.15162089319
8490,Jabbeke,Marienhovedreef,11,51.1810134048,3.1442442648
8490,Jabbeke,de Manlaan,50C,51.203095221,3.15015649456
8490,Jabbeke,Ettelgemstraat,35,51.1792865558,3.07917868848
8490,Jabbeke,Hogedijkenstraat,15,51.1791301551,3.09218135805
8490,Jabbeke,Mosselstraat,27,51.1590863098,3.0780440877
8490,Jabbeke,Bekegemstraat,32,51.1638354864,3.06684894035
8490,Jabbeke,Spanjaardstraat,38,51.2165912328,3.07385242888
8490,Jabbeke,Vedastusstraat,21A,51.1694093357,3.06260384161
8490,Jabbeke,Hageweg,2,51.1673538667,3.12527794402
8490,Jabbeke,Ganzeveld,2,51.1795985928,3.08515734838
8490,Jabbeke,Provenhofstraat,33,51.1921635604,3.14507067673
8490,Jabbeke,Grote Thems,91,51.1870161357,3.16038957587
8490,Jabbeke,Caverstraat,13,51.1835669865,3.09093989895
8490,Jabbeke,Weststraat,49A,51.1830590602,3.07951575897
8490,Jabbeke,Ettelgemstraat,53,51.1788233894,3.07490915745
8490,Jabbeke,Cruceweghe,12,51.1850632035,3.13954223702
8490,Jabbeke,Isenbaertstraat,73,51.1650588296,3.11680560679
8490,Jabbeke,Grote Thems,73,51.1891599215,3.15907248869
8490,Jabbeke,Oude Dorpsweg,40,51.1905927333,3.1462905187
8490,Jabbeke,Gistelsteenweg,529,51.1757299492,3.07300423287
8490,Jabbeke,Boekhoutestraat,41,51.1752549943,3.13565692136
8490,Jabbeke,Stationsstraat,61E,51.1971395025,3.09068578199
8490,Jabbeke,Kerkebeekstraat,106,51.1821854123,3.14677339707
8490,Jabbeke,Gistelsteenweg,48,51.1904847902,3.15171212642
8490,Jabbeke,Bekegemstraat,14,51.1656166833,3.06835239471
8490,Jabbeke,Isenbaertstraat,55,51.1667897424,3.11572069239
8490,Jabbeke,Gistelsteenweg,649A,51.171492535,3.05466207501
8490,Jabbeke,Gistelsteenweg,389,51.1802790539,3.09174817624
8490,Jabbeke,Constant Permekelaan,63,51.1807284768,3.09835677209
8490,Jabbeke,Jabbekestraat,6,51.1676479597,3.07009309429
8490,Jabbeke,de Manlaan,8,51.1925019435,3.15588037629
8490,Jabbeke,Tempeliersstraat,10,51.1814459096,3.08396487018
8490,Jabbeke,Cathilleweg,102,51.214820876,3.07195692041
8490,Jabbeke,Snellegemstraat,23,51.1657338854,3.07203887278
8490,Jabbeke,Stationsstraat,63C,51.1990215866,3.09029312296
8490,Jabbeke,Kerkebeekstraat,124,51.1831003363,3.14849134581
8490,Jabbeke,Vloethemveldstraat,1,51.1602314427,3.10011101494
8490,Jabbeke,Kerkebeekstraat,98,51.1818042105,3.14587454687
8490,Jabbeke,Bremstraat,6,51.1765860331,3.07753576178
8490,Jabbeke,Zandwege,15,51.190565397,3.13538467967
8490,Jabbeke,Kerkeweg,1,51.1693411364,3.12253672969
8490,Jabbeke,Constant Permekelaan,81,51.1800488804,3.0995147705
8490,Jabbeke,Stationsstraat,23,51.1846077277,3.09366913193
8490,Jabbeke,Dorpsstraat,88,51.1815601849,3.08777599948
8490,Jabbeke,Fazantendreef,3A,51.1845628953,3.13600026854
8490,Jabbeke,Gistelsteenweg,264,51.179743498,3.10171010436
8490,Jabbeke,Weststraat,47,51.1845531498,3.08261600564
8490,Jabbeke,Isenbaertstraat,91,51.1637071372,3.11882851296
8490,Jabbeke,Gistelsteenweg,171,51.1823664998,3.14041951789
8490,Jabbeke,Westernieuwweg,27,51.1914161148,3.13791385686
8490,Jabbeke,Varsenareweg,5,51.1833151607,3.09585358796
8490,Jabbeke,Bekegemstraat,48,51.1588029285,3.05835500285
8490,Jabbeke,Vlamingveld,19,51.1808441113,3.10771899143
8490,Jabbeke,Gistelsteenweg,647,51.1715106865,3.05510601983
8490,Jabbeke,Kapelrie,33,51.1864807809,3.14082094317
8490,Jabbeke,Ettelgemstraat,66C,51.1793453667,3.07566703907
8490,Jabbeke,Cathilleweg,84,51.2137236194,3.07259988302
8490,Jabbeke,Kerkeweg,35,51.1732548375,3.1233621169
8490,Jabbeke,Gistelsteenweg,282,51.1800374046,3.10002841123
8490,Jabbeke,Hogeweg,5,51.2061751094,3.14453696982
8490,Jabbeke,Noordstraat,15,51.1735226219,3.05763804178
8490,Jabbeke,Noordstraat,51,51.1811364649,3.05552417605
8490,Jabbeke,Weststraat,17,51.1865665257,3.08889473946
8490,Jabbeke,Lanestraat,15,51.1664234119,3.06292928381
8490,Jabbeke,Flamincka Park,33,51.1882258521,3.08474002373
8490,Jabbeke,Kievitstraat,22,51.1857356172,3.09118208231
8490,Jabbeke,Koffiestraat,6,51.181943413,3.09281989554
8490,Jabbeke,Zandstraat,39,51.1925168723,3.14844676413
8490,Jabbeke,Westmoere,53,51.1656090429,3.11950969062
8490,Jabbeke,Stationsstraat,76,51.1932332961,3.09381206749
8490,Jabbeke,Zerkegemstraat,39,51.1776051912,3.08324803429
8490,Jabbeke,Spanjaardstraat,1A,51.2145524138,3.07197082354
8490,Jabbeke,Tafeldijcken,25,51.1825202671,3.13629564354
8490,Jabbeke,Beisbroekdreef,8,51.1814710912,3.14074544278
8490,Jabbeke,Fazantendreef,4,51.1851001731,3.13573790271
8490,Jabbeke,Grote Thems,55,51.1902620856,3.15704755613
8490,Jabbeke,Gistelsteenweg,301,51.1782934791,3.10624180036
8490,Jabbeke,Eernegemweg,26,51.1687398137,3.12072317954
8490,Jabbeke,Torhoutweg,22,51.185326216,3.0720372488
8490,Jabbeke,Zuidmoere,23,51.1669414948,3.12408182325
8490,Jabbeke,Eikendreef,28,51.1864887088,3.13770245632
8490,Jabbeke,Caverstraat,31,51.1845072254,3.08877882751
8490,Jabbeke,Vedastusstraat,21C,51.1690435408,3.06283214106
8490,Jabbeke,Provenhofstraat,86,51.1931323242,3.14661215049
8490,Jabbeke,Zandstraat,50,51.192783338,3.1505224073
8490,Jabbeke,J. Noterdaemestraat,36,51.1660857109,3.11652285271
8490,Jabbeke,Windmolenstraat,5,51.1802485332,3.08136936439
8490,Jabbeke,Stationsstraat,162,51.2011523588,3.08858259532
8490,Jabbeke,Gistelsteenweg,336,51.1809480969,3.08555792431
8490,Jabbeke,Dorpsstraat,49A,51.1817511313,3.08951091194
8490,Jabbeke,Koning Albertstraat,1,51.1882482058,3.1431033432
8490,Jabbeke,Zomerweg,5,51.1790760741,3.09758948935
8490,Jabbeke,Tafeldijcken,43,51.1839942599,3.13601428164
8490,Jabbeke,Ganzeveld,23,51.1796756765,3.0845652398
8490,Jabbeke,Westernieuwweg,81,51.1985963437,3.12656379193
8490,Jabbeke,J. Noterdaemestraat,18,51.1664067562,3.11789091449
8490,Jabbeke,Kroondreef,63,51.1837755037,3.09797318976
8490,Jabbeke,Groenwalle,30,51.1941671844,3.15028427579
8490,Jabbeke,Westmoere,71,51.1668880726,3.11872336558
8490,Jabbeke,Gistelsteenweg,2,51.1924155409,3.15906423149
8490,Jabbeke,Coudeveldt,30,51.1937524084,3.14520170871
8490,Jabbeke,Wallenhove,6,51.1643527572,3.06977178761
8490,Jabbeke,Meersbeekstraat,8,51.1637748215,3.12047723841
8490,Jabbeke,Gistelsteenweg,49,51.1904033308,3.15337987948
8490,Jabbeke,Gistelsteenweg,318,51.1809048844,3.09061312656
8490,Jabbeke,Eernegemweg,79,51.1669826185,3.11557224391
8490,Jabbeke,Coudeveldt,12,51.1917648157,3.14350343222
8490,Jabbeke,Popstaelstraat,4,51.1906284036,3.15111440063
8490,Jabbeke,Groenwalle,12,51.1950105739,3.15236857447
8490,Jabbeke,Hageweg,32,51.1616524352,3.12910322295
8490,Jabbeke,Bekegemstraat,2,51.1661375617,3.0689651748
8490,Jabbeke,Zerkegemstraat,32C,51.1773123867,3.08171962539
8490,Jabbeke,Eikendreef,9,51.1850778589,3.1329039582
8490,Jabbeke,Rozenlaan,4,51.1657545369,3.07147150476
8490,Jabbeke,Gistelsteenweg,540,51.1723955348,3.05757172747
8490,Jabbeke,Kalsijdeweg,10,51.2146120634,3.070000625
8490,Jabbeke,Flamincka Park,15,51.1905609267,3.08072058053
8490,Jabbeke,Oude Dorpsweg,22,51.1904143002,3.1475442364
8490,Jabbeke,Popstaelstraat,51,51.1929640917,3.14796610095
8490,Jabbeke,Weststraat,1,51.1880158354,3.09186770352
8490,Jabbeke,Koffiestraat,24A,51.1811084949,3.09096141366
8490,Jabbeke,Stationsstraat,144,51.1991054563,3.09105777248
8490,Jabbeke,Lindenlaan,36,51.177708163,3.13458398972
8490,Jabbeke,Bekegemstraat,67,51.1585586271,3.0602245331
8490,Jabbeke,Kroondreef,81,51.1854079015,3.09723985144
8490,Jabbeke,Westernieuwweg,63,51.1946598845,3.13497374841
8490,Jabbeke,Oudenburgweg,3,51.1884001361,3.14131892147
8490,Jabbeke,Van Larebekelaan,6,51.186812864,3.09732646684
8490,Jabbeke,Gistelsteenweg,85,51.1882737968,3.15023968308
8490,Jabbeke,Koning Albertstraat,17,51.1878233674,3.14479677431
8490,Jabbeke,Stationsstraat,58,51.1863446554,3.09361096267
8490,Jabbeke,Kastanjebosstraat,23,51.1772607957,3.08138223197
8490,Jabbeke,Zeeweg,8,51.1893339206,3.1503586433
8490,Jabbeke,Aartrijksesteenweg,39,51.178553904,3.08855772109
8490,Jabbeke,Aartrijksesteenweg,125,51.1632474104,3.08582017179
8490,Jabbeke,Dorpsstraat,35,51.1818226731,3.09088050616
8490,Jabbeke,Uytdreve,40,51.1887088771,3.13669889663
8490,Jabbeke,Zevecotestraat,2,51.1787137034,3.08217128806
8490,Jabbeke,Oude Dorpsweg,93,51.1877891218,3.14288866067
8490,Jabbeke,Gistelsteenweg,153,51.1845843931,3.14319409122
8490,Jabbeke,Vlamingveld,9,51.1816178283,3.10852468138
8490,Jabbeke,Kerkebeekstraat,27,51.1833543202,3.14642297258
8490,Jabbeke,Ketelweg,10,51.1814977843,3.08298967148
8490,Jabbeke,Koornblomme,42,51.1769620703,3.08382809245
8490,Jabbeke,Kouter,16,51.1665903654,3.10283592015
8490,Jabbeke,Isenbaertstraat,8,51.1784026317,3.11110835499
8490,Jabbeke,Stationsstraat,120,51.1978075122,3.09121607008
8490,Jabbeke,Dorpsstraat,17,51.1821998252,3.09250550543
8490,Jabbeke,Nieuwenhovedreef,4,51.1865468902,3.13401516955
8490,Jabbeke,Gistelsteenweg,404,51.1774113311,3.07629625922
8490,Jabbeke,Korte Zomerweg,5,51.1789193222,3.09570482522
8490,Jabbeke,Koornblomme,60,51.1767589559,3.08381680556
8490,Jabbeke,Kerkeweg,53,51.1756223507,3.12387846771
8490,Jabbeke,Gistelsteenweg,422,51.1769366276,3.07377180074
8490,Jabbeke,Woudweg naar Zedelgem,15,51.1633223067,3.11455551824
8490,Jabbeke,Gistelsteenweg,32,51.1909364248,3.15327544304
8490,Jabbeke,Oude Dorpsweg,75,51.1891073352,3.14282414662
8490,Jabbeke,Provenhofstraat,15,51.1917570811,3.14564743181
8490,Jabbeke,Aartrijksesteenweg,50,51.1761895939,3.08712529764
8490,Jabbeke,Isenbaertstraat,108,51.1556377898,3.12699059253
8490,Jabbeke,Steenovenstraat,41,51.1848647945,3.14559927203
8490,Jabbeke,Bosweg,13,51.1701871269,3.12505836425
8490,Jabbeke,Oude Gistelsteenweg,5,51.1784497378,3.1332597387
8490,Jabbeke,Willemijnenweg,6,51.168210669,3.07042291816
8490,Jabbeke,Gistelsteenweg,67,51.1898549348,3.15188319161
8490,Jabbeke,Mosselstraat,10,51.1641295098,3.0717168133
8490,Jabbeke,Aartrijksesteenweg,107,51.1640700337,3.08523666587
8490,Jabbeke,Westernieuwweg,45,51.1926013046,3.1365316366
8490,Jabbeke,Brielweg,7,51.1833669441,3.08508921635
8490,Jabbeke,Oude Stokerijstraat,26,51.1747015883,3.08326833251
8490,Jabbeke,Aartrijksesteenweg,1B,51.18137791,3.08914067061
8490,Jabbeke,Ettelgemstraat,47,51.1786018584,3.07564658184
8490,Jabbeke,D'Hooghe Noene,16,51.1924107661,3.15258796914
8490,Jabbeke,Kroondreef,10,51.1809167384,3.10593300645
8490,Jabbeke,Kwetshagestraat,4,51.1947165706,3.12070091672
8490,Jabbeke,Provenhofstraat,68,51.1930619915,3.14620896989
8490,Jabbeke,Joorisstraat,24,51.1887090287,3.14793460544
8490,Jabbeke,Grote Thems,8,51.1865108701,3.15937429397
8490,Jabbeke,Legeweg,4,51.1895136027,3.11636048287
8490,Jabbeke,Stationsstraat,63A,51.1986519496,3.09034517244
8490,Jabbeke,Gistelsteenweg,457,51.179147503,3.08276948444
8490,Jabbeke,Ettelgemstraat,71,51.1782688473,3.06100385519
8490,Jabbeke,Gistelsteenweg,100,51.1874575199,3.14720745363
8490,Jabbeke,Hogedijkenstraat,51,51.1787115591,3.08936878204
8490,Jabbeke,Stationsstraat,102,51.1963785614,3.09177155383
8490,Jabbeke,Steenovenstraat,13,51.1840885332,3.14327347784
8490,Jabbeke,Gistelsteenweg,372,51.1787508743,3.0800134463
8490,Jabbeke,Kalsijdeweg,6A,51.214544839,3.07043633908
8490,Jabbeke,Zandstraat,35A,51.1923261787,3.14819208728
8490,Jabbeke,Nachtegaalstraat,27,51.2115737437,3.10734776389
8490,Jabbeke,Gistelsteenweg,522,51.1727449952,3.0598278672
8490,Jabbeke,Vedastusstraat,60,51.1671594805,3.06554029273
8490,Jabbeke,Tempeliersstraat,17,51.1818813785,3.08323728498
8490,Jabbeke,Halvemaanstraat,19,51.1816681007,3.08540110928
8490,Jabbeke,Provenhofstraat,6,51.1920845721,3.1465597525
8490,Jabbeke,Caverstraat,4,51.1831165656,3.09294274433
8490,Jabbeke,Halfweghuisstraat,12,51.1784067364,3.12613979186
8490,Jabbeke,Hellegatstraat,1,51.1807908597,3.0526522273
8490,Jabbeke,Oude Dorpsweg,85,51.1882560094,3.14283291281
8490,Jabbeke,Kouter,5,51.1685098357,3.10674765358
8490,Jabbeke,Vedastusstraat,42,51.1680269669,3.06303644851
8490,Jabbeke,Zeeweg,12,51.1888626354,3.15061599459
8490,Jabbeke,Kapelrie,6,51.1877150496,3.13903739591
8490,Jabbeke,Uytdreve,32,51.1881647043,3.13616193553
8490,Jabbeke,Cathilleweg,23,51.2103429086,3.07474144521
8490,Jabbeke,Weststraat,45,51.1849526515,3.08315242906
8490,Jabbeke,Gistelsteenweg,354,51.1792427745,3.08161964484
8490,Jabbeke,Gistelsteenweg,504,51.1731617506,3.06094666842
8490,Jabbeke,Zandstraat,22,51.191614289,3.14773115643
8490,Jabbeke,Stationsstraat,38,51.1857083369,3.09449291257
8490,Jabbeke,Stationsstraat,3,51.1832652597,3.09448464058
8490,Jabbeke,Zerkegemstraat,22,51.1783300125,3.08455977204
8490,Jabbeke,Gistelsteenweg,188,51.1780613142,3.12523908177
8490,Jabbeke,Hagebos,28,51.1918915017,3.13300296952
8490,Jabbeke,Bitterstraat,19,51.1847696631,3.08617697044
8490,Jabbeke,Zeeweg,30,51.1870350591,3.15110770241
8490,Jabbeke,Uytdreve,14,51.1893982206,3.1354498505
8490,Jabbeke,Popstaelstraat,25,51.1914157472,3.14947712397
8490,Jabbeke,Barletegemweg,7,51.1485823322,3.07705715849
8490,Jabbeke,Boekhoutestraat,31,51.1751948047,3.13059672864
8490,Jabbeke,Snellegemstraat,3,51.1638925219,3.083602857
8490,Jabbeke,Westmoere,27,51.1664683268,3.12100178784
8490,Jabbeke,Stationsstraat,156A,51.2006552831,3.09014176619
8490,Jabbeke,Lanestraat,19A,51.1672475351,3.06159716374
8490,Jabbeke,Legeweg,25,51.1952515947,3.11460551899
8490,Jabbeke,Kerkeweg,8,51.1699432349,3.12288244452
8490,Jabbeke,Eernegemweg,123,51.1653128494,3.11043020128
8490,Jabbeke,Grote Thems,116,51.1886317718,3.15824645427
8490,Jabbeke,Grote Thems,12,51.1856401242,3.15918943664
8490,Jabbeke,Spanjaardstraat,23,51.2155315206,3.07288402599
8490,Jabbeke,Westernieuwweg,7,51.1901066,3.14007608538
8490,Jabbeke,Nieuwenhovedreef,25,51.1841896635,3.13884159756
8490,Jabbeke,Spanjaardstraat,58,51.2349805859,3.07735206217
8490,Jabbeke,Eernegemweg,54,51.1681857424,3.11873052952
8490,Jabbeke,Ganzeveld,13,51.1787638149,3.08506830866
8490,Jabbeke,Gistelsteenweg,93,51.1876284949,3.14975813993
8490,Jabbeke,Reigerzele,23,51.1930901282,3.13504542656
8490,Jabbeke,Schoolstraat,5,51.1889842344,3.13868452234
8490,Jabbeke,Westernieuwweg,88,51.2084121082,3.12647780556
8490,Jabbeke,D'Hooghe Noene,5,51.1927675429,3.15117949124
8490,Jabbeke,Zomerweg,24,51.1664837275,3.09886334864
8490,Jabbeke,Varsenareweg,24,51.1840507972,3.10202061283
8490,Jabbeke,Boterstraat,12,51.1752278193,3.12092361342
8490,Jabbeke,Kroondreef,7,51.1804743465,3.10194257549
8490,Jabbeke,Duikerstraat,6,51.2020677745,3.0959426767
8490,Jabbeke,Merelstraat,2,51.1848210249,3.08900796219
8490,Jabbeke,Grote Thems,30,51.1859064764,3.15659929571
8490,Jabbeke,Flamincka Park,6,51.187589636,3.08178018056
8490,Jabbeke,Mosselstraat,7,51.1642772906,3.07373975066
8490,Jabbeke,Gerststraat,2,51.1745264492,3.08485458048
8490,Jabbeke,Bekegemstraat,29,51.1640381096,3.06811310145
8490,Jabbeke,de Manlaan,1,51.1917948839,3.15534395071
8490,Jabbeke,Gistelsteenweg,236,51.1792881071,3.10697351535
8490,Jabbeke,Tentestuk,6,51.1595454408,3.06008494585
8490,Jabbeke,Jabbekestraat,18,51.1685747603,3.07068462822
8490,Jabbeke,Steenovenstraat,31,51.184591993,3.14556808416
8490,Jabbeke,Eernegemweg,72,51.1675023157,3.11685221038
8490,Jabbeke,Oude Dorpsweg,101,51.186944672,3.14346528898
8490,Jabbeke,Oude Dorpsweg,49,51.1901779201,3.14466322475
8490,Jabbeke,Vaartdijk-Noord,11,51.2041001072,3.08390756528
8490,Jabbeke,Kerkeweg,46C,51.1735051053,3.12472688491
8490,Jabbeke,Cathilleweg,173,51.2278364172,3.06461220329
8490,Jabbeke,Cathilleweg,58,51.2123198983,3.07397354979
8490,Jabbeke,Halfweghuisstraat,8,51.1787923704,3.12489795205
8490,Jabbeke,Kalsijdeweg,17,51.2149933555,3.0622494647
8490,Jabbeke,Popstaelstraat,78,51.1997422604,3.14155177339
8490,Jabbeke,Legeweg,29A,51.1928700316,3.12930153834
8490,Jabbeke,Bosweg,4,51.1694663343,3.12455562689
8490,Jabbeke,Oudenburgweg,13,51.1882926216,3.14025472096
8490,Jabbeke,Oude Dorpsweg,118,51.1851631609,3.14196432275
8490,Jabbeke,Bekegemstraat,40,51.1613101044,3.06443561787
8490,Jabbeke,Leeuwerikstraat,15,51.1833553071,3.08800252482
8490,Jabbeke,Dorpsstraat,45,51.1816017323,3.08989418714
8490,Jabbeke,Aartrijksesteenweg,2,51.1807080283,3.08842242136
8490,Jabbeke,Eikendreef,11,51.1853659802,3.13358336966
8490,Jabbeke,Kerkebeekstraat,142,51.1836228688,3.14896644881
8490,Jabbeke,Koning Albertstraat,10,51.1873672639,3.14444424244
8490,Jabbeke,Sint Sebastiaanstraat,18,51.1881643684,3.14564128097
8490,Jabbeke,Fonteinebeekdreef,4,51.185161837,3.1296679612
8490,Jabbeke,Steenovenstraat,66,51.1852890804,3.14693504851
8490,Jabbeke,Bekedijkstraat,2,51.1973467782,3.0691671423
8490,Jabbeke,Gistelsteenweg,557,51.1741877283,3.06636381705
8490,Jabbeke,Cathilleweg,155,51.2189528422,3.06633555655
8490,Jabbeke,Grote Thems,1,51.1848102954,3.15572530927
8490,Jabbeke,Kerkebeekstraat,7,51.1831092564,3.14359197715
8490,Jabbeke,Isenbaertstraat,1,51.1785404521,3.11196249712
8490,Jabbeke,Bremstraat,18,51.1763062061,3.07588563872
8490,Jabbeke,Constant Permekelaan,17,51.1824239793,3.096369499
8490,Jabbeke,Ettelgemstraat,27,51.1795577358,3.07994926853
8490,Jabbeke,Steenovenstraat,2,51.1829718364,3.14249420635
8490,Jabbeke,Zerkegemstraat,51D,51.1751707227,3.08294164489
8490,Jabbeke,Zwaluwstraat,4,51.1832894699,3.08858049081
8490,Jabbeke,Zandstraat,57,51.1933024144,3.15010483801
8490,Jabbeke,Cathilleweg,76,51.2133583195,3.07359692267
8490,Jabbeke,Gistelsteenweg,439,51.179859459,3.08432805003
8490,Jabbeke,Eernegemweg,90,51.1672552559,3.11475647036
8490,Jabbeke,Zandstraat,2,51.1909327454,3.1458492865
8490,Jabbeke,Coudeveldt,9,51.1920386635,3.14418223481
8490,Jabbeke,Gistelsteenweg,135,51.1853531232,3.14460992237
8490,Jabbeke,Dorpsstraat,47,51.1815589617,3.08975489992
8490,Jabbeke,Eernegemweg,105,51.1663690182,3.11220780349
8490,Jabbeke,Beukendreef,12,51.1667804584,3.08775984422
8490,Jabbeke,Tulpenlaan,5,51.1650223339,3.07248972269
8490,Jabbeke,Mosselstraat,35,51.1518154412,3.08142500483
8490,Jabbeke,Kastanjebosstraat,3,51.1768311795,3.07828398139
8490,Jabbeke,Zerkegemstraat,2,51.1788751335,3.08759736704
8490,Jabbeke,Snellegemstraat,15B,51.1653472627,3.0746576393
8490,Jabbeke,Lettenburgstraat,6,51.1868259938,3.09365474879
8490,Jabbeke,Oostmoerstraat,16,51.1677834672,3.1248145147
8490,Jabbeke,Aartrijksesteenweg,22,51.1793326552,3.08785699274
8490,Jabbeke,Gistelsteenweg,201,51.1800276184,3.13792057712
8490,Jabbeke,Aartrijksesteenweg,57,51.1773653653,3.08855884296
8490,Jabbeke,Stationsstraat,59B,51.195874572,3.09113720301
8490,Jabbeke,Vedastusstraat,30A,51.1686935663,3.06223891823
8490,Jabbeke,Gistelsteenweg,117,51.1846478958,3.14902921189
8490,Jabbeke,Zeeweg,1,51.1893227453,3.15096663336
8490,Jabbeke,Merelstraat,22,51.1862203511,3.09069161018
8490,Jabbeke,Reigerzele,4,51.1925144735,3.13495520163
8490,Jabbeke,Elfhoekstraat,7,51.1912864556,3.09863853686
8490,Jabbeke,Noordstraat,6,51.1730047483,3.05884112336
8490,Jabbeke,Zuidstraat,23,51.1788650412,3.08700652091
8490,Jabbeke,Hageweg,29,51.1640223174,3.12808222715
8490,Jabbeke,de Manlaan,30,51.1950428187,3.1539484007
8490,Jabbeke,Vedastusstraat,5,51.1717906318,3.05957718897
8490,Jabbeke,Bedevaartstraat,10,51.1649328783,3.05719156811
8490,Jabbeke,Cruceweghe,9,51.1854034157,3.13897569588
8490,Jabbeke,Gistelsteenweg,450,51.174967396,3.06737305837
8490,Jabbeke,Constant Permekelaan,35,51.1818795479,3.09770568504
8490,Jabbeke,Koornblomme,34,51.1770331777,3.08419998911
8490,Jabbeke,Kapelrie,78,51.1861286402,3.13997193094
8490,Jabbeke,Lanestraat,6,51.1692424308,3.06461761036
8490,Jabbeke,Stationsstraat,109,51.2007716998,3.08435206536
8490,Jabbeke,J. Noterdaemestraat,7,51.1658563628,3.11804048923
8490,Jabbeke,Oude Dorpsweg,39,51.1901332174,3.14581615557
8490,Jabbeke,Koffiestraat,36,51.1795957508,3.08999532857
8490,Jabbeke,Kapelrie,15,51.187246992,3.13884230368
8490,Jabbeke,Bosweg,2A,51.1694146942,3.1240995616
8490,Jabbeke,Oudenburgweg,65,51.1858122897,3.13005808992
8490,Jabbeke,Dorpsstraat,10,51.1830633139,3.09449816251
8490,Jabbeke,Zwanestraat,15,51.1827696319,3.09036211079
8490,Jabbeke,Oostmoerstraat,34,51.1678366483,3.12766617999
8490,Jabbeke,Koornblomme,16,51.1773611932,3.08390821334
8490,Jabbeke,Ten Bogaerde,9,51.1846450791,3.13980914637
8490,Jabbeke,Gistelsteenweg,40,51.1905892363,3.15216490331
8490,Jabbeke,Zandwege,6,51.1900469939,3.13521569143
8490,Jabbeke,Kalsijdeweg,35,51.2145792983,3.05818784951
8490,Jabbeke,Hogedijkenstraat,25,51.1790229137,3.0914415586
8490,Jabbeke,Kerkebeekstraat,53,51.1842753958,3.14895412091
8490,Jabbeke,Gistelsteenweg,390,51.1783513841,3.07792302271
8490,Jabbeke,Koning Albertstraat,8,51.1873648123,3.14375638225
8490,Jabbeke,Zuidmoere,3,51.1676776213,3.12315565056
8490,Jabbeke,J. Noterdaemestraat,19B,51.1654950616,3.11909408456
8490,Jabbeke,Oudenburgweg,31,51.1880536592,3.13826529578
8490,Jabbeke,Zandwege,25,51.1915228386,3.13436309566
8490,Jabbeke,Westernieuwweg,17,51.1905041878,3.13927793696
8490,Jabbeke,Hagebos,21,51.1916867506,3.13407320756
8490,Jabbeke,Steedje,3,51.1576900341,3.07264558588
8490,Jabbeke,Ettelgemstraat,81,51.1783799895,3.05509711279
8490,Jabbeke,Van Larebekelaan,10,51.186540018,3.09646545098
8490,Jabbeke,Oude Dorpsweg,50,51.1906194398,3.14430201003
8490,Jabbeke,Gistelsteenweg,539,51.1728422539,3.07145979803
8490,Jabbeke,Stationsstraat,31,51.184912926,3.09309362878
8490,Jabbeke,Snellegemstraat,13,51.1645421706,3.07861580226
8490,Jabbeke,Kievitstraat,14,51.1848078695,3.09213095769
8490,Jabbeke,Bitterstraat,12,51.182474997,3.08805842766
8490,Jabbeke,Westmoere,7,51.1664959763,3.12298312311
8490,Jabbeke,Stationsstraat,13,51.1838744846,3.09390786655
8490,Jabbeke,Bekegemstraat,22,51.1647716442,3.06739048637
8490,Jabbeke,Spanjaardstraat,3,51.2147324873,3.07219297467
8490,Jabbeke,Walbekestraat,8,51.1772624303,3.10496290734
8490,Jabbeke,Duineweg,11B,51.1639972054,3.05057638699
8490,Jabbeke,Marienhovedreef,9,51.1818910381,3.14326936567
8490,Jabbeke,Eernegemweg,151,51.1622369848,3.10207847843
8490,Jabbeke,Hogedijkenstraat,43,51.1787531166,3.08995247156
8490,Jabbeke,Constant Permekelaan,53,51.1812819554,3.09798642017
8490,Jabbeke,Caverstraat,23,51.1840879028,3.08963083349
8490,Jabbeke,Ettelgemstraat,63,51.1787293341,3.07350382372
8490,Jabbeke,Gemeneweidestraat,2,51.1785766756,3.0677737632
8490,Jabbeke,Halvemaanstraat,12,51.1818265453,3.08581083836
8490,Jabbeke,Aartrijksesteenweg,75,51.1763320424,3.08825766108
8490,Jabbeke,Zeeweg,19,51.1881893536,3.1519473494
8490,Jabbeke,Kerkebeekstraat,88,51.1813520498,3.14484326499
8490,Jabbeke,Gistelsteenweg,657,51.1713789922,3.05335321426
8490,Jabbeke,Westmoere,45,51.1660539074,3.11992231379
8490,Jabbeke,Cruceweghe,20,51.1854349714,3.14054948868
8490,Jabbeke,Cleene Laene,4,51.1912231658,3.14808988382
8490,Jabbeke,Zuidmoere,31,51.1673811706,3.12367917451
8490,Jabbeke,Ten Bogaerde,20,51.184876111,3.14136608337
8490,Jabbeke,Bitterstraat,30,51.184446032,3.08718014843
8490,Jabbeke,Uytdreve,3,51.1898726094,3.13695014864
8490,Jabbeke,Westmoere,10,51.1671712138,3.12207215091
8490,Jabbeke,Tafeldijcken,51,51.1836780849,3.13759218927
8490,Jabbeke,Gistelsteenweg,254,51.1795854895,3.10273660538
8490,Jabbeke,Grote Thems,65,51.1902267166,3.15831610872
8490,Jabbeke,Groenwalle,1,51.1939422625,3.15110449777
8490,Jabbeke,Zandstraat,29,51.1920661686,3.14738857321
8490,Jabbeke,Groenwalle,47,51.1939563441,3.14839854474
8490,Jabbeke,Tafeldijcken,15,51.1820259624,3.13779208934
8490,Jabbeke,Kroondreef,71,51.1844031509,3.09752798135
8490,Jabbeke,Ketelweg,6,51.1811759866,3.08312554618
8490,Jabbeke,Zerkegemstraat,29,51.1779337219,3.08461615243
8490,Jabbeke,Steenovenstraat,38,51.1838247022,3.14698324056
8490,Jabbeke,Ettelgemstraat,45,51.1790992053,3.0776141505
8490,Jabbeke,Dorpsstraat,8,51.1831002065,3.0946597897
8490,Jabbeke,Eernegemweg,18,51.1688406749,3.12136123748
8490,Jabbeke,Isenbaertstraat,65,51.1656350455,3.11639524043
8490,Jabbeke,Nachtegaalstraat,7,51.216426502,3.0750483621
8490,Jabbeke,Westmoere,63,51.1664373254,3.1188002022
8490,Jabbeke,Zandstraat,75,51.1946174077,3.15276597123
8490,Jabbeke,Cathilleweg,94,51.2145340245,3.07302437935
8490,Jabbeke,Steenovenstraat,84,51.1846604352,3.14746630483
8490,Jabbeke,Lanestraat,25,51.1671398372,3.06086620974
8490,Jabbeke,Isenbaertstraat,19,51.1752544083,3.11608662928
8490,Jabbeke,Stationsstraat,57F,51.1876857758,3.09208844849
8490,Jabbeke,Popstaelstraat,43,51.1920333755,3.14898387468
8490,Jabbeke,Paddegatstraat,3,51.2085746802,3.05512076332
8490,Jabbeke,Zuidmoere,13,51.1675769859,3.12465371759
8490,Jabbeke,Aartrijksesteenweg,93,51.1684806517,3.08608794698
8490,Jabbeke,Cathilleweg,3,51.2090425768,3.07621670235
8490,Jabbeke,Westernieuwweg,35,51.1919364239,3.13729941339
8490,Jabbeke,Hageweg,40,51.1595300219,3.13050898984
8490,Jabbeke,Grote Thems,83,51.1878712299,3.15999336607
8490,Jabbeke,Bedevaartstraat,7,51.1623680322,3.06019087213
8490,Jabbeke,Westmoere,81,51.1672708826,3.11980512374
8490,Jabbeke,Grote Thems,19,51.1873781795,3.15349969022
8490,Jabbeke,Groenwalle,37,51.1941840139,3.14932698357
8490,Jabbeke,Legeweg,2C,51.1881540804,3.09741239157
8490,Jabbeke,Koornblomme,5,51.1770492274,3.08494067569
8490,Jabbeke,Vedastusstraat,59,51.1668680953,3.06870462193
8490,Jabbeke,Coudeveldt,37,51.1940613698,3.14597362691
8490,Jabbeke,Isenbaertstraat,83,51.1640810989,3.11806243326
8490,Jabbeke,Bakeroothoek,4,51.1912436993,3.14035187799
8490,Jabbeke,Krakeelstraat,5,51.1736323084,3.06676157333
8490,Jabbeke,Vedastusstraat,24,51.1692414782,3.06165131752
8490,Jabbeke,Cathilleweg,41,51.2112757028,3.07401168651
8490,Jabbeke,Popstaelstraat,61,51.1937821864,3.14725554195
8490,Jabbeke,Stationsstraat,66,51.1914601741,3.09339797219
8490,Jabbeke,Gistelsteenweg,308,51.1806289727,3.09243373356
8490,Jabbeke,Kastanjebosstraat,13,51.1769038039,3.0792792489
8490,Jabbeke,Groenwalle,20,51.1948037279,3.15112036835
8490,Jabbeke,Stationsstraat,172,51.2032744673,3.08453489515
8490,Jabbeke,Provenhofstraat,96,51.1932827825,3.14715730402
8490,Jabbeke,Coudeveldt,20,51.1928214283,3.14490578664
8490,Jabbeke,Oude Dorpsweg,14,51.1905329994,3.14876657429
8490,Jabbeke,Gistelsteenweg,326,51.1811363905,3.08951788602
8490,Jabbeke,Gistelsteenweg,145,51.1847388935,3.14399750394
8490,Jabbeke,Flamincka Park,25,51.1909948082,3.08579948714
8490,Jabbeke,Zomerweg,2B,51.1786586706,3.09692892514
8490,Jabbeke,Kerkebeekstraat,35,51.1836633922,3.14751927687
8490,Jabbeke,Bitterstraat,9A,51.1831708577,3.0871420596
8490,Jabbeke,Vedastusstraat,10A,51.1709839221,3.059119175
8490,Jabbeke,Gistelsteenweg,290,51.17996193,3.09794024868
8490,Jabbeke,Zandstraat,40,51.1925262855,3.14981236007
8490,Jabbeke,Zuidstraat,3,51.1801795519,3.0870242138
8490,Jabbeke,Aartrijksesteenweg,29,51.1796693898,3.08905791147
8490,Jabbeke,Monnikenveld,7,51.1826898301,3.08643106824
8490,Jabbeke,Zandstraat,16A,51.1912156684,3.14715517572
8490,Jabbeke,Uytdreve,50,51.1890134638,3.13568289459
8490,Jabbeke,J. Noterdaemestraat,26,51.1666080342,3.11735561537
8490,Jabbeke,Gistelsteenweg,449,51.1793680662,3.08349227446
8490,Jabbeke,Warandedreef,6,51.1919974619,3.15420104591
8490,Jabbeke,Noordstraat,43,51.1772825223,3.05616732571
8490,Jabbeke,Aartrijksesteenweg,135,51.1614794702,3.08556534415
8490,Jabbeke,Fonteinebeekdreef,23,51.1822805572,3.13233205939
8490,Jabbeke,Stationsstraat,154,51.199674785,3.09085860302
8490,Jabbeke,Schoolstraat,24,51.1903193475,3.13831773182
8490,Jabbeke,Bekegemstraat,57,51.1584317968,3.0591391329
8490,Jabbeke,Westernieuwweg,53,51.1932369002,3.13599051517
8490,Jabbeke,Oude Dorpsweg,32,51.1906443034,3.14682664223
8490,Jabbeke,Ettelgemstraat,7,51.1798630286,3.08221799732
8490,Jabbeke,Oostmoerstraat,52,51.167420727,3.13279851606
8490,Jabbeke,Gistelsteenweg,550,51.1721104427,3.05615282339
8490,Jabbeke,Lindenlaan,26,51.1788746355,3.1365789447
8490,Jabbeke,Tafeldijcken,33,51.1829072088,3.13528088762
8490,Jabbeke,Oude Stokerijstraat,18,51.1742477484,3.08390206657
8490,Jabbeke,Meersbeekstraat,10,51.1639375704,3.12131445944
8490,Jabbeke,Boekweitstraat,3,51.1756949106,3.08480085764
8490,Jabbeke,Kapelrie,43,51.1876185324,3.14169638198
8490,Jabbeke,Sparredreef,4,51.1860689997,3.13326709151
8490,Jabbeke,Constant Permekelaan,71,51.1805679235,3.09907671978
8490,Jabbeke,Paradijsweg,9,51.1642147837,3.06938957651
8490,Jabbeke,Koornblomme,70,51.1763155519,3.08355841815
8490,Jabbeke,Aartrijksesteenweg,117,51.1636812957,3.08501200546
8490,Jabbeke,Mosselstraat,12A,51.1639988827,3.07207689033
8490,Jabbeke,Gistelsteenweg,22,51.1914775481,3.15551915241
8490,Jabbeke,Klaproos,8,51.1767327404,3.08318352477
8490,Jabbeke,Kerkebeekstraat,114,51.182567733,3.147624602
8490,Jabbeke,Gistelsteenweg,57,51.1902641461,3.15269568037
8490,Jabbeke,Gistelsteenweg,397,51.1804216827,3.09064666443
8490,Jabbeke,Oudenburgweg,38,51.1879733654,3.13635667374
8490,Jabbeke,Gistelsteenweg,485,51.1776512765,3.07941593043
8490,Jabbeke,Stationsstraat,91A,51.2005565764,3.08853011086
8490,Jabbeke,Provenhofstraat,25,51.1919100965,3.1446322512
8490,Jabbeke,Bosweg,23,51.1711846797,3.12687450099
8490,Jabbeke,Gistelsteenweg,639,51.1715389205,3.05586686383
8490,Jabbeke,Koornblomme,52,51.1768300572,3.08418812869
8490,Jabbeke,Gistelsteenweg,414,51.1770620089,3.07500044145
8490,Jabbeke,Dorpsstraat,27,51.1819930487,3.09160574869
8490,Jabbeke,Gistelsteenweg,379,51.1797299519,3.09414646388
8490,Jabbeke,Lijsterdreef,6,51.1816953864,3.13623717646
8490,Jabbeke,Kerkeweg,63,51.1766956867,3.12342180189
8490,Jabbeke,Provenhofstraat,78,51.1934229319,3.14623542662
8490,Jabbeke,Kapellestraat,17,51.1800722269,3.09720393934
8490,Jabbeke,Kerkeweg,10,51.1701043778,3.12304874128
8490,Jabbeke,Kerkebeekstraat,132,51.1833745894,3.14798412047
8490,Jabbeke,Kerkebeekstraat,17,51.1832063494,3.14554531209
8490,Jabbeke,Gistelsteenweg,467,51.1785399523,3.08144693752
8490,Jabbeke,Kapelrie,61,51.1865093544,3.13889993009
8490,Jabbeke,Bunderhoek,13,51.1915022308,3.13586865658
8490,Jabbeke,Aartrijksesteenweg,40,51.17750689,3.08771485746
8490,Jabbeke,Hagebos,2,51.1918323559,3.13212669796
8490,Jabbeke,Gistelsteenweg,163,51.183457543,3.14159247152
8490,Jabbeke,Wielewaalstraat,6,51.1872628595,3.08615596495
8490,Jabbeke,Warandedreef,1,51.191707463,3.15496338828
8490,Jabbeke,Gistelsteenweg,92,51.1878867091,3.14824507234
8490,Jabbeke,Dorpsstraat,51,51.1816165796,3.08934724932
8490,Jabbeke,Boterstraat,22,51.1741734594,3.11790167579
8490,Jabbeke,Reigerzele,20,51.192733508,3.135373031
8490,Jabbeke,Gistelsteenweg,144A,51.1821009779,3.13880636412
8490,Jabbeke,Hagebos,29,51.1911365172,3.13344770489
8490,Jabbeke,Jabbekestraat,24,51.1687929867,3.07139224996
8490,Jabbeke,Kerkebeekstraat,61,51.1838064641,3.14942194946
8490,Jabbeke,Kroondreef,96,51.1876820177,3.09850714865
8490,Jabbeke,Groenwalle,6,51.1945319099,3.15181305586
8490,Jabbeke,Zeeweg,31,51.1873012403,3.15282778964
8490,Jabbeke,Gistelsteenweg,365A,51.1797691186,3.09536971179
8490,Jabbeke,Bakeroothoek,14,51.1908890595,3.14053402715
8490,Jabbeke,Coudeveldt,45,51.194312161,3.14635406313
8490,Jabbeke,Gistelsteenweg,235,51.1789923125,3.11833895975
8490,Jabbeke,Kerkeweg,59,51.1762557095,3.12362503421
8490,Jabbeke,Gistelsteenweg,74,51.1888845476,3.1496545301
8490,Jabbeke,Isenbaertstraat,119,51.15858865,3.12690771918
8490,Jabbeke,Gistelsteenweg,101,51.1871098546,3.148666633
8490,Jabbeke,Snellegemstraat,4,51.1658023326,3.07690019815
8490,Jabbeke,Hogedijkenstraat,47,51.1787022551,3.08966366766
8490,Jabbeke,Hugo Verrieststraat,7,51.1826261009,3.09702381748
8490,Jabbeke,Nieuwenhovedreef,17,51.1849862144,3.1375433888
8490,Jabbeke,Lijsterdreef,16,51.1827039303,3.13500333403
8490,Jabbeke,Kerkeweg,61A,51.1762533799,3.12296893894
8490,Jabbeke,Grote Thems,22,51.1853188209,3.15714309607
8490,Jabbeke,Stationsstraat,110,51.1968049643,3.09165658371
8490,Jabbeke,Tafeldijcken,10,51.1826227776,3.13766121109
8490,Jabbeke,de Manlaan,50,51.2018213813,3.14984203843
8490,Jabbeke,Isenbaertstraat,13,51.1744252215,3.1140815535
8490,Jabbeke,Kapelrie,53,51.1870324542,3.14003110994
8490,Jabbeke,Paradijsweg,31,51.162806446,3.07133091532
8490,Jabbeke,Popstaelstraat,35,51.1916858298,3.14926234279
8490,Jabbeke,Westmoere,15,51.166751909,3.12267545213
8490,Jabbeke,Caverstraat,3,51.1831183353,3.09234894508
8490,Jabbeke,Legeweg,17,51.1966413628,3.10332932324
8490,Jabbeke,Vedastusstraat,2,51.17163412,3.05874200046
8490,Jabbeke,Gistelsteenweg,56,51.1902716906,3.15124516137
8490,Jabbeke,Provenhofstraat,62,51.19298259,3.14552890814
8490,Jabbeke,Boekhoutestraat,12,51.1732222231,3.12676354182
8490,Jabbeke,Gistelsteenweg,617,51.1718654167,3.05821368778
8490,Jabbeke,Spoorwegstraat,5,51.1994231063,3.08944033665
8490,Jabbeke,Kwetshagestraat,2,51.192587643,3.1219130972
8490,Jabbeke,Zomerweg,36,51.1629743681,3.09957684611
8490,Jabbeke,Gistelsteenweg,455,51.1792282194,3.08303271838
8490,Jabbeke,Halvemaanstraat,1,51.1824692445,3.08657429857
8490,Jabbeke,Gistelsteenweg,353,51.1795484912,3.09815803227
8490,Jabbeke,Spanjaardstraat,11,51.2150019054,3.07268460434
8490,Jabbeke,Ettelgemstraat,33,51.1793168794,3.07940369033
8490,Jabbeke,Vedastusstraat,26,51.1691004916,3.06190922466
8490,Jabbeke,Isenbaertstraat,31,51.1733989985,3.11412070951
8490,Jabbeke,Westernieuwweg,87,51.2010704857,3.12759888875
8490,Jabbeke,Koffiestraat,33,51.1801750577,3.09106762776
8490,Jabbeke,Zerkegemstraat,30,51.1782427432,3.08373478202
8490,Jabbeke,Koornblomme,106,51.1761221643,3.08511204152
8490,Jabbeke,Vedastusstraat,90,51.1661393705,3.06931758692
8490,Jabbeke,Lindenlaan,43,51.1778193162,3.13882189161
8490,Jabbeke,Bekegemstraat,65,51.1582734735,3.05834383629
8490,Jabbeke,Zandstraat,21,51.1918474771,3.14675623405
8490,Jabbeke,Cathilleweg,135,51.2180673448,3.06692312859
8490,Jabbeke,Stationsstraat,28,51.1851201327,3.09431786043
8490,Jabbeke,Lijsterdreef,1,51.1805818675,3.13593960628
8490,Jabbeke,Mosselstraat,8,51.1640744676,3.07146083414
8490,Jabbeke,Zerkegemstraat,12,51.1785206923,3.08585147104
8490,Jabbeke,Snellegemstraat,19,51.1655941723,3.07289837412
8490,Jabbeke,Bitterstraat,5,51.1827312118,3.08727914257
8490,Jabbeke,Eernegemweg,104,51.1672272652,3.11307739128
8490,Jabbeke,Oude Dorpsweg,93A,51.1873067089,3.14304237464
8490,Jabbeke,Industriezone,1,51.1920256303,3.09499029044
8490,Jabbeke,Zandwege,9,51.1899518758,3.13445713838
8490,Jabbeke,Legeweg,35,51.1938181252,3.13440898366
8490,Jabbeke,Hagebos,5,51.1913644769,3.13255998124
8490,Jabbeke,Gistelsteenweg,635,51.1715675549,3.05634040262
8490,Jabbeke,Gistelsteenweg,491,51.1776808766,3.07883315728
8490,Jabbeke,Popstaelstraat,47,51.192678865,3.14821147841
8490,Jabbeke,Bekegemstraat,4,51.1660568209,3.06884159367
8490,Jabbeke,Kerkeweg,7,51.1702550002,3.12214069252
8490,Jabbeke,Eernegemweg,122,51.1662915963,3.11051650485
8490,Jabbeke,Gistelsteenweg,217,51.1785961969,3.13528378399
8490,Jabbeke,Nachtegaalstraat,15,51.216145693,3.08712382977
8490,Jabbeke,Rozenlaan,2,51.1658454378,3.07154633519
8490,Jabbeke,Westernieuwweg,8,51.1896384104,3.14173741993
8490,Jabbeke,J. Noterdaemestraat,28,51.1665395434,3.1171190921
8490,Jabbeke,Cathilleweg,11,51.2098342205,3.07530427684
8490,Jabbeke,Gistelsteenweg,473,51.1784445183,3.08107913627
8490,Jabbeke,Provenhofstraat,44,51.1924005919,3.14618895218
8490,Jabbeke,Coudeveldt,10,51.1919393381,3.14395765576
8490,Jabbeke,Noordstraat,9,51.1732187695,3.0580844663
8490,Jabbeke,Hogeweg,3,51.2046900741,3.14724607564
8490,Jabbeke,Zeeweg,13,51.1887634377,3.15161566555
8490,Jabbeke,Stationsstraat,56,51.1862481724,3.09363391078
8490,Jabbeke,Lijsterdreef,4B,51.1814107048,3.13710187838
8490,Jabbeke,Westernieuwweg,69,51.1980133158,3.1308367296
8490,Jabbeke,J. Noterdaemestraat,4,51.1662364386,3.11822591538
8490,Jabbeke,Kartuizerinnenweg,12,51.2161347155,3.07246390285
8490,Jabbeke,Bekegemstraat,19,51.1648933039,3.06854411513
8490,Jabbeke,Paradijsweg,13,51.1639178719,3.06971081973
8490,Jabbeke,Cathilleweg,145,51.2185153081,3.06661302415
8490,Jabbeke,Stationsstraat,57C,51.1871353115,3.0923116405
8490,Jabbeke,Bunderhoek,19,51.1907942848,3.13579922905
8490,Jabbeke,Gistelsteenweg,288,51.1799433353,3.09809207854
8490,Jabbeke,Gistelsteenweg,663,51.1713387143,3.05296537993
8490,Jabbeke,Beisbroekdreef,7,51.1809908537,3.14251133421
8490,Jabbeke,Merelstraat,30,51.1862947066,3.08913035285
8490,Jabbeke,Oude Dorpsweg,99,51.1869330252,3.14287952663
8490,Jabbeke,Gistelsteenweg,28,51.1911040693,3.15395633793
8490,Jabbeke,Koornblomme,17,51.1774936368,3.08586324225
8490,Jabbeke,Gemeneweidestraat,5,51.1753865077,3.06708750362
8490,Jabbeke,de Manlaan,22,51.1939545105,3.15483943173
8490,Jabbeke,Gistelsteenweg,300,51.1804498581,3.09346300959
8490,Jabbeke,Mosselstraat,34,51.1525248128,3.08030121006
8490,Jabbeke,Kastanjebosstraat,4,51.1768160764,3.07798763395
8490,Jabbeke,Willemijnenweg,20,51.1682651897,3.07179370862
8490,Jabbeke,Molenstraat,6,51.1938628234,3.12164740432
8490,Jabbeke,Aartrijksesteenweg,30,51.1784556968,3.08779924055
8490,Jabbeke,Bunderhoek,4,51.1914138745,3.13721534416
8490,Jabbeke,Westernieuwweg,71A,51.1981320952,3.13033264622
8490,Jabbeke,Groenwalle,41,51.1940962305,3.14894799567
8490,Jabbeke,Korte Zerkegemstraat,3,51.1781742359,3.08126465407
8490,Jabbeke,Oude Stokerijstraat,7,51.1740043693,3.08580307843
8490,Jabbeke,Merelstraat,12,51.1852973571,3.09018389336
8490,Jabbeke,Kievitstraat,3,51.1847925848,3.08981064239
8490,Jabbeke,Oude Dorpsweg,117,51.1859749381,3.1429265699
8490,Jabbeke,Aartrijksesteenweg,12,51.1799231729,3.08797066243
8490,Jabbeke,Mosselstraat,16,51.1637890418,3.07247691043
8490,Jabbeke,Gistelsteenweg,409,51.1806078761,3.08799879385
8490,Jabbeke,Bosweg,3,51.1697232618,3.12353136573
8490,Jabbeke,Grote Thems,57,51.1904927445,3.15682669501
8490,Jabbeke,Provenhofstraat,9,51.1920864807,3.14560561006
8490,Jabbeke,Ettelgemstraat,86,51.1789620686,3.05629288573
8490,Jabbeke,Isenbaertstraat,66,51.1655310308,3.11518281361
8490,Jabbeke,Kapellestraat,8,51.1820605781,3.09303896963
8490,Jabbeke,Marienhovedreef,13,51.18158737,3.14645607144
8490,Jabbeke,De Baetsdreef,6,51.1610402225,3.11766662131
8490,Jabbeke,Eernegemweg,51,51.167527011,3.11841184923
8490,Jabbeke,Zuidstraat,20,51.179013817,3.086351241
8490,Jabbeke,Hogedijkenstraat,17,51.1790723483,3.09197311988
8490,Jabbeke,Ganzeveld,16,51.1786802301,3.08431729555
8490,Jabbeke,Hageweg,4,51.1672240245,3.12532644228
8490,Jabbeke,Varsenareweg,10,51.1830765926,3.09692457952
8490,Jabbeke,Ettelgemstraat,68,51.1799694505,3.07503501657
8490,Jabbeke,Lettenburgstraat,32A,51.1895344887,3.09457558871
8490,Jabbeke,Mosselstraat,1,51.1651964438,3.07079239086
8490,Jabbeke,Steenovenstraat,87,51.1848824896,3.14727568628
8490,Jabbeke,Provenhofstraat,80,51.1933502014,3.14631330038
8490,Jabbeke,Gistelsteenweg,189,51.1810093198,3.1389242287
8490,Jabbeke,Kastanjebosstraat,19,51.1769799364,3.08028371874
8490,Jabbeke,Stationsstraat,92,51.195846143,3.09191746521
8490,Jabbeke,Flamincka Park,9,51.1879335615,3.0804573277
8490,Jabbeke,Westmoere,33,51.1662107562,3.12082193013
8490,Jabbeke,Gistelsteenweg,527,51.1745052976,3.0735002882
8490,Jabbeke,Koffiestraat,15,51.1811821309,3.09201039856
8490,Jabbeke,Gistelsteenweg,136,51.1836048558,3.14081061612
8490,Jabbeke,Zakjestraat,5,51.2109431827,3.07596038651
8490,Jabbeke,Steenovenstraat,34,51.1836799081,3.14637754468
8490,Jabbeke,Boekhoutestraat,4,51.1732611686,3.12490213129
8490,Jabbeke,Tentestuk,9,51.1595333213,3.05921032805
8490,Jabbeke,Krakeelstraat,2,51.1692833023,3.06870988714
8490,Jabbeke,Constant Permekelaan,25,51.1821979309,3.0975016315
8490,Jabbeke,Kapelrie,1,51.1880359232,3.14006907172
8490,Jabbeke,Hogedijkenstraat,35,51.1784955423,3.09120626565
8490,Jabbeke,Steenovenstraat,16,51.1836542763,3.14383213976
8490,Jabbeke,Van Larebekelaan,11,51.1864855673,3.09619242537
8490,Jabbeke,Koornblomme,88,51.176270519,3.08415432373
8490,Jabbeke,Oudenburgweg,21,51.1880605829,3.13913801469
8490,Jabbeke,Cathilleweg,163,51.2228859868,3.06641184781
8490,Jabbeke,Leeuwerikstraat,18,51.183737319,3.08758252134
8490,Jabbeke,Gistelsteenweg,118,51.1858180035,3.14384832202
8490,Jabbeke,Oudenburgweg,75,51.1849140088,3.12579108072
8490,Jabbeke,Reigerzele,3,51.192666113,3.13467793762
8490,Jabbeke,Cathilleweg,110,51.2152018854,3.07177041437
8490,Jabbeke,Constant Permekelaan,22A,51.1815070388,3.09582063934
8490,Jabbeke,Kapelrie,25,51.1868151098,3.14075178331
8490,Jabbeke,Nieuwenhovedreef,10,51.1853151567,3.13615534713
8490,Jabbeke,Eikendreef,14,51.1849637381,3.13405274843
8490,Jabbeke,Weststraat,7,51.1872455974,3.09028846256
8490,Jabbeke,Steenovenstraat,69,51.1856241502,3.14624167105
8490,Jabbeke,Kerkebeekstraat,43,51.1841010657,3.14785512782
8490,Jabbeke,Legeweg,45,51.199606663,3.14951712189
8490,Jabbeke,Gistelsteenweg,645,51.1714941017,3.0552557822
8490,Jabbeke,Dorpsstraat,68,51.1821772927,3.089847097
8490,Jabbeke,Vlamingveld,3,51.1802274848,3.11305387755
8490,Jabbeke,Weststraat,24,51.1862295197,3.08618478405
8490,Jabbeke,Cathilleweg,82,51.2135115475,3.0730344547
8490,Jabbeke,Zerkegemstraat,49I,51.1758517711,3.08341858484
8490,Jabbeke,Isenbaertstraat,6,51.1785469111,3.11104854672
8490,Jabbeke,Oudenburgweg,57,51.1863119663,3.13222428958
8490,Jabbeke,Aartrijksesteenweg,83,51.1760769332,3.09055177779
8490,Jabbeke,Lettenburgstraat,26,51.1880452945,3.09363903997
8490,Jabbeke,Stationsstraat,117,51.2030007886,3.08435010103
8490,Jabbeke,Lanestraat,17,51.1661474515,3.06307855672
8490,Jabbeke,Tulpenlaan,2,51.1655049608,3.07232190415
8490,Jabbeke,Paardenmarkt,7,51.1814126917,3.08522662083
8490,Jabbeke,Eernegemweg,139,51.1643290442,3.1073068578
8490,Jabbeke,Gistelsteenweg,457A,51.1790597878,3.08249099739
8490,Jabbeke,Vaartdijk-Noord,14,51.2037335161,3.08045502911
8490,Jabbeke,Noordstraat,26,51.1746326131,3.05813259175
8490,Jabbeke,Zandstraat,5,51.1911165086,3.14525978277
8490,Jabbeke,Oude Dorpsweg,64C,51.189701079,3.14314230519
8490,Jabbeke,Steedje,4,51.1590368736,3.07471680417
8490,Jabbeke,Gistelsteenweg,200,51.1793226185,3.11957357819
8490,Jabbeke,Aartrijksesteenweg,65,51.1772613163,3.08981755606
8490,Jabbeke,Isenbaertstraat,102,51.1607982984,3.12282097677
8490,Jabbeke,Kalsijdeweg,43,51.2176833206,3.04968212696
8490,Jabbeke,Cathilleweg,46,51.2114488729,3.074917732
8490,Jabbeke,Oude Gistelsteenweg,10,51.1790077796,3.13079854471
8490,Jabbeke,Hogedijkenstraat,53,51.1786104782,3.08919949344
8490,Jabbeke,Bremstraat,3A,51.1759501536,3.07806849114
8490,Jabbeke,Wallenhove,12,51.163977043,3.07031755452
8490,Jabbeke,Eernegemweg,15,51.1682226101,3.12135143483
8490,Jabbeke,Brielweg,5,51.1833150955,3.08483474535
8490,Jabbeke,Zeeweg,38,51.1858872358,3.15310621911
8490,Jabbeke,Meersbeekstraat,4A,51.1632985437,3.12039259995
8490,Jabbeke,Kerkebeekstraat,78,51.182073415,3.14446405494
8490,Jabbeke,Westernieuwweg,70,51.2010803323,3.12901738355
8490,Jabbeke,Eernegemweg,150,51.1624167966,3.1007137734
8490,Jabbeke,J. Noterdaemestraat,21,51.1654334517,3.11887882779
8490,Jabbeke,Grote Thems,29,51.1885315625,3.15230264193
8490,Jabbeke,Grote Thems,93,51.1866494156,3.16053610637
8490,Jabbeke,Constant Permekelaan,43,51.1815699912,3.09775244517
8490,Jabbeke,Caverstraat,20,51.1841322929,3.09110852044
8490,Jabbeke,Bosweg,37,51.172789024,3.13183086842
8490,Jabbeke,Zandstraat,56,51.1931527025,3.15086056325
8490,Jabbeke,Bekegemstraat,30,51.1640075302,3.06681411887
8490,Jabbeke,Snellegemstraat,30,51.1661106391,3.07229965803
8490,Jabbeke,Grote Thems,75,51.1887137172,3.15936672369
8490,Jabbeke,Gistelsteenweg,555,51.1741647228,3.06655223275
8490,Jabbeke,Stationsstraat,61G,51.1973310684,3.09073505036
8490,Jabbeke,Kroondreef,61,51.1831614125,3.09804883626
8490,Jabbeke,Westernieuwweg,52,51.1923060176,3.13796664543
8490,Jabbeke,Vedastusstraat,9,51.1716165977,3.05967559253
8490,Jabbeke,Bekegemstraat,12,51.1657608453,3.06850423515
8490,Jabbeke,Joorisstraat,17,51.1889802972,3.14864464215
8490,Jabbeke,Cathilleweg,188,51.2292243081,3.06431538391
8490,Jabbeke,Westernieuwweg,16,51.1900784592,3.14146048118
8490,Jabbeke,Paradijsweg,6,51.164057461,3.06873595731
8490,Jabbeke,Stationsstraat,21,51.1844587622,3.09379378495
8490,Jabbeke,Zandstraat,28,51.1918501314,3.14846662608
8490,Jabbeke,Zandwege,26,51.1911667299,3.13435205463
8490,Jabbeke,Snellegemstraat,12,51.1658674875,3.07423700222
8490,Jabbeke,Oostmoerstraat,44,51.1679983795,3.12976527291
8490,Jabbeke,Hagebos,22,51.1916586583,3.13350098378
8490,Jabbeke,Gistelsteenweg,437,51.1799760297,3.08501223903
8490,Jabbeke,Dorpsstraat,86,51.1816514391,3.08797574543
8490,Jabbeke,Kerkeweg,24,51.1715551619,3.12345020114
8490,Jabbeke,Zeeweg,6,51.1893550856,3.15020545091
8490,Jabbeke,Zerkegemstraat,19,51.1780232421,3.08579806115
8490,Jabbeke,Cathilleweg,64,51.2127202922,3.07398075897
8490,Jabbeke,Coudeveldt,27,51.1932451643,3.1452147186
8490,Jabbeke,Dorpsstraat,33,51.1818305026,3.09124717444
8490,Jabbeke,Lanestraat,1,51.168547418,3.06500866077
8490,Jabbeke,Popstaelstraat,53,51.1931062908,3.147842492
8490,Jabbeke,Windmolenstraat,26,51.1828420224,3.08059381919
8490,Jabbeke,Oude Dorpsweg,110,51.1857851693,3.14186987563
8490,Jabbeke,Gistelsteenweg,271,51.1787943515,3.11053714931
8490,Jabbeke,Merelstraat,19,51.186167492,3.0901098528
8490,Jabbeke,Zandstraat,16B,51.1910104986,3.14728329071
8490,Jabbeke,Zwanestraat,10,51.1833888013,3.09095593287
8490,Jabbeke,Oude Bruggeweg,1,51.1707370078,3.11186962841
8490,Jabbeke,Noordstraat,44,51.1778927246,3.05712773565
8490,Jabbeke,Dorpsstraat,15,51.1822412878,3.09264883774
8490,Jabbeke,Gistelsteenweg,402,51.177527138,3.07670066477
8490,Jabbeke,Kapellestraat,16,51.1809460511,3.09364197668
8490,Jabbeke,Aartrijksesteenweg,19,51.1801799468,3.08914303724
8490,Jabbeke,Woudweg naar Zedelgem,17,51.1622040335,3.1146803364
8490,Jabbeke,Coudeveldt,2,51.1925440144,3.14516714379
8490,Jabbeke,Kievitstraat,20,51.1855723813,3.09132530363
8490,Jabbeke,Gistelsteenweg,164,51.1799061109,3.13587106021
8490,Jabbeke,Vedastusstraat,54,51.1674379379,3.06427291553
8490,Jabbeke,Bunderhoek,12,51.1917229305,3.13583435803
8490,Jabbeke,Uytdreve,8,51.1897147716,3.1361242978
8490,Jabbeke,Spanjaardstraat,46,51.2170995401,3.07447902765
8490,Jabbeke,Grote Thems,40,51.1863504289,3.15549918966
8490,Jabbeke,Gistelsteenweg,420,51.1769828876,3.07412935459
8490,Jabbeke,Noordstraat,62,51.1848435849,3.05498532627
8490,Jabbeke,Klaverveld,17,51.1785853279,3.08401411998
8490,Jabbeke,Oude Gistelsteenweg,3,51.17862818,3.13376675323
8490,Jabbeke,Cousseweg,2,51.1827639683,3.08377140079
8490,Jabbeke,Eernegemweg,68,51.1678258817,3.11732098199
8490,Jabbeke,Popstaelstraat,71,51.1947612626,3.14643873239
8490,Jabbeke,Gistelsteenweg,307,51.1781799738,3.10581608806
8490,Jabbeke,Westmoere,51,51.1656830931,3.11983886032
8490,Jabbeke,Gerststraat,19,51.1753155569,3.08345465388
8490,Jabbeke,Gistelsteenweg,146,49.2933351651,2.30668956214
8490,Jabbeke,Vedastusstraat,72,51.1665482678,3.06641399001
8490,Jabbeke,Gistelsteenweg,396,51.1781773771,3.07719412322
8490,Jabbeke,Oude Stokerijstraat,24,51.1745373519,3.08339312688
8490,Jabbeke,Oude Dorpsweg,82,51.1887351493,3.14210377471
8490,Jabbeke,Provenhofstraat,26,51.1928225915,3.14755677003
8490,Jabbeke,Hellegatstraat,6,51.193112736,3.04250305593
8490,Jabbeke,Bosweg,20,51.1703901507,3.12738696987
8490,Jabbeke,Marienhovedreef,6,51.1818775856,3.1425183685
8490,Jabbeke,Schoolstraat,18,51.1900346405,3.13856800513
8490,Jabbeke,Kapelrie,71,51.1857249737,3.13854324161
8490,Jabbeke,Ettelgemstraat,51,51.1786997671,3.07526127823
8490,Jabbeke,Schoolstraat,2,51.1890496036,3.13971436736
8490,Jabbeke,Ten Bogaerde,18,51.1847629011,3.14106895855
8490,Jabbeke,Steenovenstraat,70,51.1857422454,3.14644742337
8490,Jabbeke,Stationsstraat,164,51.2017550319,3.08795976834
8490,Jabbeke,Oudenburgweg,28,51.1883223525,3.13773764543
8490,Jabbeke,Gistelsteenweg,378,51.1785313665,3.07926576629
8490,Jabbeke,Cruceweghe,18,51.185281473,3.14007819455
8490,Jabbeke,Fonteinebeekdreef,20,51.1825363314,3.13320180412
8490,Jabbeke,Halvemaanstraat,17,51.1814228169,3.08561267483
8490,Jabbeke,Duikerstraat,1,51.2005471791,3.0904450771
8490,Jabbeke,Torhoutweg,37,51.1880948009,3.06939867534
8490,Jabbeke,Gistelsteenweg,112B,51.1861974265,3.14465215456
8490,Jabbeke,Kerkebeekstraat,104,51.182089953,3.14654847277
8490,Jabbeke,Sarkoheemstraat,11,51.1671963002,3.06970013382
8490,Jabbeke,Kapelrie,8,51.1875987695,3.13867038782
8490,Jabbeke,Krauwerstraat,1,51.1826240485,3.11263655189
8490,Jabbeke,Lindenlaan,25,51.1787737696,3.13762267284
8490,Jabbeke,D'Hooghe Noene,2,51.193142071,3.1515303936
8490,Jabbeke,Oude Dorpsweg,46,51.1906035633,3.14548638513
8490,Jabbeke,Cathilleweg,117,51.2160723914,3.06886566734
8490,Jabbeke,Jabbekestraat,8,51.1677538402,3.07000120922
8490,Jabbeke,Constant Permekelaan,61,51.1808641433,3.09824895419
8490,Jabbeke,Steenovenstraat,52,51.1840702784,3.14641581436
8490,Jabbeke,Varsenareweg,17,51.1839150804,3.09833786238
8490,Jabbeke,Ettelgemstraat,89A,51.177969694,3.0530449695
8490,Jabbeke,Klaproos,7,51.1767191136,3.0830630491
8490,Jabbeke,Kastanjebosstraat,12,51.1764461872,3.07937526572
8490,Jabbeke,Gistelsteenweg,182,51.1778204443,3.1259367156
8490,Jabbeke,Woudweg naar Zedelgem,1,51.1660604531,3.11335483845
8490,Jabbeke,Steenovenstraat,9,51.1838056735,3.14283590961
8490,Jabbeke,Gistelsteenweg,218A,51.1796217105,3.11194211762
8490,Jabbeke,Oudenburgweg,5,51.1883698137,3.14121242932
8490,Jabbeke,Van Larebekelaan,4,51.186774295,3.09795321392
8490,Jabbeke,Stationsstraat,146,51.1992099612,3.09105348062
8490,Jabbeke,Koning Albertstraat,15,51.1879348201,3.14465595098
8490,Jabbeke,Eernegemweg,86,51.1675492344,3.11519799336
8490,Jabbeke,Kerkebeekstraat,122,51.1829246226,3.14864283583
8490,Jabbeke,Varsenareweg,3,51.1832816837,3.09570845844
8490,Jabbeke,Groenwalle,23,51.1937086929,3.14867870974
8490,Jabbeke,Oude Dorpsweg,11,51.1897798343,3.14947164172
8490,Jabbeke,Flamincka Park,26,51.1894381633,3.08335320875
8490,Jabbeke,Gistelsteenweg,64,51.1891801395,3.14994322035
8490,Jabbeke,Gistelsteenweg,111,51.1855198834,3.1494023751
8490,Jabbeke,Spanjaardstraat,21,51.2154166504,3.07283654587
8490,Jabbeke,Isenbaertstraat,109,51.1615168239,3.12408854872
8490,Jabbeke,Westmoere,25,51.1665251719,3.12120888615
8490,Jabbeke,Provenhofstraat,54,51.1927989632,3.1457145555
8490,Jabbeke,Aartrijksesteenweg,119,51.1636389422,3.08482072033
8490,Jabbeke,Legeweg,27,51.1910567101,3.11993081391
8490,Jabbeke,Kapelrie,45,51.1879997259,3.14157792957
8490,Jabbeke,Grote Thems,118,51.1883550012,3.15841542267
8490,Jabbeke,Cathilleweg,48,51.2116237406,3.07481240839
8490,Jabbeke,Grote Thems,14,51.1855478047,3.15861021421
8490,Jabbeke,Eernegemweg,112,51.1667991133,3.11197302884
8490,Jabbeke,Windmolenstraat,9,51.1805385837,3.08117471197
8490,Jabbeke,Vaartdijk-Noord,7,51.20904705,3.12416073343
8490,Jabbeke,Westernieuwweg,95,51.2042338091,3.12959001654
8490,Jabbeke,Nieuwenhovedreef,27,51.1840605476,3.13903810212
8490,Jabbeke,Cruceweghe,3,51.1850422068,3.13843135019
8490,Jabbeke,Gistelsteenweg,82,51.188525095,3.14945849311
8490,Jabbeke,Constant Permekelaan,33,51.1818540247,3.09741387535
8490,Jabbeke,Gistelsteenweg,483,51.1776768826,3.07963705016
8490,Jabbeke,Jabbekestraat,34,51.1691742033,3.07517620036
8490,Jabbeke,Lanestraat,8,51.1685170046,3.06416727377
8490,Jabbeke,Oudenburgweg,50,51.1882830729,3.1082232965
8490,Jabbeke,Gistelsteenweg,343,51.1793559552,3.09886309942
8490,Jabbeke,Ganzeveld,9,51.1789180086,3.08603034901
8490,Jabbeke,Lanestraat,10,51.168071899,3.062595632
8490,Jabbeke,Kerkebeekstraat,51,51.1844928043,3.14868767802
8490,Jabbeke,Kalsijdeweg,33,51.2147239537,3.05784798862
8490,Jabbeke,Kroondreef,9,51.180436212,3.10160548839
8490,Jabbeke,Reigerzele,12,51.1921085428,3.13545063245
8490,Jabbeke,Provenhofstraat,72,51.1932138762,3.14605720346
8490,Jabbeke,Westernieuwweg,77,51.1986869382,3.12964599884
8490,Jabbeke,Ten Bogaerde,3,51.1842475855,3.13927634366
8490,Jabbeke,Zomerweg,2,51.1784311874,3.09703380766
8490,Jabbeke,de Manlaan,40,51.1960028451,3.15327671318
8490,Jabbeke,Eikendreef,22,51.1859972301,3.13627809571
8490,Jabbeke,Kapelrie,63,51.1863061945,3.1384342305
8490,Jabbeke,Gistelsteenweg,465,51.1785880612,3.08163797912
8490,Jabbeke,Zuidmoere,5,51.1677329391,3.12345702782
8490,Jabbeke,Gistelsteenweg,5,51.1915001324,3.15905647992
8490,Jabbeke,Roggestraat,2,51.1745006771,3.08605758983
8490,Jabbeke,Krakeelstraat,6B,51.1734636083,3.06781825341
8490,Jabbeke,Lange Dreef,15,51.1665699464,3.0881359557
8490,Jabbeke,Stationsstraat,100,51.1962723248,3.09179864067
8490,Jabbeke,Grote Thems,32,51.1857637669,3.15598161745
8490,Jabbeke,Koning Albertstraat,6,51.1877992188,3.1440101994
8490,Jabbeke,Gistelsteenweg,46,51.1906133904,3.15177787121
8490,Jabbeke,Zeeweg,23,51.1879088516,3.15221587134
8490,Jabbeke,Westernieuwweg,59,51.1940901993,3.13546422892
8490,Jabbeke,Gistelsteenweg,520,51.1731327867,3.05972733091
8490,Jabbeke,Paradijsweg,23,51.1632828014,3.07078051489
8490,Jabbeke,Bekegemstraat,40A,51.1598570997,3.06197496998
8490,Jabbeke,Vedastusstraat,62,51.1671825632,3.06574212262
8490,Jabbeke,Cathilleweg,171,51.2249690318,3.06638174832
8490,Jabbeke,Gistelsteenweg,625,51.171665996,3.05739314959
8490,Jabbeke,Bitterstraat,1B,51.1821909517,3.08758876723
8490,Jabbeke,Caverstraat,19,51.1840199921,3.09036692299
8490,Jabbeke,Stationsstraat,64,51.1917541395,3.09332284321
8490,Jabbeke,Meersbeekstraat,6,51.1635113105,3.12041593772
8490,Jabbeke,Cathilleweg,21,51.210275239,3.07482576013
8490,Jabbeke,Kouter,3,51.1671671164,3.10694193816
8490,Jabbeke,Kerkeweg,60A,51.1761326692,3.12457536436
8490,Jabbeke,Vedastusstraat,16,51.1698874463,3.06073692243
8490,Jabbeke,Stationsstraat,5,51.1833497594,3.09428408265
8490,Jabbeke,Gistelsteenweg,502,51.173231975,3.06115092037
8490,Jabbeke,Sarkoheemstraat,2,51.1666381966,3.07001836362
8490,Jabbeke,Zerkegemstraat,20,51.1783737434,3.08497719982
8490,Jabbeke,Zandstraat,11,51.1914116387,3.14576349316
8490,Jabbeke,Vedastusstraat,34,51.1684576062,3.06276172819
8490,Jabbeke,Korte Zomerweg,2,51.1790479423,3.09654574062
8490,Jabbeke,Popstaelstraat,27,51.1914801088,3.14943309657
8490,Jabbeke,Kroondreef,68,51.1841308742,3.09839993474
8490,Jabbeke,Gistelsteenweg,207,51.1796534297,3.13684730534
8490,Jabbeke,Joorisstraat,10,51.1893674939,3.14721798769
8490,Jabbeke,Eernegemweg,147,51.1637667183,3.10585022625
8490,Jabbeke,Monnikenveld,12,51.1828287555,3.08526621815
8490,Jabbeke,Eernegemweg,43,51.1675296511,3.11919679043
8490,Jabbeke,Stationsstraat,46,51.185903675,3.09367493349
8490,Jabbeke,Bekegemstraat,55,51.158470573,3.0593526342
8490,Jabbeke,Vedastusstraat,80,51.1666607866,3.06778983314
8490,Jabbeke,Dwarsstraat,1,51.1800908677,3.0980929265
8490,Jabbeke,Grote Thems,67,51.1899909074,3.15846442172
8490,Jabbeke,Gistelsteenweg,419,51.1805636652,3.08711321828
8490,Jabbeke,Veldstraat,12A,51.1786524839,3.09829282926
