PKANCODE,COMMUNE_NL,STREET_NL,HUISNR,LAT,LON
8700,Tielt,Pontweg,62,51.0041362805,3.33553949034
8700,Tielt,Wakkensesteenweg,75,50.9702662566,3.35726845856
8700,Tielt,Klijtenstraat,63,50.9927043524,3.33782515101
8700,Tielt,Steenstraat,26,50.9963748773,3.32774184327
8700,Tielt,Pastorijstraat,81,50.9943647982,3.42598623609
8700,Tielt,Oude Kapellestraat,8,51.0059533323,3.32765978541
8700,Tielt,Oude Pittemstraat,15,50.9959879776,3.31392811756
8700,Tielt,Keizerstraat,23,51.0206271588,3.40002527026
8700,Tielt,Kistestraat,47,50.9992876587,3.31919806953
8700,Tielt,Sint-Janstraat,66,51.0020775372,3.3313629541
8700,Tielt,Kapellestraat,27,51.0031303098,3.3256797242
8700,Tielt,Astenhove,17,51.0114565211,3.40230777409
8700,Tielt,Begonialaan,61,51.0028420553,3.3161591621
8700,Tielt,Felix D'Hoopstraat,108,50.9993165943,3.34042898362
8700,Tielt,Bosakkerstraat,2C,50.9866468908,3.33713720236
8700,Tielt,Klijtenstraat,45,50.9923637641,3.33523594602
8700,Tielt,Mgr. Van Hovestraat,3,50.9972391425,3.31630162368
8700,Tielt,Schuiferskapelsesteenweg,66A,51.0195413405,3.33191776862
8700,Tielt,Kronkelbeekstraat,42,51.0334214697,3.33956744973
8700,Tielt,Oosthoekstraat,19,51.0144110327,3.40630507425
8700,Tielt,Dwangstraat,3,50.9926371682,3.32894918182
8700,Tielt,Driesstraat,2,50.9980440859,3.33405904341
8700,Tielt,Ontvangerstraat,12,50.9973939437,3.32246371578
8700,Tielt,Leukemeersenstraat,15,50.9937600076,3.34571489632
8700,Tielt,Jozef Baertstraat,36,50.9988720023,3.34255752145
8700,Tielt,Krommewalstraat,2,51.000347838,3.32414023601
8700,Tielt,Lindenlaan,17,50.9934912297,3.33164110465
8700,Tielt,Egemsesteenweg,47,51.0012011781,3.30645662874
8700,Tielt,Kortrijkstraat,100,50.9962951132,3.32598180295
8700,Tielt,Oude Pittemstraat,33,50.9959231976,3.3123982732
8700,Tielt,Haantjesstraat,39,51.0145200468,3.41603212019
8700,Tielt,Stokerijstraat,34,51.004696438,3.3247650223
8700,Tielt,Driesstraat,26,50.9974548964,3.3369699064
8700,Tielt,Mgr. Christiaensstraat,19,50.9992208432,3.31571218857
8700,Tielt,Jules Van Ooststraat,4,50.9975533403,3.42143100805
8700,Tielt,Oosthoekstraat,37,51.0205828954,3.43713644251
8700,Tielt,Pontweg,44,51.0046381134,3.33412807841
8700,Tielt,Kauwstraat,6,50.9829810484,3.33147190337
8700,Tielt,Kortrijkstraat,18,50.9994268518,3.32680272584
8700,Tielt,Meerlaantjestraat,23,50.9930431219,3.34663310273
8700,Tielt,Gruuthusestraat,7,50.9900301792,3.33259153296
8700,Tielt,Oude Gentweg,1,51.0002618135,3.41652901196
8700,Tielt,Krommewalstraat,26,51.0011054221,3.32222657962
8700,Tielt,Jules Van Ooststraat,28,50.9987202845,3.42011013783
8700,Tielt,Arendstraat,3,50.9820921499,3.33078246711
8700,Tielt,Kapelleweg,10,51.0370592192,3.32829692026
8700,Tielt,Stedemolenstraat,6,50.9970948515,3.32125104752
8700,Tielt,Poekebeekbron,7,51.0008582465,3.31431192341
8700,Tielt,Pittemsesteenweg,39,50.9972349698,3.30757409061
8700,Tielt,Neringenstraat,45,51.0056372206,3.41374605835
8700,Tielt,Klijtenstraat,81,50.9924115013,3.34002928622
8700,Tielt,Steenstraat,2,50.9971597951,3.32681720852
8700,Tielt,Karmstraat,92,50.9846184932,3.38914288577
8700,Tielt,Hoogstraat,75,50.9987365564,3.33106290341
8700,Tielt,Kanegem-Dorp,7,51.0126559179,3.40271014126
8700,Tielt,Papenholwegel,34,50.9940160616,3.31738026681
8700,Tielt,Egemsesteenweg,88,51.0017943353,3.30345114916
8700,Tielt,Kapellestraat,3,51.0025624006,3.32556669342
8700,Tielt,Uitweg,16,51.0290035638,3.32736056877
8700,Tielt,Steenovenstraat,77,50.9956688325,3.31866479654
8700,Tielt,Burggraaf Vande Vyverelaan,77,51.0034035555,3.31807006866
8700,Tielt,Hazelaarkouter,15,50.9946771145,3.31431631357
8700,Tielt,Ieperstraat,41,50.9991258859,3.32313384809
8700,Tielt,Kortrijkstraat,36,50.9988313319,3.32719635187
8700,Tielt,Seyntexlaan,20,50.9863350678,3.33441680894
8700,Tielt,Bosakkerstraat,8,50.9778922267,3.3421329146
8700,Tielt,Kleine Ruiseledestraat,1,51.0279980355,3.36826558226
8700,Tielt,Alfons De Vlamyncklaan,12,50.9951541956,3.33891207907
8700,Tielt,Uitpachtstraat,9,50.9975593822,3.39904862126
8700,Tielt,Tulpenlaan,2,51.0044160612,3.31688782614
8700,Tielt,Ruiseleedsesteenweg,19,51.0046367621,3.34224281444
8700,Tielt,'t Hoge,12,50.9930708635,3.42424432421
8700,Tielt,Meulebeeksesteenweg,65,50.978029817,3.31074194729
8700,Tielt,Vinktstraat,124,51.0025426972,3.43707134187
8700,Tielt,Kastanjelaan,5,50.9880194999,3.3337082148
8700,Tielt,Deken Darraslaan,13,50.9980471414,3.32002678594
8700,Tielt,Bosakkerstraat,71A,50.967819599,3.33103261562
8700,Tielt,Marialoopsesteenweg,17,50.971305727,3.32727342914
8700,Tielt,Bruggestraat,52,51.0019006331,3.32440882743
8700,Tielt,Hazelaarkouter,33,50.9949746523,3.31316911105
8700,Tielt,Steenovenstraat,24,50.9953462004,3.31868712308
8700,Tielt,Galgenveldstraat,26,51.0045354111,3.34387991036
8700,Tielt,Burggraaf Vande Vyverelaan,24,51.0034255852,3.32035000861
8700,Tielt,Kortrijkstraat,82,50.9968956818,3.32621946437
8700,Tielt,Wingensesteenweg,150A,51.0363667005,3.30367126359
8700,Tielt,Kasteelstraat,154,50.9913932184,3.31874958095
8700,Tielt,Bedevaartstraat,49,50.9880232826,3.33263602022
8700,Tielt,Schuiferskapelsesteenweg,37,51.015550655,3.33612713903
8700,Tielt,Hollandlaan,13,51.0010810664,3.33647492601
8700,Tielt,Wakkensesteenweg,5,50.9878959921,3.3368124616
8700,Tielt,Stedemolenstraat,41,50.9961454132,3.31858645367
8700,Tielt,Holdestraat,6,50.9909634901,3.31473513949
8700,Tielt,Ruiseleedsesteenweg,37,51.0100689344,3.3594260049
8700,Tielt,Deinsesteenweg,88,50.9959959185,3.36964779373
8700,Tielt,Vredestraat,5,50.9945038324,3.32616181774
8700,Tielt,Deken Darraslaan,31,50.9981510866,3.31684460709
8700,Tielt,Volderstraat,11,50.9972948832,3.31981766533
8700,Tielt,Marialoopsesteenweg,2L,50.9807209426,3.33333879696
8700,Tielt,Westhoekstraat,6,50.9996097156,3.41260485388
8700,Tielt,Kasteelstraat,101,50.9923500246,3.32156530882
8700,Tielt,Robert Schumanstraat,7,50.9996093222,3.33771676416
8700,Tielt,Meikestraat,18,50.9783547765,3.38588874629
8700,Tielt,Hulststraat,29,50.9970561156,3.32958115733
8700,Tielt,Stationstraat,23,50.9934620679,3.32628327442
8700,Tielt,Steenovenstraat,59,50.9957053984,3.3205284822
8700,Tielt,Burggraaf Vande Vyverelaan,59,51.0035745919,3.31896231103
8700,Tielt,Keizerstraat,19A,51.0159297183,3.40104289126
8700,Tielt,Begonialaan,43,51.0024855663,3.3152705412
8700,Tielt,Wittestraat,34,50.991671379,3.32388340177
8700,Tielt,Vinktstraat,106,51.0009734441,3.43136303452
8700,Tielt,Meulebeeksesteenweg,30,50.982236837,3.31367940996
8700,Tielt,Putterijstraat,9,50.9749468801,3.35859475323
8700,Tielt,Baudeloostraat,19,50.9956248307,3.42345438564
8700,Tielt,Pastorijstraat,17,50.9972282095,3.42436700389
8700,Tielt,Oostweg,1,50.9947498897,3.34289404665
8700,Tielt,Tulpenlaan,26,51.0030361036,3.31788524218
8700,Tielt,Wontergemstraat,24,50.9895431859,3.42830177626
8700,Tielt,Tenhovestraat,13,50.9816058982,3.33678580324
8700,Tielt,Karmstraat,4,50.9920128468,3.41208570492
8700,Tielt,Biermanstraat,32,51.0338247586,3.33736764631
8700,Tielt,Karnemelkstraat,11,50.9980600025,3.3313623825
8700,Tielt,Wingensesteenweg,133,51.0322408444,3.3044348629
8700,Tielt,Haantjesstraat,50,51.0124681362,3.42151732977
8700,Tielt,Rameplein,16,50.9980336686,3.32809308785
8700,Tielt,Mankemerriestraat,13,50.9817679636,3.35738242663
8700,Tielt,Oude Stationstraat,68,50.9942480677,3.32812297741
8700,Tielt,Henri D'Hontstraat,10,51.032164855,3.33506804447
8700,Tielt,'t Hoge,30,50.9927891258,3.42293463837
8700,Tielt,Eikenlaan,1,50.996266792,3.41554811809
8700,Tielt,Hooitstraat,5,51.024083408,3.31563195482
8700,Tielt,Vinktstraat,88,51.0006699514,3.42990777395
8700,Tielt,Luxemburglaan,13,51.0017023845,3.33738022045
8700,Tielt,Wakkensesteenweg,22,50.9761199514,3.35194111913
8700,Tielt,Baudeloostraat,37,50.9959519829,3.4247108152
8700,Tielt,Ankelaarstraat,9,50.9918620471,3.39098380428
8700,Tielt,Alfons De Vlamyncklaan,30,50.9964278064,3.33607947784
8700,Tielt,Sint-Janstraat,38,51.0014324605,3.32968560882
8700,Tielt,Pastorijstraat,35,50.996485192,3.424814474
8700,Tielt,Waaiberglaan,14,51.0004440423,3.41898963115
8700,Tielt,Klijtenstraat,17,50.9920621632,3.3332221167
8700,Tielt,Seyntexlaan,3,50.9846121299,3.33579858891
8700,Tielt,Kattestraat,1,51.0001630601,3.30883622801
8700,Tielt,Tramstraat,18,51.0015047728,3.32814198312
8700,Tielt,Sint-Janstraat,13,51.0006538261,3.32882878944
8700,Tielt,Hulstplein,22,50.9979432522,3.3317943571
8700,Tielt,Montevalstraat,5,50.9960536011,3.34347040439
8700,Tielt,Klijtenstraat,35,50.9920134305,3.3344280138
8700,Tielt,Magdalena Huysstraat,13,50.9890851011,3.32104795439
8700,Tielt,Meulebeeksesteenweg,12,50.9849108055,3.31384627793
8700,Tielt,Holdestraat,58,50.9968166924,3.31416063407
8700,Tielt,Blekerijstraat,21,50.9893538534,3.32886943526
8700,Tielt,Hoogstraat,22,50.9999165526,3.32914376438
8700,Tielt,Lindenlaan,63,50.994696555,3.33223740199
8700,Tielt,Generaal Maczekplein,7,51.0023409885,3.3275688923
8700,Tielt,Stationstraat,51,50.9927829056,3.32695720567
8700,Tielt,Felix D'Hoopstraat,172,50.997990341,3.34438299583
8700,Tielt,Begonialaan,8,51.003145314,3.31644372795
8700,Tielt,Vrouwenstraat,7,50.9963215891,3.42250880368
8700,Tielt,Rozenlaan,40,51.0038144687,3.31568280347
8700,Tielt,Wingensesteenweg,115,51.0305998544,3.30481658172
8700,Tielt,Ieperstraat,6,50.9997810514,3.32562430934
8700,Tielt,Neringenstraat,17,51.0119402235,3.40462834844
8700,Tielt,Stokerijstraat,62,51.0053284021,3.32558322107
8700,Tielt,Sint-Janstraat,120,51.0032478338,3.33477485342
8700,Tielt,Kasteelstraat,37,50.9936224193,3.32424121241
8700,Tielt,Kanegemstraat,143,51.0095600328,3.39215148541
8700,Tielt,Berkenlaan,6,50.9960620025,3.41711504204
8700,Tielt,Kerkebosstraat,6,50.9986068035,3.37041475721
8700,Tielt,Rijkegemkouterstraat,13,51.0133991862,3.35048989992
8700,Tielt,Wingensesteenweg,16,51.0050488794,3.3213168143
8700,Tielt,Processiestraat,24,51.0018691007,3.38603320753
8700,Tielt,Driesstraat,90,50.9929747191,3.34329527826
8700,Tielt,Felix D'Hoopstraat,73,50.998163766,3.33549488293
8700,Tielt,Bedevaartstraat,67,50.9872741695,3.33237326046
8700,Tielt,Dierdonk,1,50.9852233484,3.33012721838
8700,Tielt,Wulfstraat,21,50.9894359585,3.32183350582
8700,Tielt,Wingensesteenweg,79,51.0174902775,3.31089690947
8700,Tielt,Kapelleweg,7A,51.0362645862,3.32971102056
8700,Tielt,Poekebeekbron,24,51.0014780029,3.31309633391
8700,Tielt,Sint-Michielstraat,4,50.9974385948,3.32218733583
8700,Tielt,Bedevaartstraat,32,50.9893177979,3.3328658017
8700,Tielt,Pieter Simonsstraat,13,50.9899911254,3.32559424662
8700,Tielt,Zwartegevelstraat,16,50.9850325625,3.33225672966
8700,Tielt,Kazernestraat,25,51.0104161586,3.43444188863
8700,Tielt,Volderstraat,36,50.9960467059,3.32295991034
8700,Tielt,Drie Wilgen,19,51.0320659815,3.3383952265
8700,Tielt,Polderstraat,5,51.0268812123,3.36157434028
8700,Tielt,Sint-Amandstraat,4,50.9743734672,3.32083987
8700,Tielt,Oude Stationstraat,122,50.9926721279,3.3301190574
8700,Tielt,Felix D'Hoopstraat,20,50.998697833,3.3333223034
8700,Tielt,Dertig Zilverlingenstraat,59,50.9886560433,3.32954069168
8700,Tielt,Burggraaf Vande Vyverelaan,95,51.0025578683,3.31692225459
8700,Tielt,Ter Kouter,24,51.0105268329,3.40160075244
8700,Tielt,Biermanstraat,49,51.0340260353,3.33914526232
8700,Tielt,Hoogstraat,57,50.999088475,3.3302223822
8700,Tielt,Dertig Zilverlingenstraat,24,50.9884923586,3.33112294712
8700,Tielt,Oude Stationstraat,104,50.9930760583,3.32985526526
8700,Tielt,Lindenlaan,47,50.9937866509,3.3325304566
8700,Tielt,Bedevaartstraat,85,50.9869283285,3.33231253627
8700,Tielt,Sint-Michielstraat,28,50.9969250061,3.32279543434
8700,Tielt,Aarsele-Dorp,16,50.996777863,3.42222293884
8700,Tielt,Sint-Janstraat,102,51.0030414771,3.3336757471
8700,Tielt,Henri D'Hontstraat,45,51.0298347674,3.33555982959
8700,Tielt,Kasteelstraat,19,49.2933351651,2.30668956214
8700,Tielt,Hondstraat,38,51.0046559146,3.31610318586
8700,Tielt,Appelstraat,20,50.9803885618,3.40535067778
8700,Tielt,Dosseweg,8,51.0262815669,3.33402920061
8700,Tielt,Oude Pittemstraat,43,50.9962488568,3.30995086411
8700,Tielt,Peperstraat,4,51.0011892222,3.32479026815
8700,Tielt,Deinsesteenweg,170,50.9931368401,3.40640370345
8700,Tielt,Drie Wilgen,37,51.0325295841,3.33721309949
8700,Tielt,Zwanestraat,4,50.9818765182,3.33138852298
8700,Tielt,Julius Hostelaan,11,50.9945643238,3.33633121206
8700,Tielt,Egemsesteenweg,63,51.0022886802,3.30432414314
8700,Tielt,Burggraaf Vande Vyverelaan,141,51.0016359056,3.31423430615
8700,Tielt,Schoolstraat,5,50.9979169581,3.4183605594
8700,Tielt,Rozeboomlaan,11,51.0049406121,3.33454615491
8700,Tielt,Manestraat,6,50.9990475424,3.32083386315
8700,Tielt,Hogenhovestraat,51,50.9865495211,3.41873505996
8700,Tielt,Biermanstraat,14,51.0335364256,3.3359481142
8700,Tielt,Sterrestraat,16,50.9959060919,3.42078932685
8700,Tielt,Rozenlaan,29,51.0032837147,3.31525231921
8700,Tielt,Beneluxlaan,51,51.0001037576,3.33717133535
8700,Tielt,Rozenlaan,5,51.0026954533,3.31385142061
8700,Tielt,Felix D'Hoopstraat,55,50.9982615929,3.3349539188
8700,Tielt,Tramstraat,36,51.0019853883,3.32895740162
8700,Tielt,Kleine Weg,8,50.9962043148,3.3425981027
8700,Tielt,Jules Van Ooststraat,21,50.9981490986,3.42137537701
8700,Tielt,Keidamstraat,15,50.9990000888,3.31415981586
8700,Tielt,Haantjesstraat,32,51.000969911,3.42080362358
8700,Tielt,Herderstraat,6,50.9818572043,3.33431148221
8700,Tielt,Beernegemstraat,49,50.9942475527,3.33350975802
8700,Tielt,Biermanstraat,50,51.0343095995,3.33895254058
8700,Tielt,Deinsesteenweg,195,50.9909879604,3.42714537326
8700,Tielt,Putterijstraat,44,50.978591589,3.36764120243
8700,Tielt,Astenhove,10,51.0117093366,3.40206942212
8700,Tielt,Rozeboomlaan,4,51.0055913131,3.33310477349
8700,Tielt,Deinsesteenweg,224,50.9924992837,3.41444453068
8700,Tielt,Julius Hostelaan,4,50.9952594483,3.33590292183
8700,Tielt,Kazernestraat,1,51.0038920981,3.42908738404
8700,Tielt,Sint-Michielstraat,127,50.9946006003,3.32500919473
8700,Tielt,Pieter Simonsstraat,38,50.9908319326,3.32659586839
8700,Tielt,Kortrijkstraat,125,50.9950872526,3.32548855591
8700,Tielt,Steenstraat,9,50.9968261391,3.32680282685
8700,Tielt,Hondstraat,31,51.0052867797,3.31701291306
8700,Tielt,Stedemolenstraat,23,50.9970209611,3.31912202062
8700,Tielt,Poekestraat,7,51.0019721073,3.42991674673
8700,Tielt,Rozenlaan,22,51.0034738942,3.31477471715
8700,Tielt,Grensstraat,7,50.9955978215,3.30826531771
8700,Tielt,Pittemsesteenweg,32,50.9966888384,3.30754556525
8700,Tielt,Artemeersstraat,3,51.0152916936,3.44675509718
8700,Tielt,Deinsesteenweg,206,50.9925883853,3.41235216238
8700,Tielt,Krommewalstraat,9,51.0014460908,3.32320234713
8700,Tielt,Bilkbosstraat,11,51.0374132133,3.32864010365
8700,Tielt,Keidamstraat,33,50.9995577333,3.31462098744
8700,Tielt,Kortrijkstraat,11,50.9994837581,3.3260106079
8700,Tielt,Vinktse Binnenweg,10,51.0156510711,3.43564270236
8700,Tielt,Egemsesteenweg,45,51.00107171,3.30666458517
8700,Tielt,Kanegemstraat,2,51.0026113182,3.3454332545
8700,Tielt,Sint-Michielstraat,109,50.9949265349,3.32457855801
8700,Tielt,Hollandlaan,6,51.0015472047,3.33585058841
8700,Tielt,Bruggestraat,87,51.0032319408,3.32482242935
8700,Tielt,Oude Pittemstraat,8,50.9957412728,3.31730283073
8700,Tielt,Felix D'Hoopstraat,91,50.9981737707,3.33682016753
8700,Tielt,Desirè De Somvielelaan,7,50.9945791121,3.33863524158
8700,Tielt,Klijtenstraat,98,50.992600571,3.3407200048
8700,Tielt,Bosakkerstraat,25,50.986268571,3.33590467501
8700,Tielt,Kapelleweg,17,51.0397678531,3.33121166996
8700,Tielt,Leo D'Hulsterlaan,13,50.9931721714,3.34090733087
8700,Tielt,Kortrijkstraat,117,50.9953781111,3.32559362848
8700,Tielt,Deinsesteenweg,71,50.9946426163,3.38201788076
8700,Tielt,Kasteelstraat,136,50.9915734786,3.31956746089
8700,Tielt,Wielmakerstraat,6,50.9947852069,3.35109657759
8700,Tielt,Oude Stationstraat,15,50.9950986856,3.32663736028
8700,Tielt,Wittestraat,52,50.990777118,3.32379962971
8700,Tielt,'t Hoge,5,50.9918198282,3.42407522795
8700,Tielt,'t Kamp,12,51.011951294,3.310427098
8700,Tielt,Pastorijstraat,46A,50.9934378849,3.42585515763
8700,Tielt,Vijfpachtgoenstraat,14,51.0148418175,3.30824586468
8700,Tielt,Ter Booye,3,50.9922378447,3.31443598277
8700,Tielt,Oostweg,6A,50.9945256279,3.34336278644
8700,Tielt,Papenholwegel,52,50.9937089288,3.31614909393
8700,Tielt,Driesstraat,9,50.9976911855,3.33510824891
8700,Tielt,Oosthoekstraat,30,51.0190072007,3.42367586181
8700,Tielt,Kasteelhoevestraat,5,51.0231618684,3.40934547265
8700,Tielt,Wakkensesteenweg,40,50.9734482185,3.3673534161
8700,Tielt,Drie Wilgen,12,51.0317691333,3.33700800707
8700,Tielt,Lindenlaan,10,50.9935708963,3.33072479877
8700,Tielt,Ieperstraat,23,50.999652624,3.32398618644
8700,Tielt,Putterijstraat,14A,50.9760769634,3.35850519764
8700,Tielt,Wielmakerstraat,1A,50.9969483779,3.34859400632
8700,Tielt,Wingensesteenweg,128A,51.029560082,3.30361301619
8700,Tielt,Egemsesteenweg,71,51.0028108146,3.30326989519
8700,Tielt,Hondstraat,13,51.005818412,3.31928623746
8700,Tielt,Ruiseleedsesteenweg,65,51.0144492601,3.3657086456
8700,Tielt,Hoogstraat,29,50.9996671009,3.32920713925
8700,Tielt,Hazelaarkouter,51,50.9942335046,3.31352897066
8700,Tielt,Klijtenstraat,116,50.9923592025,3.3419987849
8700,Tielt,Deken Darraslaan,76,50.9973074226,3.31690029193
8700,Tielt,Marialoopsesteenweg,10,50.9789794589,3.33231459408
8700,Tielt,Kastanjelaan,22,50.9883244515,3.33523395544
8700,Tielt,Kortrijkstraat,99,50.9959088322,3.32555774461
8700,Tielt,Hulstplein,29,50.9977228096,3.33219158114
8700,Tielt,Volderstraat,18,50.9966871428,3.32194710861
8700,Tielt,Kanegemstraat,62,51.0057707137,3.36754934974
8700,Tielt,Meikestraat,11,50.9821359317,3.3821368802
8700,Tielt,Ten Broucken,34,51.0105841172,3.4037182929
8700,Tielt,Holdestraat,23,50.9921945938,3.31546942237
8700,Tielt,Brugstokwegel,10,51.0322134439,3.33220773507
8700,Tielt,Lindenlaan,45,50.9936914818,3.33250378443
8700,Tielt,Meulebeeksesteenweg,37,50.9833324778,3.31285990544
8700,Tielt,Leukemeersenstraat,8,50.9931628131,3.34396908759
8700,Tielt,Schuiferskapelsesteenweg,65,51.022446792,3.33537607212
8700,Tielt,Karmstraat,28,50.9910869481,3.41073301368
8700,Tielt,Kasteelstraat,118,50.9917441507,3.32069239226
8700,Tielt,Axpoelmolenstraat,4,51.0172623491,3.38243083213
8700,Tielt,Steenstraat,54,50.9955144431,3.32826026406
8700,Tielt,Mgr. Christiaensstraat,30,50.9992873155,3.31519367149
8700,Tielt,Tulpenlaan,9,51.0041635737,3.31659056887
8700,Tielt,Azalealaan,11,51.0045567495,3.31782365239
8700,Tielt,B.A. Guilbertlaan,7,51.0327364775,3.32029970392
8700,Tielt,Huffeselestraat,4,50.9865566717,3.32338548014
8700,Tielt,Kapellestraat,20,51.0029318974,3.32534446456
8700,Tielt,Deken Darraslaan,6,50.9977179685,3.32085930762
8700,Tielt,Burggraaf Vande Vyverelaan,42,51.0026725914,3.31911971913
8700,Tielt,Robert Schumanstraat,24,50.9989743232,3.33900681971
8700,Tielt,Baudeloostraat,12,50.9961590976,3.4231634
8700,Tielt,Huffeselestraat,18,50.9871392688,3.3246666384
8700,Tielt,Westhoekstraat,23,50.9963842839,3.40514381494
8700,Tielt,Uitpachtstraat,16,50.9974616496,3.39267145934
8700,Tielt,Hulswallestraat,12,51.0294348561,3.32265728496
8700,Tielt,Haantjesstraat,14,50.9999395592,3.42195110365
8700,Tielt,Krommewalstraat,54,51.0020894452,3.32135472813
8700,Tielt,Ruiseleedsesteenweg,30,51.0095184782,3.35116201937
8700,Tielt,Feestewegel,88,50.9907529643,3.32403591267
8700,Tielt,Ervestraat,1,51.0168698164,3.36596596969
8700,Tielt,Jozef Baertstraat,11,51.0010573666,3.339930036
8700,Tielt,Kanegemstraat,186,51.0127460143,3.40194543488
8700,Tielt,Marialoopsesteenweg,2E,50.982680361,3.33316992382
8700,Tielt,Schuiferskapelsesteenweg,30,51.0076242128,3.32682698084
8700,Tielt,Kanegem-Dorp,24,51.0136582388,3.40362592545
8700,Tielt,Brunicolaan,12,51.0018428943,3.33384497375
8700,Tielt,Pittemsesteenweg,14,50.9974391237,3.31078959812
8700,Tielt,Wittestraat,70,50.9903254284,3.32373534055
8700,Tielt,Sint-Janstraat,31,51.0010837341,3.32967481639
8700,Tielt,Kanegemstraat,44,51.0050475803,3.36118468469
8700,Tielt,Hazelaarkouter,8,50.9935420528,3.3149408533
8700,Tielt,Oude Stationstraat,33,50.9945875747,3.32719275801
8700,Tielt,Magdalena Huysstraat,31,50.9902099138,3.32099533062
8700,Tielt,'t Hoge,37,50.9919213838,3.4229965834
8700,Tielt,Meulebeeksesteenweg,5,50.9893941995,3.31486670344
8700,Tielt,Klijtenstraat,10,50.9919018602,3.33229120345
8700,Tielt,Tramstraat,11,51.0009864384,3.32798237642
8700,Tielt,Stedemolenstraat,76,50.9953122862,3.31772757368
8700,Tielt,Keidamstraat,51,50.9999008511,3.3158131712
8700,Tielt,Maaistraat,31,51.0381757541,3.30935734654
8700,Tielt,Driesstraat,54,50.9962731912,3.33977730705
8700,Tielt,Hondstraat,66,51.0039618331,3.31442905052
8700,Tielt,Deken Darraslaan,38,50.9977515617,3.31938233131
8700,Tielt,Burggraaf Vande Vyverelaan,131,51.0018312163,3.31468142503
8700,Tielt,Kronkelbeekstraat,24,51.0326866971,3.3407687849
8700,Tielt,Henri D'Hontstraat,17,51.0319148418,3.33465768749
8700,Tielt,Appelstraat,27,50.9820011158,3.40166047331
8700,Tielt,Deinsesteenweg,260,50.9917623926,3.42651075959
8700,Tielt,Beernegemstraat,14,49.2933351651,2.30668956214
8700,Tielt,Luxemburglaan,6,51.0016359626,3.336714891
8700,Tielt,Stedemolenstraat,94,50.9948167255,3.31671755465
8700,Tielt,Deinsesteenweg,242,50.992172384,3.41938921091
8700,Tielt,Stationstraat,68,50.9913309688,3.32929053056
8700,Tielt,Bedevaartstraat,103,50.9865835235,3.33241031581
8700,Tielt,Felix D'Hoopstraat,179,50.9967068597,3.34437442559
8700,Tielt,Kanegemstraat,168,51.0124953613,3.40040040271
8700,Tielt,Hulststraat,22,50.9973103479,3.32976400177
8700,Tielt,Sterrestraat,80,50.9936089425,3.41521511018
8700,Tielt,Karnemelkstraat,4,50.9983928548,3.33170406135
8700,Tielt,Vinktstraat,53,50.9992829095,3.42527345186
8700,Tielt,Ieperstraat,76,50.9979290981,3.32221869864
8700,Tielt,Kortrijkstraat,64,50.99768574,3.32691208363
8700,Tielt,Bosakkerstraat,61,50.9854057654,3.33706936313
8700,Tielt,Hoogserleistraat,14,51.0129283246,3.30840816055
8700,Tielt,Putterijstraat,2,50.9746118528,3.35618183982
8700,Tielt,Begonialaan,25,51.0025517014,3.31454383155
8700,Tielt,Wingensesteenweg,80,51.0122750683,3.31599918264
8700,Tielt,Oude Stationstraat,51,50.994264045,3.32767275153
8700,Tielt,Driesstraat,89,50.9945219143,3.34173004981
8700,Tielt,Biermanstraat,39,51.0336148877,3.33810196034
8700,Tielt,Bruggestraat,34,51.001348013,3.32514833638
8700,Tielt,Brunicolaan,30,51.0025015,3.33513469018
8700,Tielt,Oude Kapellestraat,43,51.0065837426,3.33057598758
8700,Tielt,Bedevaartstraat,7,50.9902531171,3.33136502244
8700,Tielt,Putterijstraat,16,50.9758282948,3.35886070916
8700,Tielt,Ankelaarstraat,2,50.9922745133,3.38772143292
8700,Tielt,Sterrestraat,44,50.995345267,3.41910003243
8700,Tielt,Felix D'Hoopstraat,27,50.9983203617,3.33375376607
8700,Tielt,'t Hoge,19,50.9931668051,3.4233395519
8700,Tielt,Burggraaf Vande Vyverelaan,113,51.002154025,3.31560327098
8700,Tielt,Veldstraat,34,51.0285098104,3.34556941439
8700,Tielt,Bedevaartstraat,50,50.9887339123,3.33327624331
8700,Tielt,Sint-Michielstraat,56,50.9962619229,3.32360743725
8700,Tielt,Baudeloostraat,30,50.9959896725,3.42620599979
8700,Tielt,Kasteelstraat,182,50.9908338798,3.31832864817
8700,Tielt,Montevalstraat,22,50.9957402004,3.34548421357
8700,Tielt,Sint-Janstraat,137,51.0028069875,3.33469538437
8700,Tielt,Henri D'Hontstraat,3,51.0324747997,3.33444016829
8700,Tielt,Hogenhovestraat,33,50.9879229952,3.41931471272
8700,Tielt,Ten Broucken,52,51.0104182851,3.40303100155
8700,Tielt,Sint-Michielstraat,21,50.9967170728,3.32246215315
8700,Tielt,Wilgenlaan,10,50.9972630293,3.41533497208
8700,Tielt,Beneluxlaan,68,51.0013523937,3.33784085088
8700,Tielt,Beneluxlaan,33,50.9994651011,3.33584745186
8700,Tielt,Biermanstraat,7,51.0330363966,3.33574157263
8700,Tielt,Sint-Amandstraat,21,50.969682156,3.34326538606
8700,Tielt,Oude Pittemstraat,104,50.9960219806,3.30910507217
8700,Tielt,Dertig Zilverlingenstraat,42,50.9882898818,3.33035585028
8700,Tielt,Deinsesteenweg,159,50.9916591896,3.41936028613
8700,Tielt,Sint-Michielstraat,74,50.995922269,3.32405178999
8700,Tielt,Belgielaan,8,51.0011481455,3.33443790552
8700,Tielt,Schuiferskapelle-Dorp,5,51.0329971186,3.33419524576
8700,Tielt,Kasteelstraat,83,50.9925332411,3.32258656759
8700,Tielt,Rozeboomlaan,18,51.0052331963,3.33533022122
8700,Tielt,Joris Minnaertlaan,10,50.9933773605,3.34053074967
8700,Tielt,Neringenstraat,10,51.012506319,3.40361929057
8700,Tielt,Kasteelstraat,30,50.9932484446,3.32496194332
8700,Tielt,Hogenhovestraat,68,50.9851999302,3.41766245268
8700,Tielt,Dierdonk,53,50.9834770376,3.32977081564
8700,Tielt,Beernegemstraat,85,50.99297004,3.33473326541
8700,Tielt,Steenakkerstraat,6,51.0246313963,3.32963899423
8700,Tielt,Sint-Bavostraat,18,51.0135453378,3.39952178951
8700,Tielt,Bosakkerstraat,12B,50.9677588631,3.33368026159
8700,Tielt,Beernegemstraat,67,50.9935031044,3.33412477825
8700,Tielt,Rijkegemkouterstraat,6,51.0136868434,3.34479481488
8700,Tielt,Delmerensmolenstraat,4,50.9946371442,3.41665206853
8700,Tielt,Tramstraat,82,51.0038218966,3.33335887236
8700,Tielt,Sint-Janstraat,119,51.002774118,3.33409541293
8700,Tielt,Manestraat,23,50.999739016,3.32077922715
8700,Tielt,Sint-Michielstraat,92,50.9950418284,3.32500905945
8700,Tielt,Pieter Simonsstraat,6,50.9899944458,3.32443768951
8700,Tielt,Plantinstraat,29,50.9949066832,3.32261580629
8700,Tielt,Deinsesteenweg,177,50.9912481115,3.42334077202
8700,Tielt,Hof te Perremans,8,51.000503511,3.31726853977
8700,Tielt,Kleine Weg,25,50.9966843478,3.34162541158
8700,Tielt,Sterrestraat,62,50.9943154167,3.41667669265
8700,Tielt,Wingensesteenweg,44,51.0072046705,3.32021518236
8700,Tielt,Beernegemstraat,32,50.9952707135,3.33321450308
8700,Tielt,Felix D'Hoopstraat,197,50.9969355069,3.34520511292
8700,Tielt,Dierdonk,71,50.9833029669,3.33132748931
8700,Tielt,Molenweg,34,51.0010894781,3.42349907136
8700,Tielt,Bosakkerstraat,43,50.9857961705,3.33500624281
8700,Tielt,Sint-Bavostraat,4,51.0133706325,3.40126731075
8700,Tielt,Beneluxlaan,15,50.9990146193,3.33507978253
8700,Tielt,Dierdonk,47,50.9831734032,3.32946065625
8700,Tielt,Oosthoekstraat,12,51.0152792105,3.40878769537
8700,Tielt,Gruuthusestraat,42,50.9898265123,3.3335062305
8700,Tielt,Hogenhovestraat,15,50.9890711162,3.42109186327
8700,Tielt,Kortrijkstraat,46,50.9983534232,3.32753165139
8700,Tielt,Vinktstraat,71,51.0000329769,3.42644683864
8700,Tielt,Vijverstraat,9A,50.9989932184,3.32930970006
8700,Tielt,Pastorijstraat,45,50.996189167,3.42498397507
8700,Tielt,Kasteelstraat,65,50.9926822209,3.32306386923
8700,Tielt,Bedevaartstraat,39,50.9884701473,3.33258170627
8700,Tielt,Dertig Zilverlingenstraat,60,50.9880638764,3.3294598074
8700,Tielt,Vinktstraat,47,50.9985444468,3.42384485619
8700,Tielt,Jozef Samynlaan,1,50.9942849158,3.33985356343
8700,Tielt,Hondstraat,84,51.0034054485,3.31307515557
8700,Tielt,Haantjesstraat,5,50.9999913194,3.4212555196
8700,Tielt,Henri D'Hontstraat,47,51.0298522471,3.33585141222
8700,Tielt,Driesstraat,18,50.9978051663,3.33600839452
8700,Tielt,Felix D'Hoopstraat,98,50.9983567855,3.33773106024
8700,Tielt,Stationstraat,33,50.9932099739,3.32652534851
8700,Tielt,Appelstraat,7A,50.9836574692,3.41147695566
8700,Tielt,Lindenlaan,25,50.9933099974,3.33210110053
8700,Tielt,Poekestraat,24,51.0031124056,3.43220121249
8700,Tielt,Sint-Janstraat,56,51.0019761224,3.3309233745
8700,Tielt,Kapellestraat,17,51.0029036795,3.32562976933
8700,Tielt,Astenhove,1,51.0121941823,3.40224767442
8700,Tielt,Meulebeeksesteenweg,57,50.9804225327,3.31200372298
8700,Tielt,Oosthoekstraat,3,51.0138807553,3.40435257343
8700,Tielt,Neringenstraat,55,51.0017059056,3.41662477413
8700,Tielt,Sint-Janstraat,112,51.0030578552,3.33415839628
8700,Tielt,Beernegemstraat,42,50.9949515989,3.33361658281
8700,Tielt,Schuiferskapelsesteenweg,40,51.0084096321,3.32685369595
8700,Tielt,Oosthoekstraat,29,51.0174889296,3.41269288569
8700,Tielt,Nagelstraat,7,51.0130520847,3.398846945
8700,Tielt,Pontweg,52,51.0043749465,3.33476937019
8700,Tielt,Rijkegemkouterstraat,21,51.0208668908,3.35048769589
8700,Tielt,Astenhove,27,51.011240079,3.40144666635
8700,Tielt,Plantinstraat,12,50.9942702583,3.32128879559
8700,Tielt,Kortrijkstraat,90,50.9965917643,3.32612179802
8700,Tielt,Beernegemstraat,60,50.9937292965,3.33454472342
8700,Tielt,Molenweg,16,50.9998864264,3.42272250737
8700,Tielt,Kapellestraat,35,51.0033139775,3.32574089418
8700,Tielt,Karmstraat,66,50.9894580769,3.39915988161
8700,Tielt,Driesstraat,36,50.9970810815,3.33797437531
8700,Tielt,Vinktse Binnenweg,1,51.0153555824,3.42250361743
8700,Tielt,Antoon Vander Plaetselaan,42,50.9945078848,3.33764631716
8700,Tielt,Bruggestraat,80,51.002954512,3.32419413956
8700,Tielt,Tramstraat,54,51.0032506448,3.33177199023
8700,Tielt,Steenovenstraat,32,50.9954193201,3.31811622226
8700,Tielt,Aarselestraat,44,50.9930212924,3.42120775563
8700,Tielt,Platanenlaan,16,50.9970719772,3.41775613087
8700,Tielt,Leo D'Hulsterlaan,28,50.9928698522,3.34113546761
8700,Tielt,Kasteelstraat,3,50.994334774,3.32528392448
8700,Tielt,Stationstraat,15,50.9936461418,3.3260857311
8700,Tielt,Kortrijkstraat,4,50.9997594367,3.32639142806
8700,Tielt,Hazelaarkouter,23,50.9949005426,3.31389773668
8700,Tielt,Szamotulystraat,3,50.9989406104,3.35543029618
8700,Tielt,Bilkbosstraat,4,51.0345322528,3.3266384135
8700,Tielt,Bedevaartstraat,77,50.9871095709,3.3325478173
8700,Tielt,Claerhoutstraat,13,50.9947791966,3.30834594501
8700,Tielt,Pastorijstraat,91,50.9937233756,3.4262784773
8700,Tielt,Kreupelstraat,11,50.9962954713,3.32965229407
8700,Tielt,Seyntexlaan,10,50.9857719363,3.33387504014
8700,Tielt,Egemsesteenweg,25,51.0005663673,3.31154779552
8700,Tielt,Sint-Janstraat,92,51.0029054128,3.3331592671
8700,Tielt,Hondstraat,6,51.0057550427,3.32042785839
8700,Tielt,Kanegemstraat,69,51.0049667765,3.36494449246
8700,Tielt,Rozenlaan,37,51.0035840053,3.31600899529
8700,Tielt,Krommewalstraat,36,51.0015452919,3.32212429255
8700,Tielt,Kortrijkstraat,110,50.9958959379,3.32609125744
8700,Tielt,Steenstraat,36,50.9960185287,3.32795703452
8700,Tielt,Rattestraat,5,51.0242307694,3.29741850436
8700,Tielt,Hellebosstraat,2,51.0001653607,3.30614913549
8700,Tielt,Beukenlaan,14,50.9955020023,3.41702326948
8700,Tielt,Vijfpachtgoenstraat,5,51.0173074357,3.30536749929
8700,Tielt,Stoktmolenstraat,7,50.9948307074,3.32841775121
8700,Tielt,Deinsesteenweg,78,50.9961887124,3.36783317068
8700,Tielt,Bruggestraat,62,51.002289096,3.32415610686
8700,Tielt,Putterijstraat,34,50.9765494012,3.36185309447
8700,Tielt,Stoopsmolenweg,14,50.9986789099,3.34199173539
8700,Tielt,Mgr. Christiaensstraat,29,50.9994591718,3.31550153507
8700,Tielt,Magdalena Huysstraat,6,50.9881350156,3.32211694123
8700,Tielt,Blekerijstraat,13,50.9897428936,3.329861881
8700,Tielt,Vijverstraat,12,50.9991237686,3.32907728762
8700,Tielt,Luxemburglaan,21,51.0020178856,3.33785741879
8700,Tielt,Haantjesstraat,42,51.0017069711,3.42027695125
8700,Tielt,Blauwvoetstraat,6,50.9823112951,3.32898628201
8700,Tielt,Abeelstraat,11,50.9791107529,3.32494419333
8700,Tielt,Populierenlaan,9,50.9966046538,3.41707354204
8700,Tielt,Stedemolenstraat,102,50.9947534744,3.31642010062
8700,Tielt,Ruiseleedsesteenweg,29,51.0078705196,3.35591538332
8700,Tielt,Begonialaan,53,51.0026926838,3.3158018981
8700,Tielt,Pontweg,2,51.0041359048,3.33438053119
8700,Tielt,Steenovenstraat,14,50.9953405741,3.32036583156
8700,Tielt,Europalaan,25,51.0008033156,3.33254918159
8700,Tielt,Steenovenstraat,49,50.9956746368,3.32151669548
8700,Tielt,Burggraaf Vande Vyverelaan,49,51.0037848464,3.31950459726
8700,Tielt,Stedemolenstraat,51,50.9959776622,3.31830457891
8700,Tielt,Van Zantvoordestraat,12,50.9998188397,3.33145852557
8700,Tielt,Schuiferskapelsesteenweg,29,51.0084840542,3.32761440462
8700,Tielt,Bruggestraat,16,51.0007986398,3.32577790777
8700,Tielt,Huttegemstraat,15,50.996557443,3.31090636796
8700,Tielt,Bruggestraat,44,51.0017116889,3.32465496296
8700,Tielt,Alfons De Vlamyncklaan,22,50.9957952734,3.33769008907
8700,Tielt,Oude Pittemstraat,23,50.9959319094,3.31341979979
8700,Tielt,Dentergemstraat,16,50.9837793711,3.36295217707
8700,Tielt,Marialoopsesteenweg,27,50.9704026939,3.32385822594
8700,Tielt,Keizerstraat,15,51.0153096068,3.40120776024
8700,Tielt,Oude Stationstraat,8,50.9956949111,3.32709550438
8700,Tielt,Felix D'Hoopstraat,118,50.9984501129,3.33933518001
8700,Tielt,Wakkensesteenweg,30,50.9745285886,3.35370669707
8700,Tielt,Egemsesteenweg,78,51.0012097722,3.30476994306
8700,Tielt,Sint-Janstraat,6,51.0005610657,3.32811833654
8700,Tielt,Kerkstraat,7,51.0008580289,3.32526666989
8700,Tielt,'t Hoge,22,50.9927284746,3.42369966453
8700,Tielt,Deinsesteenweg,25,50.9956227417,3.36928706563
8700,Tielt,Leiaardsboomstraat,16,50.994525561,3.31756543047
8700,Tielt,Kistestraat,25,50.9997671345,3.32190882419
8700,Tielt,Wulfstraat,13,50.9898548443,3.32246499663
8700,Tielt,Meerlaantjestraat,15,50.9926077191,3.34544089443
8700,Tielt,Hazelaarkouter,58,50.9939604609,3.31312598799
8700,Tielt,Hoogstraat,83,50.9985912675,3.33144935694
8700,Tielt,Steenstraat,18,50.9966796906,3.32754446129
8700,Tielt,Gruuthusestraat,39,50.9890645332,3.33439748294
8700,Tielt,Hoogstraat,30,50.9996800761,3.32961788013
8700,Tielt,Veldstraat,16,51.0330040027,3.34242492455
8700,Tielt,Kortrijkstraat,26,50.9992125098,3.3269934124
8700,Tielt,Groenestraat,2,51.0124321595,3.35872940522
8700,Tielt,Bedevaartstraat,59,50.987642401,3.33266950425
8700,Tielt,Meikestraat,4,50.9856006391,3.38732936228
8700,Tielt,Hulstplein,30,50.9976843704,3.33226736748
8700,Tielt,Vrouwenboomstraat,14,51.0174064634,3.31332900046
8700,Tielt,Krommewalstraat,18,51.0008376778,3.32323600535
8700,Tielt,Sint-Janstraat,21,51.0006944195,3.32936373372
8700,Tielt,Leukemeersenstraat,23,50.9944138689,3.34583111791
8700,Tielt,Ieperstraat,51,50.9987886274,3.32277465645
8700,Tielt,Deinsesteenweg,144,50.9942435349,3.391717064
8700,Tielt,Egemsesteenweg,96,51.0029048305,3.30064809399
8700,Tielt,Ten Broucken,7,51.0115362125,3.40378205594
8700,Tielt,Mgr. Christiaensstraat,3,50.998231126,3.3160833204
8700,Tielt,Sterrestraat,69,50.9929147212,3.41463507598
8700,Tielt,Deken Darraslaan,21,50.9980354975,3.31752149332
8700,Tielt,Baudeloostraat,3,50.9956968996,3.42246585227
8700,Tielt,Driesstraat,48,50.996621077,3.33904425884
8700,Tielt,Hulswallestraat,3,51.0306235977,3.32144374333
8700,Tielt,Aarselekapellestraat,9,51.0114384988,3.40039815367
8700,Tielt,Driesstraat,82,50.9949830017,3.34210016579
8700,Tielt,Stationstraat,41,50.9930160293,3.32670473147
8700,Tielt,Wingensesteenweg,2,51.003886074,3.32276849057
8700,Tielt,Ronceval,25,50.9948060368,3.31029955816
8700,Tielt,Waaiberglaan,24,51.0007753341,3.4198837699
8700,Tielt,Papenholwegel,9,50.9948484658,3.31890355031
8700,Tielt,Zwartegevelstraat,2,50.985276085,3.33166283869
8700,Tielt,Oude Stationstraat,58,50.9945196603,3.32782862004
8700,Tielt,Dertig Zilverlingenstraat,32,50.988395845,3.3307093104
8700,Tielt,Kapellestraat,47,51.0036509233,3.32587303058
8700,Tielt,Karmstraat,100,50.983665331,3.38880204321
8700,Tielt,Ter Kouter,32,51.0103516124,3.40091024299
8700,Tielt,Stokerijstraat,70,51.0058626368,3.32555850793
8700,Tielt,Oude Stationstraat,114,50.9929682685,3.33069098889
8700,Tielt,Appelstraat,10,50.9839951019,3.41094310611
8700,Tielt,Aarselestraat,16,50.9950341735,3.42177322282
8700,Tielt,Vinktstraat,78,51.0005545817,3.42904742219
8700,Tielt,Hazepad,8,51.0322006617,3.33913704813
8700,Tielt,Burggraaf Vande Vyverelaan,85,51.0027545981,3.31758992136
8700,Tielt,Molenweg,44,51.0005180137,3.42581121503
8700,Tielt,Wittestraat,9,50.9915465892,3.32345713418
8700,Tielt,Leiaardsboomstraat,7,50.9945593016,3.31707533877
8700,Tielt,Wingensesteenweg,87,51.0264462539,3.30637278225
8700,Tielt,Vinktstraat,134,51.0024160508,3.44558938762
8700,Tielt,Vredestraat,12,50.9947388943,3.3274386944
8700,Tielt,Wontergemstraat,14,50.9849981386,3.42230629018
8700,Tielt,Baudeloostraat,29,50.9959568753,3.42417749956
8700,Tielt,Deken Darraslaan,51,50.9981227892,3.31519804385
8700,Tielt,Pastorijstraat,1,50.9980875458,3.42363851665
8700,Tielt,Krommewalstraat,48,51.0018559512,3.32183724546
8700,Tielt,Landweg,2,51.0345458488,3.2988647334
8700,Tielt,Stokerijstraat,9,51.0047828617,3.32544803037
8700,Tielt,Steenstraat,48,50.995686888,3.32818079148
8700,Tielt,Hondstraat,112,51.0012752023,3.30902465484
8700,Tielt,Felix D'Hoopstraat,10,50.998668231,3.3328697673
8700,Tielt,Pastorijstraat,27,50.9967376564,3.42469485398
8700,Tielt,Ondankstraat,19,51.0101173895,3.37314545144
8700,Tielt,Vinktstraat,96,51.0007945404,3.43074130316
8700,Tielt,Defoerestraat,1,50.995255469,3.33825982235
8700,Tielt,Aarselestraat,7,50.9956861745,3.42224996238
8700,Tielt,Willem Pantinlaan,6,50.9941124406,3.33103945644
8700,Tielt,Stationsplein,19,50.9907759519,3.32875399799
8700,Tielt,Holdestraat,68,50.9972661484,3.3137643041
8700,Tielt,Klijtenstraat,106,50.9924181662,3.34120419798
8700,Tielt,Klijtenstraat,1,50.9914546056,3.33241347944
8700,Tielt,Wingensesteenweg,69,51.0112479579,3.31757856604
8700,Tielt,Brunicolaan,3,51.001476898,3.33423204029
8700,Tielt,Kasteelstraat,40,50.992969106,3.32464551111
8700,Tielt,Hoogstraat,65,50.9989166582,3.33064846512
8700,Tielt,Meulebeeksesteenweg,22,50.9832584194,3.31544068219
8700,Tielt,Smokkelstraat,1,51.0259350246,3.40195412781
8700,Tielt,Hogenhovestraat,50A,50.9862633853,3.41816858115
8700,Tielt,Kastanjelaan,19,50.9880368329,3.33521024065
8700,Tielt,Steenovenstraat,67,50.9955886255,3.31946963294
8700,Tielt,Burggraaf Vande Vyverelaan,67,51.003579212,3.3184117955
8700,Tielt,Hulstplein,12,50.997763029,3.33108302633
8700,Tielt,Brignoleslaan,2,51.0006635752,3.3339966697
8700,Tielt,Tramstraat,4,51.0011215006,3.32766066058
8700,Tielt,Hondstraat,28,51.0050057883,3.31766126605
8700,Tielt,Ten Broucken,16,51.0100465246,3.40421201013
8700,Tielt,Deinsesteenweg,180,50.9930045064,3.40803247021
8700,Tielt,Driesstraat,107,50.9928618057,3.34266598272
8700,Tielt,Hoogserleistraat,5,51.0082588689,3.30962043025
8700,Tielt,Platanenlaan,7,50.9967375523,3.41747756706
8700,Tielt,Hoogstraat,12,51.0000865888,3.32879150682
8700,Tielt,Poekebeekbron,14,51.0006214002,3.31322276386
8700,Tielt,Kanegemstraat,171,51.0114710279,3.39824480165
8700,Tielt,Henri D'Hontstraat,55,51.0280822683,3.33677913402
8700,Tielt,Felix D'Hoopstraat,45,50.9983551101,3.33457759655
8700,Tielt,Kapelleweg,27,51.0492233286,3.33106408179
8700,Tielt,Tramstraat,26,51.0016890295,3.32849380072
8700,Tielt,Hogenhovestraat,41,50.987279969,3.41908303452
8700,Tielt,Sint-Michielstraat,38,50.9966697173,3.32315272575
8700,Tielt,Tramstraat,89,51.0036048344,3.33398788354
8700,Tielt,Hollandlaan,21,51.0008577394,3.33700642856
8700,Tielt,Drie Wilgen,3,51.031605787,3.33801456919
8700,Tielt,Oosthoekstraat,40,51.0182980446,3.43106127252
8700,Tielt,Sint-Janstraat,183,51.0037016696,3.33767890468
8700,Tielt,Plantinstraat,30,50.9952025953,3.32191358379
8700,Tielt,Oude Pittemstraat,53,50.9967561753,3.30864342499
8700,Tielt,Tulpenlaan,18,51.0033790195,3.31761752433
8700,Tielt,Sterrestraat,2,50.9963126362,3.42164127085
8700,Tielt,Drie Wilgen,29,51.0321461675,3.33727486279
8700,Tielt,Sint-Janstraat,130,51.0035176855,3.33559116741
8700,Tielt,Gruuthusestraat,49,50.9889276044,3.33492837888
8700,Tielt,Nagelstraat,16,51.0132501247,3.39772243007
8700,Tielt,Biermanstraat,59,51.0350926982,3.34326044062
8700,Tielt,Euromarktlaan,1,51.0030668427,3.33747857615
8700,Tielt,Processiestraat,14,51.0008067956,3.38484174857
8700,Tielt,Kortrijkstraat,17A,50.9990577735,3.3263716964
8700,Tielt,Antoon Vander Plaetselaan,5,50.9939208976,3.33506956862
8700,Tielt,Transvaalstraat,11,50.9964107025,3.41940710562
8700,Tielt,Leo D'Hulsterlaan,6,50.9939947154,3.34171666825
8700,Tielt,Joris Minnaertlaan,1,50.9938043387,3.34060785507
8700,Tielt,Neringenstraat,1,51.0130483406,3.40388573833
8700,Tielt,Grote Hulststraat,7,50.9951473992,3.3277435973
8700,Tielt,Kanegemstraat,87,51.0045076225,3.37104354547
8700,Tielt,Mgr. Christiaensstraat,40,50.9995376332,3.31496664634
8700,Tielt,Dertig Zilverlingenstraat,49,50.9886815552,3.32991530659
8700,Tielt,Bruggestraat,7,51.0006327135,3.32626843258
8700,Tielt,Henri D'Hontstraat,20,51.0317245882,3.33512580413
8700,Tielt,Ruiseleedsesteenweg,40,51.0104404952,3.3591123351
8700,Tielt,Bruwaenestraat,10,51.0122406941,3.33249810918
8700,Tielt,Rozenlaan,19,51.0030413876,3.31464438218
8700,Tielt,Klijtenstraat,124,50.9925066107,3.34241834495
8700,Tielt,Beneluxlaan,41,50.9994513708,3.33701914297
8700,Tielt,Wilgenlaan,1,50.9967640603,3.41566408576
8700,Tielt,Dertig Zilverlingenstraat,14,50.9886268614,3.33162419876
8700,Tielt,Mooremandestraat,3,51.0226414918,3.42476339978
8700,Tielt,Flessestraat,4,51.0123672321,3.37999035788
8700,Tielt,Aarsele-Dorp,2,50.9975877974,3.42268654333
8700,Tielt,Sint-Janstraat,165,51.0031351326,3.33594639801
8700,Tielt,Ter Kouter,14,51.0110203161,3.40190023023
8700,Tielt,Kapelleweg,1,51.0351159115,3.332677612
8700,Tielt,Luchtbalstraat,5,50.9953340581,3.32522820714
8700,Tielt,Biermanstraat,24,51.033627183,3.33675408037
8700,Tielt,Porakstraat,7,51.0038821288,3.4254340812
8700,Tielt,Hogenhovestraat,8,50.9893460694,3.41953502385
8700,Tielt,Wittestraat,44,50.9914658239,3.32372659088
8700,Tielt,Gross Geraulaan,2,51.0015313435,3.33513926835
8700,Tielt,Vinktstraat,25,50.9981470496,3.42299922164
8700,Tielt,Pastorijstraat,47,50.9961120415,3.42513069175
8700,Tielt,Papenholwegel,44,50.9938436379,3.31669651012
8700,Tielt,Dertig Zilverlingenstraat,50,50.9881628223,3.32995500059
8700,Tielt,Claerhoutstraat,1A,50.9955079716,3.30941927179
8700,Tielt,Egemsesteenweg,55A,51.0018076173,3.30537800563
8700,Tielt,Beernegemstraat,77,50.993227626,3.3344186083
8700,Tielt,Rozenlaan,12,51.0032498854,3.31429517187
8700,Tielt,Steenovenstraat,39,50.9955875629,3.32182435671
8700,Tielt,Beneluxlaan,8,50.9992398482,3.33484772031
8700,Tielt,Holdestraat,15,50.9920149548,3.31551761658
8700,Tielt,Peperstraat,13,51.0009777035,3.32406222955
8700,Tielt,Sterrestraat,34,50.9955358353,3.41973352096
8700,Tielt,Schuiferskapelsesteenweg,57,51.0209152013,3.3332591311
8700,Tielt,Fonteinestraat,4,51.0031011471,3.3132668073
8700,Tielt,Ruiseleedsesteenweg,57,51.0125435121,3.36391761807
8700,Tielt,Dierdonk,25,50.9837983662,3.32983476569
8700,Tielt,Schependomstraat,5,50.9985738003,3.31962592527
8700,Tielt,Sint-Michielstraat,13,50.996788457,3.32221979878
8700,Tielt,Van Zantvoordestraat,5,50.9993938239,3.33192126889
8700,Tielt,Rozenlaan,30,51.0036167265,3.31513426813
8700,Tielt,Drie Wilgen,22,51.0321017794,3.33633302882
8700,Tielt,Europalaan,55,50.9995763662,3.33287634331
8700,Tielt,Bruggestraat,97,51.0031037758,3.32461312861
8700,Tielt,Driesstraat,11,50.9976070597,3.33540756943
8700,Tielt,Felix D'Hoopstraat,63,50.9982195416,3.33519191002
8700,Tielt,Markt,1,51.0001197158,3.32587935035
8700,Tielt,Wingensesteenweg,34,51.006491605,3.32037889721
8700,Tielt,Beneluxlaan,76,51.0018939502,3.33862168595
8700,Tielt,Kasteelstraat,108,50.9919643886,3.32119543794
8700,Tielt,Hoogstraat,19,50.9998269559,3.32882177133
8700,Tielt,Egemsesteenweg,55,51.0016410474,3.30562855513
8700,Tielt,Hogenhovestraat,76,50.9850406875,3.41728028227
8700,Tielt,Schuiferskapelsesteenweg,75,51.0248632837,3.34000944848
8700,Tielt,Sint-Michielstraat,31,50.996528945,3.32272890808
8700,Tielt,Felix D'Hoopstraat,3,50.9985139957,3.33269979249
8700,Tielt,Klijtenstraat,47,50.9923703308,3.33555388885
8700,Tielt,Deinsesteenweg,234,50.9923023575,3.41732652259
8700,Tielt,Kistestraat,43,50.9993397099,3.31947030445
8700,Tielt,Beernegemstraat,59,50.9938207181,3.33377673727
8700,Tielt,Sint-Michielstraat,135,50.9944793967,3.32525050536
8700,Tielt,Bruggestraat,105,51.0032905627,3.32450894576
8700,Tielt,Kortrijkstraat,133,50.9947935969,3.32545335041
8700,Tielt,Rijkegemkouterstraat,28,51.026934516,3.35092476097
8700,Tielt,Sint-Amandstraat,31,50.9659823816,3.34757444574
8700,Tielt,Wittestraat,62,50.9905515188,3.32376477308
8700,Tielt,Pieter Simonsstraat,28,50.9903199995,3.32595158322
8700,Tielt,Gruuthusestraat,14,50.9905125179,3.33242076864
8700,Tielt,Vijverstraat,5,50.9985156407,3.3296424073
8700,Tielt,Westhoekstraat,15,50.9992653587,3.40873220002
8700,Tielt,Vijfpachtgoenstraat,24,51.0171958068,3.30212915874
8700,Tielt,Fonteinestraat,18,51.0020065197,3.31401866318
8700,Tielt,Huffeselestraat,26,50.9872640938,3.32518858341
8700,Tielt,Zwanestraat,13,50.9820056528,3.33199478471
8700,Tielt,Gruuthusestraat,50,50.9895609997,3.33405407667
8700,Tielt,Krommewalstraat,46,51.0017583469,3.32184028006
8700,Tielt,Bruggestraat,79,51.0028015592,3.32450459331
8700,Tielt,Ondankstraat,12,51.0120459086,3.37300857884
8700,Tielt,Ieperstraat,33,50.9993096207,3.32351627114
8700,Tielt,Kanegemstraat,52,51.0051909748,3.36254163924
8700,Tielt,Wingensesteenweg,107,51.0293103473,3.30434975064
8700,Tielt,Kreupelstraat,4,50.9967628609,3.32938749804
8700,Tielt,Krommewalstraat,11,51.0026038982,3.32215864678
8700,Tielt,Europalaan,61,50.9992936034,3.33316952497
8700,Tielt,Gross Geraulaan,16,51.0022022072,3.33497914874
8700,Tielt,Stedemolenstraat,15,50.9971552447,3.32089524908
8700,Tielt,Lindenlaan,20,50.9937790407,3.33130909112
8700,Tielt,Groenestraat,9,51.0154915704,3.35794019119
8700,Tielt,Gruuthusestraat,32,50.990123438,3.33304471609
8700,Tielt,Hulstplein,19,50.9980336087,3.33170331744
8700,Tielt,Deken Darraslaan,86,50.9977578175,3.31656778772
8700,Tielt,Keidamstraat,23,50.9992709392,3.31432839138
8700,Tielt,Keizerstraat,8,51.013932115,3.40254602771
8700,Tielt,Magdalena Huysstraat,28,50.9885109601,3.32162967641
8700,Tielt,Brouwerijstraat,2,51.0309698023,3.33595665091
8700,Tielt,Sint-Janstraat,28,51.000964509,3.32889883406
8700,Tielt,Meulebeeksesteenweg,29,50.9844131243,3.3129247321
8700,Tielt,Baudeloostraat,40,50.9956937885,3.42769719692
8700,Tielt,Stedemolenstraat,33,50.996430792,3.31897353959
8700,Tielt,Dennenlaan,2,50.9972374622,3.41647475468
8700,Tielt,Kortrijkstraat,109,50.9956247713,3.32570239235
8700,Tielt,Felix D'Hoopstraat,154,50.9981102406,3.34121264939
8700,Tielt,Kastanjelaan,12,50.9883135848,3.33427317779
8700,Tielt,Abeelstraat,18,50.9836724808,3.32523845331
8700,Tielt,Sint-Amandstraat,13,50.9735559021,3.32653813834
8700,Tielt,Lindenlaan,55,50.9942838715,3.33225293554
8700,Tielt,Kerkebosstraat,4A,50.9975869152,3.37123355716
8700,Tielt,Populierenlaan,2,50.9966018901,3.41646486951
8700,Tielt,Kapellestraat,45,51.0035870692,3.32582956903
8700,Tielt,Sint-Michielstraat,117,50.9947917305,3.32477629777
8700,Tielt,Berkenlaan,15,50.9962310469,3.41769796893
8700,Tielt,P.Fl. Robberechtstraat,8,50.9999885659,3.31677559549
8700,Tielt,Rameplein,9,50.9984556803,3.32783112596
8700,Tielt,Ieperstraat,15,50.9998701842,3.32478715752
8700,Tielt,Pittemsesteenweg,24,50.9970997329,3.30934797466
8700,Tielt,Feestewegel,78,50.9908768691,3.32449438666
8700,Tielt,Kalverstraat,7,51.0015246714,3.32950945868
8700,Tielt,Blekerijstraat,1A,50.9902914804,3.33114808871
8700,Tielt,Huttegemstraat,8,50.9972944148,3.31250514016
8700,Tielt,Pontweg,34,51.0049442714,3.3329884084
8700,Tielt,Kortrijkstraat,89,50.9964457507,3.3255009227
8700,Tielt,Hoogstraat,37,50.9994304563,3.32957055656
8700,Tielt,Oude Stationstraat,23,50.9949038119,3.32671178024
8700,Tielt,Wittestraat,80,50.990215966,3.3242458717
8700,Tielt,Sint-Martenstraat,6,50.9714835203,3.34662701086
8700,Tielt,Kanegem-Dorp,14,51.0134184986,3.40231249468
8700,Tielt,Tenhovestraat,28,50.9783505029,3.34223196665
8700,Tielt,Haantjesstraat,24,51.0011291843,3.42216372691
8700,Tielt,Baudeloostraat,22,50.9961068768,3.42529390964
8700,Tielt,Krommewalstraat,64,51.0024271917,3.3210002443
8700,Tielt,Bedevaartstraat,42,50.9890606173,3.33312388412
8700,Tielt,Stationsberm,5,50.9905485184,3.32846048142
8700,Tielt,Ronceval,1,50.9957480868,3.31082804178
8700,Tielt,Hazelaarkouter,41,50.9946302902,3.31359539972
8700,Tielt,Astenhove,20,51.0119645303,3.40143100302
8700,Tielt,Blekerijstraat,6,50.9899086971,3.33027256899
8700,Tielt,Sterrestraat,52,50.9952547661,3.41820097889
8700,Tielt,Beernegemstraat,24,50.9954322289,3.33291419597
8700,Tielt,Klijtenstraat,81E,50.9922412654,3.34065067567
8700,Tielt,Oude Stationstraat,41,50.9944433324,3.32735052601
8700,Tielt,Dierdonk,61,50.9833359479,3.33026586425
8700,Tielt,Jozef Baertstraat,4,51.0011119697,3.34089125615
8700,Tielt,Kanegemstraat,48,51.0051713,3.36152313879
8700,Tielt,Deinsesteenweg,1,50.9972179207,3.34807812407
8700,Tielt,Sint-Bavostraat,26,51.0135468044,3.3989900496
8700,Tielt,Felix D'Hoopstraat,189,50.997513676,3.34440167342
8700,Tielt,Deinsesteenweg,270,50.9915292003,3.42828772881
8700,Tielt,Vinktstraat,61,50.9994157725,3.42550827181
8700,Tielt,Stokerijstraat,2,51.0041689104,3.32312409069
8700,Tielt,Appelstraat,17,50.9818694917,3.40637540977
8700,Tielt,Manestraat,33,51.0004519134,3.32057622311
8700,Tielt,Antoon Vander Plaetselaan,24,50.9940691674,3.33687603138
8700,Tielt,Holdestraat,51,50.9941839675,3.31576776246
8700,Tielt,Aarselekapellestraat,2,51.0116253711,3.39898548433
8700,Tielt,Oude Kapellestraat,71,51.0080393331,3.33215067859
8700,Tielt,Kistestraat,1,51.0001660011,3.32346497869
8700,Tielt,Vinktstraat,43,50.9984369205,3.42354143637
8700,Tielt,Hulststraat,12,50.9975724938,3.32932581255
8700,Tielt,Oude Kapellestraat,71A,51.0092802451,3.33043959658
8700,Tielt,Henri D'Hontstraat,27,51.0314467273,3.33481001729
8700,Tielt,Wontergemstraat,7,50.9864088071,3.41984685687
8700,Tielt,Stationstraat,58,50.9917667369,3.32862134125
8700,Tielt,Bevrijdingslaan,14,51.0008858581,3.35140667317
8700,Tielt,Driesstraat,99,50.9936468483,3.34269096881
8700,Tielt,Rozeboomlaan,26,51.0047886699,3.33625563798
8700,Tielt,Oude Stationstraat,76,50.9942660113,3.32849524009
8700,Tielt,Appelstraat,35,50.980502146,3.39401102093
8700,Tielt,Hondstraat,56,51.0041990602,3.31500947094
8700,Tielt,Kasteelstraat,93,50.9924959667,3.32212515139
8700,Tielt,Meerlaantjestraat,8,50.9929198383,3.34542909691
8700,Tielt,Deken Demolstraat,8,50.9994226048,3.31635860429
8700,Tielt,Sint-Michielstraat,66,50.9961052317,3.3238206316
8700,Tielt,Wittestraat,2,50.9924447667,3.32407328839
8700,Tielt,Zwartegevelstraat,9,50.9850609761,3.33118590959
8700,Tielt,Dertig Zilverlingenstraat,39,50.9887368605,3.3302839919
8700,Tielt,Burggraaf Vande Vyverelaan,123,51.0020092959,3.31515215886
8700,Tielt,Kronkelbeekstraat,14,51.0322676301,3.34042312419
8700,Tielt,Kanegemstraat,178,51.0126121768,3.40134581264
8700,Tielt,Beneluxlaan,23,50.9992365107,3.33539943549
8700,Tielt,Steenovenstraat,7,50.9956970144,3.32277994944
8700,Tielt,Ruiseleedsesteenweg,22,51.0055965144,3.34469867542
8700,Tielt,Deken Darraslaan,68,50.9976378373,3.31739706259
8700,Tielt,Willekomstraat,1,51.0319090385,3.3024079316
8700,Tielt,Papenholwegel,16,50.9944233508,3.31873471532
8700,Tielt,Wingensesteenweg,98A,51.0141568354,3.31256376424
8700,Tielt,Neringenstraat,20,51.0120658978,3.40407896538
8700,Tielt,Wingensesteenweg,9,51.0046858456,3.32243717463
8700,Tielt,Wittestraat,16,50.9920733141,3.32403441408
8700,Tielt,Vijverstraat,19,50.9992692038,3.32957370349
8700,Tielt,Euromarktlaan,20,51.0025658081,3.33952050037
8700,Tielt,Stedemolenstraat,86,50.9949793064,3.3173159297
8700,Tielt,Kapelleweg,20,51.0447613156,3.3349105389
8700,Tielt,Kroonstraat,15,50.9932336424,3.32855090818
8700,Tielt,Kasteelstraat,172,50.9910880355,3.31856126518
8700,Tielt,'t Hoge,29,50.9925659286,3.42302674512
8700,Tielt,Felix D'Hoopstraat,17,50.9983348685,3.33329740985
8700,Tielt,Europalaan,1,51.0021184925,3.33211390561
8700,Tielt,Hulstplein,5,50.9974383811,3.3306626771
8700,Tielt,Oude Stationstraat,94,50.9934443921,3.32967345508
8700,Tielt,Oude Kapellestraat,53,51.0066755592,3.33131377324
8700,Tielt,Driesstraat,46,50.9968389091,3.33878788673
8700,Tielt,Nieuwstraat,1,50.9999166809,3.32731698983
8700,Tielt,Deken Darraslaan,28,50.9977245976,3.31972599113
8700,Tielt,Mevrouwmolenstraat,3,51.0208896247,3.41633792378
8700,Tielt,Pittemsesteenweg,42,50.9963727248,3.30657586216
8700,Tielt,Arendstraat,10,50.9827022149,3.33034441312
8700,Tielt,Stoopsmolenweg,7,50.9986863885,3.34281873818
8700,Tielt,Schuiferskapelsesteenweg,22,51.0071189766,3.32659326493
8700,Tielt,Aarselekapellestraat,16,51.0101937608,3.39939201853
8700,Tielt,Hogenhovestraat,23,50.9886901543,3.41991236454
8700,Tielt,Hoogstraat,5,51.0000859325,3.32796432792
8700,Tielt,Manestraat,15,50.9995750808,3.32084458161
8700,Tielt,Keidamstraat,41,50.9998418363,3.3153463344
8700,Tielt,Beukenlaan,7,50.9957351982,3.41634500098
8700,Tielt,Appelstraat,3,50.9846922267,3.41353791999
8700,Tielt,Pastorijstraat,55,50.9955382115,3.42536518325
8700,Tielt,Ter Kouter,7,51.0094396941,3.40049587585
8700,Tielt,Hondstraat,92,51.0030154984,3.31210694152
8700,Tielt,Burggraaf Vande Vyverelaan,105,51.0023136211,3.31605832638
8700,Tielt,Dertig Zilverlingenstraat,7,50.9888513412,3.33144047427
8700,Tielt,Oude Gentweg,25,51.0024644223,3.40853703641
8700,Tielt,Schependomstraat,19,50.9988892196,3.3194196954
8700,Tielt,Bosakkerstraat,71,50.9686880044,3.33433661968
8700,Tielt,Nagelstraat,44,51.0200851453,3.39248744922
8700,Tielt,Mgr. Christiaensstraat,22,50.9990440841,3.31537879147
8700,Tielt,Wingensesteenweg,52,51.0078648257,3.31927903514
8700,Tielt,Jules Van Ooststraat,13,50.9978790161,3.42164011701
8700,Tielt,Montevalstraat,12,50.9955907793,3.34418084921
8700,Tielt,Hogenhovestraat,58,50.985689654,3.41756792015
8700,Tielt,Transvaalstraat,4,50.9961201438,3.41958465018
8700,Tielt,Sint-Michielstraat,84,50.9956194611,3.32443405835
8700,Tielt,Klijtenstraat,55,50.9925632618,3.33657940213
8700,Tielt,Snephoekstraat,6,50.991871549,3.38714540894
8700,Tielt,Sterrestraat,48,50.9951319573,3.41867898262
8700,Tielt,Pastorijstraat,73,50.9947537501,3.42588040786
8700,Tielt,Aarsele-Dorp,9,50.9972447822,3.42340747958
8700,Tielt,Oosthoekstraat,22,51.0181143609,3.41624538479
8700,Tielt,Poelvoordestraat,5,51.0378884532,3.3175606366
8700,Tielt,Hondstraat,21,51.0054196379,3.31825015365
8700,Tielt,Bruwaenestraat,3,51.0099611154,3.33055875053
8700,Tielt,Polderstraat,12,51.030027225,3.36096668339
8700,Tielt,Plantinstraat,5,50.993113145,3.32201550509
8700,Tielt,Dierdonk,43,50.9833703236,3.32945486812
8700,Tielt,Jules Van Ooststraat,31,50.9984584275,3.42105000546
8700,Tielt,Pastorijstraat,20,50.9954315645,3.42487941869
8700,Tielt,Hondstraat,74,51.003808209,3.31390873501
8700,Tielt,Sint-Janstraat,129,51.0028758531,3.33435789629
8700,Tielt,Klijtenstraat,73,50.9931475327,3.33912680899
8700,Tielt,Vercampstraat,7,50.9991854833,3.40588605475
8700,Tielt,Kronkelbeekstraat,32,51.0330406717,3.34035140787
8700,Tielt,Kasteelstraat,190,50.9901998662,3.31840509845
8700,Tielt,Bruwaenestraat,17,51.0121222969,3.33534249167
8700,Tielt,Tulpenlaan,11,51.0037021485,3.31687577636
8700,Tielt,Bosakkerstraat,53,50.9855073747,3.33596473784
8700,Tielt,Klijtenstraat,20,50.9920840696,3.33255469265
8700,Tielt,Biermanstraat,60,51.0344542323,3.33950655004
8700,Tielt,Sneppewegel,13,50.9790654966,3.35644285025
8700,Tielt,Lindenlaan,1,50.9930530413,3.33038483732
8700,Tielt,Deinsesteenweg,187,50.9899364654,3.42616272008
8700,Tielt,Plantinstraat,19,50.9940785481,3.32183981729
8700,Tielt,Felix D'Hoopstraat,22,50.9986345632,3.33344722019
8700,Tielt,Bedevaartstraat,69,50.9873038643,3.33274406999
8700,Tielt,Oude Stationstraat,120,50.9924300186,3.33037285118
8700,Tielt,Kapellestraat,1,51.0025154719,3.3255259912
8700,Tielt,Kanegem-Dorp,5,51.0126489932,3.40246873214
8700,Tielt,Papenholwegel,32,50.9941325797,3.31776370537
8700,Tielt,Ter Kouter,9,51.0094668155,3.40089716231
8700,Tielt,Fonteinestraat,21,51.0020990228,3.31242366994
8700,Tielt,Gross Geraulaan,49,51.0024067053,3.33710854755
8700,Tielt,Axpoelmolenstraat,9,51.0185090673,3.38357046231
8700,Tielt,Jozef Baertstraat,16,51.0002588655,3.34192650061
8700,Tielt,Rijkegemkouterstraat,11,51.013156804,3.34679314741
8700,Tielt,Bosakkerstraat,6,50.9789864775,3.3396196765
8700,Tielt,Kortrijkstraat,38,50.9988578941,3.32754666159
8700,Tielt,Aarselestraat,39,50.9940976726,3.42247405163
8700,Tielt,Steenovenstraat,79,50.9957821986,3.31852392943
8700,Tielt,Burggraaf Vande Vyverelaan,79,51.0033354391,3.31814369146
8700,Tielt,Tulpenlaan,4,51.0044503143,3.31700874036
8700,Tielt,Beernegemstraat,70,50.9929922399,3.3353981618
8700,Tielt,Kastanjelaan,7,50.9879868516,3.33401331955
8700,Tielt,Sint-Michielstraat,72,50.9959550839,3.32394051005
8700,Tielt,Meulebeeksesteenweg,10,50.985287836,3.31400543392
8700,Tielt,Felix D'Hoopstraat,47,50.9982974211,3.33467275456
8700,Tielt,Kanegemstraat,95,51.0053650098,3.374426036
8700,Tielt,Kasteelstraat,81,50.992631233,3.32261700217
8700,Tielt,Stokerijstraat,14,51.0042321096,3.32372154508
8700,Tielt,Schuiferskapelsesteenweg,17,51.0068655749,3.32710417849
8700,Tielt,Sint-Janstraat,122,51.0032860131,3.33495596048
8700,Tielt,Kapellestraat,40,51.0036427036,3.32542211205
8700,Tielt,Marialoopsesteenweg,19,50.9710759722,3.32718555327
8700,Tielt,Burggraaf Vande Vyverelaan,97,51.0024382916,3.31645831676
8700,Tielt,Dierdonk,55,50.9835624589,3.32975225983
8700,Tielt,Ruiseleedsesteenweg,17,51.0045089408,3.34207961815
8700,Tielt,Wakkensesteenweg,7,50.9876538493,3.33699227202
8700,Tielt,Stedemolenstraat,43,50.9960821676,3.31854100088
8700,Tielt,Schuiferskapelsesteenweg,35,51.0119154775,3.33009406289
8700,Tielt,Deinsesteenweg,126,50.9967811958,3.3857653193
8700,Tielt,Tramstraat,84,51.0039436325,3.33363630662
8700,Tielt,Sint-Janstraat,104,51.0030083942,3.3338189585
8700,Tielt,Brugse Heirweg,3,51.0388407182,3.30812600877
8700,Tielt,Baudeloostraat,45,50.99560082,3.42621196443
8700,Tielt,Holdestraat,8,50.991311623,3.3147495354
8700,Tielt,Oude Stationstraat,102,50.9931436097,3.32980846909
8700,Tielt,Henri D'Hontstraat,12,51.0322625734,3.33523183974
8700,Tielt,Feestewegel,3,50.9921033027,3.32715492364
8700,Tielt,Robert Tavernierlaan,1,51.0020504491,3.34195465042
8700,Tielt,Dierdonk,73,50.9833248833,3.33168234525
8700,Tielt,Haantjesstraat,52,51.0146123979,3.41738113401
8700,Tielt,Rozeboomlaan,13,51.0049036463,3.33486158101
8700,Tielt,Westhoekstraat,8,50.9995765761,3.41248713843
8700,Tielt,Julius Hostelaan,13,50.9947416799,3.33619610504
8700,Tielt,Pittemsesteenweg,29B,50.997788869,3.30856465445
8700,Tielt,Appelstraat,22,50.9813290338,3.40553102335
8700,Tielt,Sint-Bavostraat,13,51.0133763939,3.399682615
8700,Tielt,Hulststraat,27,50.997130665,3.3295124048
8700,Tielt,Leukemeersenstraat,31,50.9950757434,3.34520397246
8700,Tielt,Kasteelstraat,63,50.9927098944,3.32326453376
8700,Tielt,Mgr. Christiaensstraat,35,50.9996248841,3.3153738622
8700,Tielt,Meulebeeksesteenweg,2E,50.9871569386,3.3159114526
8700,Tielt,Begonialaan,41,51.0024323168,3.31522714173
8700,Tielt,Hondstraat,82,51.0034779069,3.31321543676
8700,Tielt,Huttegemstraat,5A,50.9970433377,3.31151512026
8700,Tielt,Stationstraat,25,50.9932607056,3.32603105381
8700,Tielt,Wittestraat,32,50.9917059125,3.32390499638
8700,Tielt,Leen te Ludiekstraat,14,50.9953016371,3.44499595555
8700,Tielt,Sint-Amandstraat,15A,50.9727301111,3.33152785616
8700,Tielt,Wakkensesteenweg,20,50.9764483448,3.35165888403
8700,Tielt,Diksmuidse Boterweg,8,51.0032581899,3.32696406003
8700,Tielt,Karnemelkstraat,13,50.9980153327,3.33137377092
8700,Tielt,Oude Kapellestraat,6,51.0058877714,3.32774858779
8700,Tielt,Steenstraat,28,50.996309296,3.32774700339
8700,Tielt,Wakkensesteenweg,73,50.9708958411,3.35728051262
8700,Tielt,Keizerstraat,25,51.0246854397,3.39824693701
8700,Tielt,Kistestraat,33,50.9994908017,3.32094078098
8700,Tielt,Galgenveldstraat,4,50.9982413613,3.3465783277
8700,Tielt,Kruiswegestraat,11,51.0072727947,3.39290575686
8700,Tielt,Wingensesteenweg,100,51.0143197459,3.31237467962
8700,Tielt,Abeelstraat,21,50.9781227596,3.32423635247
8700,Tielt,Wingensesteenweg,69A,51.0114768031,3.31783607411
8700,Tielt,Mankemerriestraat,11,50.981864552,3.35643498614
8700,Tielt,Mgr. Van Hovestraat,1,50.9971595409,3.31634743186
8700,Tielt,Oosthoekstraat,17,51.0145025569,3.40574510992
8700,Tielt,Sint-Janstraat,64,51.0020481446,3.33126144775
8700,Tielt,Stedemolenstraat,61,50.9958424508,3.31786114007
8700,Tielt,Sint-Michielstraat,90,50.995120088,3.32489263925
8700,Tielt,Europalaan,15,51.0010981144,3.33247969152
8700,Tielt,Vinktstraat,86,51.0005841103,3.42972883954
8700,Tielt,Astenhove,19,51.0114202859,3.40217556429
8700,Tielt,Luxemburglaan,11,51.001641602,3.33729692655
8700,Tielt,Pontweg,60,51.004365171,3.33570414498
8700,Tielt,Bevrijdingslaan,16,51.0010910889,3.35112467893
8700,Tielt,Driesstraat,4,50.9981137444,3.33414953912
8700,Tielt,Dwangstraat,1,50.9927106546,3.3291163551
8700,Tielt,Rozeboomlaan,9,51.0050047478,3.33429453278
8700,Tielt,Deinsesteenweg,33,50.9949067286,3.37277068769
8700,Tielt,Ronceval,15,50.9951288111,3.31006319957
8700,Tielt,Krommewalstraat,4,51.0004483908,3.32413514597
8700,Tielt,Mgr. Christiaensstraat,17,50.9991773322,3.3157725758
8700,Tielt,Pastorijstraat,101,50.9929859788,3.42657548783
8700,Tielt,Leukemeersenstraat,13,50.9936626539,3.34550889781
8700,Tielt,Jules Van Ooststraat,26,50.9986553472,3.42013980234
8700,Tielt,Sint-Bavostraat,9,51.0133153276,3.40019321033
8700,Tielt,Sint-Janstraat,11,51.0004283299,3.32902926474
8700,Tielt,Driesstraat,28,50.997292337,3.33732665076
8700,Tielt,Lindenlaan,19,50.993567853,3.3317770187
8700,Tielt,Stokerijstraat,32,51.0046857672,3.32464642641
8700,Tielt,Wittestraat,14,50.9921116245,3.32401561204
8700,Tielt,Blauwvoetstraat,11,50.9829376209,3.3297894596
8700,Tielt,Zwartegevelstraat,7,50.9849822464,3.33118850602
8700,Tielt,Pontweg,42,51.0047219313,3.33378383427
8700,Tielt,Papenholwegel,14,50.9945449216,3.31871746226
8700,Tielt,Papenholwegel,49,50.9940294411,3.31624161627
8700,Tielt,Oosthoekstraat,35,51.022174509,3.43333328185
8700,Tielt,Julius Hostelaan,9,50.9944128029,3.33606018068
8700,Tielt,Jules Van Ooststraat,2,50.9972263311,3.42121266895
8700,Tielt,Kasteelstraat,224,50.9876004955,3.32081648086
8700,Tielt,Hoogstraat,20,50.9998880825,3.32912658678
8700,Tielt,Europalaan,33,51.0002583124,3.33155522873
8700,Tielt,Kauwstraat,8,50.9829040736,3.33180629867
8700,Tielt,Oude Gentweg,3,51.0003176236,3.41632685241
8700,Tielt,Gruuthusestraat,5,50.9900612215,3.33253330061
8700,Tielt,Wakkensesteenweg,55,50.9749988512,3.3511349719
8700,Tielt,Klokkestraat,15,51.0303350578,3.33387010495
8700,Tielt,Nieuwstraat,33,50.9989027013,3.3282118496
8700,Tielt,Poekebeekbron,5,51.0007324501,3.31409819161
8700,Tielt,Steenstraat,4,50.9970974729,3.32690620838
8700,Tielt,Stedemolenstraat,8,50.9970393183,3.32125385537
8700,Tielt,Hulstplein,20,50.9980028804,3.33173590948
8700,Tielt,Hoogstraat,73,50.9988364002,3.33097734951
8700,Tielt,Egemsesteenweg,33,50.9997875517,3.30979585952
8700,Tielt,Aarselekapellestraat,14,51.0104955923,3.39937537382
8700,Tielt,Sint-Janstraat,46,51.0017258211,3.33046216078
8700,Tielt,Ter Booye,25,50.9926011728,3.31214434224
8700,Tielt,Arendstraat,1,50.9817964137,3.33072535211
8700,Tielt,Kistestraat,15,50.999931118,3.32251636678
8700,Tielt,Deinsesteenweg,68,50.9962046042,3.36616135579
8700,Tielt,Goed te Karelsstraat,5,50.9871726285,3.37061943376
8700,Tielt,Putterijstraat,24,50.9763193956,3.36084002087
8700,Tielt,Wingensesteenweg,77,51.0174547964,3.31130062994
8700,Tielt,Markt,33,51.0000930433,3.32671511604
8700,Tielt,Volderstraat,31,50.9966173626,3.32148010974
8700,Tielt,Egemsesteenweg,86,51.0016714681,3.30372236924
8700,Tielt,Kasteelstraat,35,50.9934870538,3.32474053148
8700,Tielt,Schuiferskapelsesteenweg,63,51.0223394382,3.33509777895
8700,Tielt,Deken Darraslaan,61,50.9981250961,3.31458196652
8700,Tielt,Berkenlaan,8,50.9958674741,3.41770619814
8700,Tielt,Felix D'Hoopstraat,75,50.9982519587,3.33566917018
8700,Tielt,Schuiferskapelsesteenweg,47,51.0200305793,3.33283825272
8700,Tielt,Axpoelmolenstraat,13,51.0189093227,3.37999015281
8700,Tielt,Gross Geraulaan,14,51.0021211885,3.33498720441
8700,Tielt,Hogenhovestraat,71,50.9844208101,3.41685462452
8700,Tielt,Ruiseleedsesteenweg,63,51.0141491215,3.3656597736
8700,Tielt,Kerkebosstraat,8,50.9983556601,3.37149030805
8700,Tielt,Vijverstraat,20,50.9992668311,3.32926416952
8700,Tielt,Neringenstraat,19,51.0123326427,3.40511335228
8700,Tielt,Azalealaan,21,51.004496354,3.31858132139
8700,Tielt,Beneluxlaan,71,51.0011199368,3.33842897065
8700,Tielt,Bedevaartstraat,34,50.9892490622,3.33284965769
8700,Tielt,Sint-Michielstraat,2,50.9974767491,3.32212066556
8700,Tielt,Kanegemstraat,165B,51.0113293552,3.39751497657
8700,Tielt,Drie Wilgen,17,51.0322492416,3.33877071673
8700,Tielt,Zwartegevelstraat,18,50.9850491934,3.33198105191
8700,Tielt,Deken Darraslaan,11,50.9981900077,3.32018999115
8700,Tielt,Seyntexlaan,22,50.9860928073,3.33439865146
8700,Tielt,Molenweg,39,51.0002125917,3.42590754124
8700,Tielt,Polderstraat,7,51.0273546134,3.36254180115
8700,Tielt,Karmstraat,89,50.9889399028,3.39378321879
8700,Tielt,Stokerijstraat,60,51.0052779608,3.32553162302
8700,Tielt,Grote Hulststraat,39,50.9954855204,3.32958633677
8700,Tielt,Ter Kouter,22,51.0105560679,3.40171244089
8700,Tielt,Felix D'Hoopstraat,152,50.998149574,3.34111505294
8700,Tielt,Hoogstraat,55,50.9991901811,3.33016456613
8700,Tielt,Oude Kapellestraat,23,51.0059955285,3.32915941198
8700,Tielt,Hollandlaan,11,51.0011294938,3.33637939864
8700,Tielt,Huffeselestraat,31,50.9867648625,3.32519698691
8700,Tielt,Meulebeeksesteenweg,46,50.9792438546,3.31999465496
8700,Tielt,Sint-Michielstraat,26,50.9969591895,3.32271688702
8700,Tielt,Volderstraat,13,50.9972581072,3.31986735321
8700,Tielt,Aarselestraat,50,50.9924493423,3.42092658527
8700,Tielt,Oude Pittemstraat,41,50.9962242495,3.3100736513
8700,Tielt,Markt,15,51.0005690028,3.32747047508
8700,Tielt,Deinsesteenweg,86,50.9968186239,3.37066980131
8700,Tielt,Kanegem-Dorp,16,51.013521275,3.40279747848
8700,Tielt,Dosseweg,6,51.0263337172,3.33420424306
8700,Tielt,Peperstraat,2,51.0012580083,3.32480184413
8700,Tielt,Drie Wilgen,35,51.0324852929,3.33708290984
8700,Tielt,Vinktstraat,68,51.0002782239,3.4281452836
8700,Tielt,Ruiseleedsesteenweg,47,51.009817014,3.36046228146
8700,Tielt,Schoolstraat,7,50.9978385156,3.41710761987
8700,Tielt,Rozenlaan,27,51.00324049,3.31514372187
8700,Tielt,Hondstraat,36,51.0046939239,3.31621176196
8700,Tielt,Kasteelstraat,17,50.9939649931,3.32508873015
8700,Tielt,Hogenhovestraat,53,50.9863751752,3.41883131243
8700,Tielt,Manestraat,8,50.9991087479,3.32080172166
8700,Tielt,Vinktstraat,3,50.9974691648,3.4220754965
8700,Tielt,Beneluxlaan,53,51.0002401928,3.3374755037
8700,Tielt,Rozenlaan,7,51.0027498504,3.31393255033
8700,Tielt,Felix D'Hoopstraat,57,50.9982566615,3.33500659766
8700,Tielt,Tramstraat,38,51.0020085611,3.32909751343
8700,Tielt,Bruggestraat,39,51.0017627039,3.32608002508
8700,Tielt,Kronkelbeekstraat,40,51.0332727487,3.33966709621
8700,Tielt,Leo D'Hulsterlaan,18,50.9933515619,3.3418185059
8700,Tielt,Felix D'Hoopstraat,170,50.998043205,3.34405274539
8700,Tielt,Karmstraat,2,50.9920492237,3.41263508759
8700,Tielt,Sint-Michielstraat,125,50.9946019096,3.32488309239
8700,Tielt,Transvaalstraat,21,50.9961533789,3.41866726089
8700,Tielt,Stationstraat,71,50.9922110769,3.3274783087
8700,Tielt,Pastorijstraat,19,50.9971663987,3.42442793995
8700,Tielt,Biermanstraat,34,51.0338362343,3.33744623743
8700,Tielt,Kortrijkstraat,127,50.9950277541,3.32544970698
8700,Tielt,Tenhovestraat,15,50.9816798738,3.33622063534
8700,Tielt,Robert Schumanstraat,29,50.9987261464,3.33795273794
8700,Tielt,Baudeloostraat,17,50.9958990269,3.42318645189
8700,Tielt,Strichtensgoedstraat,5,51.0312982804,3.42164088731
8700,Tielt,Kanegemstraat,181,51.0119106226,3.40030802616
8700,Tielt,Eikenlaan,3,50.9962120823,3.41569724432
8700,Tielt,Hooitstraat,7,51.0213188087,3.32035704461
8700,Tielt,Karnemelkstraat,9,50.9981074116,3.33138640749
8700,Tielt,Dierdonk,27,50.9840637364,3.32967008478
8700,Tielt,Tulpenlaan,28,51.0029617681,3.31793691949
8700,Tielt,Baudeloostraat,35,50.9958862435,3.4246293713
8700,Tielt,Deinsesteenweg,190,50.9930607098,3.4094677718
8700,Tielt,Plantinstraat,20,50.9947659782,3.32170437715
8700,Tielt,Hondstraat,18,51.005485301,3.31949446214
8700,Tielt,Sint-Janstraat,36,51.0013227589,3.32945879658
8700,Tielt,Pastorijstraat,37,50.9964296317,3.42487015416
8700,Tielt,Oude Kapellestraat,58,51.0073301421,3.33139817646
8700,Tielt,Klijtenstraat,19,50.9919152527,3.33351695059
8700,Tielt,Felix D'Hoopstraat,93,50.9981569852,3.33692567696
8700,Tielt,Bruggestraat,50,51.0018210924,3.32442128522
8700,Tielt,Kortrijkstraat,115,50.9954586277,3.32545792636
8700,Tielt,Klijtenstraat,37,50.9920458116,3.33453228337
8700,Tielt,Kasteelstraat,134,50.9915776148,3.31963816427
8700,Tielt,Kasteelstraat,169,50.9902187878,3.31519060222
8700,Tielt,Kastanjelaan,27,50.9882428155,3.33629861194
8700,Tielt,Stationstraat,53,50.9927034058,3.32694387238
8700,Tielt,Meerlaantjestraat,21,50.9928910569,3.34629667475
8700,Tielt,Alfons De Vlamyncklaan,10,50.9949385723,3.33925657329
8700,Tielt,Generaal Maczekplein,5,51.0023361462,3.32757028217
8700,Tielt,Vrouwenstraat,5,50.9964306443,3.42257697742
8700,Tielt,Kanegemstraat,100,51.0074184309,3.38567448831
8700,Tielt,Kanegemstraat,77,51.0049118985,3.36830975837
8700,Tielt,Begonialaan,6,51.0032150753,3.31637320063
8700,Tielt,Jan Vinckestraat,4B,51.0333269464,3.33285361945
8700,Tielt,Gruuthusestraat,16,50.9904799509,3.33249983198
8700,Tielt,Kanegemstraat,163,51.0112202325,3.39657955969
8700,Tielt,Henri D'Hontstraat,30,51.0316886196,3.33576031314
8700,Tielt,Hondstraat,34A,51.0047892348,3.31662611079
8700,Tielt,Poekebeekbron,16,51.0006673386,3.3131224249
8700,Tielt,Hulstplein,27,50.9978086105,3.33208340513
8700,Tielt,Stoktmolenstraat,32,50.9937681929,3.32920287984
8700,Tielt,Bedevaartstraat,52,50.9886808841,3.33327769915
8700,Tielt,Hazelaarkouter,53,50.994241328,3.31340884764
8700,Tielt,Bruggestraat,49,51.0019347365,3.32473676421
8700,Tielt,Klijtenstraat,118,50.9924002125,3.34211398236
8700,Tielt,Sint-Janstraat,139,51.0029466551,3.33466053032
8700,Tielt,Schuiferskapelsesteenweg,10,51.0058905282,3.32637321439
8700,Tielt,Ervestraat,3,51.0210053999,3.36353733418
8700,Tielt,Meulebeeksesteenweg,17,50.9882622219,3.31408908661
8700,Tielt,Ter Booye,43,50.9929693104,3.31085256277
8700,Tielt,Holdestraat,25,50.9921797676,3.31534967134
8700,Tielt,Sint-Michielstraat,48,50.9964310125,3.32338328043
8700,Tielt,Ruiseleedsesteenweg,59A,51.0137139497,3.36531480087
8700,Tielt,Vinktstraat,15,50.9978090553,3.42240912006
8700,Tielt,Rozeboomlaan,1A,51.005214663,3.33313874278
8700,Tielt,Nagelstraat,14,51.0129581269,3.39791773216
8700,Tielt,Wingensesteenweg,24,51.0054125506,3.32095602876
8700,Tielt,Waterstraat,7,50.9963270931,3.42349621368
8700,Tielt,Meulebeeksesteenweg,35,50.9835444131,3.31276412583
8700,Tielt,Moordhoekstraat,7,50.9727356751,3.34560556998
8700,Tielt,Karmstraat,26,50.9908297064,3.41093783018
8700,Tielt,Kasteelstraat,116,50.9918515102,3.32074497724
8700,Tielt,Galgenveldstraat,21,51.001721282,3.34458172266
8700,Tielt,Steenstraat,56,50.9954532695,3.32829623895
8700,Tielt,Sterrestraat,24,50.9957659593,3.42040097393
8700,Tielt,Pastorijstraat,12,50.9970924249,3.42394762799
8700,Tielt,Uitpachtstraat,4,50.9982105696,3.39023125893
8700,Tielt,B.A. Guilbertlaan,5,51.0329412238,3.32245908468
8700,Tielt,Bedevaartstraat,70,50.9879806101,3.33317066798
8700,Tielt,Papenholwegel,39,50.9941767144,3.31668604486
8700,Tielt,Krommewalstraat,56,51.0022194925,3.3212898442
8700,Tielt,Beernegemstraat,69,50.9934558319,3.33415716077
8700,Tielt,Robert Schumanstraat,22,50.9989546627,3.33854750582
8700,Tielt,Deken Darraslaan,8,50.9977229461,3.32075192007
8700,Tielt,Westhoekstraat,25,50.9962299802,3.40372325604
8700,Tielt,Pieter Simonsstraat,4,50.9899501956,3.32430378294
8700,Tielt,Rijkegemkouterstraat,18,51.0203282202,3.34915773603
8700,Tielt,Felix D'Hoopstraat,195,50.997462598,3.34492705606
8700,Tielt,Dertig Zilverlingenstraat,16,50.9886053642,3.33156171698
8700,Tielt,Vinktstraat,33,50.9984939227,3.42284819272
8700,Tielt,Sint-Michielstraat,89,50.9953122897,3.32418262429
8700,Tielt,Driesstraat,21,50.9973795793,3.33598770939
8700,Tielt,Marialoopsesteenweg,30,50.9681733904,3.32837917441
8700,Tielt,Egemsesteenweg,65,51.00239351,3.30406629644
8700,Tielt,Oude Stationstraat,119,50.9922241684,3.32994721621
8700,Tielt,Klijtenstraat,12,50.9919174277,3.33236436211
8700,Tielt,Mevrouwmolenstraat,10,51.0274270983,3.4096806674
8700,Tielt,Kanegemstraat,42,51.0051047124,3.3607173831
8700,Tielt,Hazelaarkouter,6,50.9936225872,3.3149591291
8700,Tielt,Wakkensesteenweg,27,50.9859124216,3.33832939429
8700,Tielt,Stokerijstraat,39,51.0047032371,3.32623262221
8700,Tielt,Sint-Janstraat,18,51.0007899807,3.32867118455
8700,Tielt,Haantjesstraat,34,51.0010303734,3.42075410283
8700,Tielt,Jules Van Ooststraat,9,50.9977087103,3.42172476085
8700,Tielt,Feestewegel,68,50.9909630804,3.32498062413
8700,Tielt,Keibosstraat,6,50.9890865128,3.40494978707
8700,Tielt,Herderstraat,8,50.9827559432,3.33545850027
8700,Tielt,Tramstraat,13,51.0010186538,3.32801642512
8700,Tielt,Wingensesteenweg,135,51.0323238288,3.30448544368
8700,Tielt,Kasteelhoevestraat,7,51.0238212599,3.40990755803
8700,Tielt,Rozeboomlaan,2,51.0055203995,3.33283076732
8700,Tielt,Boerkestraat,5,50.9932935015,3.42538299338
8700,Tielt,Putterijstraat,42,50.977398225,3.36470342487
8700,Tielt,Sint-Michielstraat,107,50.9949757753,3.32457575192
8700,Tielt,Stedemolenstraat,96,50.9947939748,3.31665652397
8700,Tielt,Poekestraat,5,51.0018315811,3.42968932136
8700,Tielt,Aarselestraat,14,50.9951005535,3.42175521502
8700,Tielt,Willem Pantinlaan,11,50.9940890698,3.32984720728
8700,Tielt,Jules Van Ooststraat,48,50.9993374147,3.41770020689
8700,Tielt,Artemeersstraat,1,51.0192814869,3.44066037131
8700,Tielt,Rameplein,24,50.9988398399,3.32873852574
8700,Tielt,Stedemolenstraat,25,50.9965184105,3.31944369539
8700,Tielt,Pittemsesteenweg,34,50.9966076865,3.30717970725
8700,Tielt,Tramstraat,31,51.0020024274,3.33012406077
8700,Tielt,Wontergemstraat,16,50.9876949266,3.42371720649
8700,Tielt,Sneppewegel,9,50.9786472852,3.35763541481
8700,Tielt,Driesstraat,74,50.995898031,3.34101140128
8700,Tielt,Pontweg,24,51.0050364936,3.33202643492
8700,Tielt,Hollandlaan,8,51.0015451842,3.33592771267
8700,Tielt,Kanegemstraat,4,51.0030884974,3.34655028891
8700,Tielt,Hulststraat,20,50.9973884889,3.32967436983
8700,Tielt,Bosakkerstraat,23,50.9862701087,3.33560867164
8700,Tielt,Kleine Valkstraat,3,50.981649112,3.32985417758
8700,Tielt,Tenhovestraat,4,50.9814925231,3.34002967221
8700,Tielt,Desirè De Somvielelaan,5,50.9946469362,3.33892749442
8700,Tielt,Oude Pittemstraat,6,50.9956797307,3.31737771977
8700,Tielt,Alfons De Vlamyncklaan,7,50.9947351823,3.34034270454
8700,Tielt,Euromarktlaan,12,51.0031079951,3.33883195374
8700,Tielt,Joris Minnaertlaan,12,50.993327681,3.34043183829
8700,Tielt,Neringenstraat,12,51.0124021891,3.40383533877
8700,Tielt,Kapelleweg,19,51.0447027533,3.33484466332
8700,Tielt,Wielmakerstraat,8,50.9939267662,3.35389930694
8700,Tielt,Burggraaf Vande Vyverelaan,80,51.0022636888,3.3171004001
8700,Tielt,Stoktmolenstraat,14,50.9945121249,3.32899022482
8700,Tielt,Nagelstraat,32,51.0188835679,3.39117599799
8700,Tielt,Schuiferskapelsesteenweg,45,51.0198631492,3.33275215866
8700,Tielt,Steenstraat,21,50.9962033988,3.32748323867
8700,Tielt,'t Hoge,7,50.9921503418,3.42406985157
8700,Tielt,Feestewegel,15,50.991592724,3.32684604613
8700,Tielt,Meersstraat,2,51.0306830153,3.4067919803
8700,Tielt,Driesstraat,92,50.9927984474,3.34328745246
8700,Tielt,Astenhove,30,51.0114872452,3.401254029
8700,Tielt,Lindenlaan,65,50.9947584282,3.33234202133
8700,Tielt,Wilgenlaan,12,50.9972437922,3.41589039243
8700,Tielt,Stedemolenstraat,78,50.9952272104,3.31768389436
8700,Tielt,Burggraaf Vande Vyverelaan,111,51.0021903577,3.31569520852
8700,Tielt,Pontweg,59,51.0044055751,3.33361000529
8700,Tielt,Deken Demolstraat,1,50.9990316737,3.31646411657
8700,Tielt,Ieperstraat,25,50.9996543081,3.32396321109
8700,Tielt,Luxemburglaan,18,51.0020732478,3.33729099122
8700,Tielt,Wingensesteenweg,117,51.031082805,3.30475813897
8700,Tielt,Meerlaantjestraat,1,50.9923334644,3.34369790108
8700,Tielt,Schuiferskapelle-Dorp,17,51.033423054,3.3333452263
8700,Tielt,Deinsesteenweg,90A,50.9959650122,3.37016928078
8700,Tielt,Gruuthusestraat,80,50.9890199453,3.33570818715
8700,Tielt,Dosseweg,23,51.0260906398,3.32088020643
8700,Tielt,Henri D'Hontstraat,1,51.0325721191,3.33428190456
8700,Tielt,Neringenstraat,30,51.0111144371,3.40468552018
8700,Tielt,Platanenlaan,32,50.9963964069,3.4183928047
8700,Tielt,Lindenlaan,12,50.9936071669,3.33083140491
8700,Tielt,Sint-Michielstraat,9,50.9969825154,3.32185175922
8700,Tielt,Kasteelstraat,162,50.9910460634,3.31890521268
8700,Tielt,Drie Wilgen,10,51.0318114921,3.33714336968
8700,Tielt,Deken Darraslaan,78,50.9974882947,3.31684922063
8700,Tielt,Steenovenstraat,16,50.9953318987,3.31972496478
8700,Tielt,Dertig Zilverlingenstraat,44,50.9882819908,3.33028680101
8700,Tielt,Biermanstraat,5,51.0330250783,3.33567082124
8700,Tielt,Peperstraat,9,51.0012756952,3.32452547445
8700,Tielt,'t Kamp,10,51.0122212114,3.310131281
8700,Tielt,Kastanjelaan,20,50.9883230492,3.33511519453
8700,Tielt,Bruggestraat,14,51.00074159,3.32590384196
8700,Tielt,Hogenhovestraat,6A,50.9895699448,3.41771170293
8700,Tielt,Meulebeeksesteenweg,63,50.9782284654,3.31102840213
8700,Tielt,Ruiseleedsesteenweg,45,51.0089458675,3.35830906169
8700,Tielt,Meikestraat,13,50.9817717717,3.38206450337
8700,Tielt,Schependomstraat,27,50.9996712567,3.31925801028
8700,Tielt,Kortrijkstraat,84,50.9968283005,3.32618378002
8700,Tielt,Zwanestraat,9,50.9816044103,3.33198257698
8700,Tielt,Ruiseleedsesteenweg,7A,51.0041729677,3.33990411742
8700,Tielt,Stationsplein,20,50.9908145979,3.3287222305
8700,Tielt,Holdestraat,61,50.9944079272,3.31581002784
8700,Tielt,Leiaardsboomstraat,14,50.9945630788,3.31747811872
8700,Tielt,Appelstraat,40,50.9803349401,3.38872878763
8700,Tielt,Dentergemstraat,14,50.9845743759,3.36203984884
8700,Tielt,Wontergemstraat,10A,50.9872373688,3.42062357376
8700,Tielt,Veldstraat,14,51.0334198674,3.34189798781
8700,Tielt,Axpoelmolenstraat,1A,51.0097526474,3.39153999513
8700,Tielt,Ruiseleedsesteenweg,98,51.0224188309,3.37580713439
8700,Tielt,Dertig Zilverlingenstraat,62,50.9880399329,3.32940550038
8700,Tielt,Azalealaan,13,51.0042841905,3.31808751874
8700,Tielt,Rijkegemkouterstraat,8,51.0140938914,3.34565169625
8700,Tielt,Plantinstraat,27,50.9946621783,3.32258806955
8700,Tielt,Deken Darraslaan,96,50.9977761234,3.31514656853
8700,Tielt,Wingensesteenweg,42,51.0070627989,3.32014340433
8700,Tielt,Hof te Perremans,6,51.0005522059,3.31751677689
8700,Tielt,Karmstraat,72,50.9893327608,3.39856010381
8700,Tielt,Beernegemstraat,34,50.9952518173,3.33330452611
8700,Tielt,Sint-Bavostraat,2,51.013395693,3.40135229992
8700,Tielt,Bosakkerstraat,41,50.985857083,3.33531909787
8700,Tielt,Deken Darraslaan,18,50.9977188467,3.32032176683
8700,Tielt,Sterrestraat,60,50.9943672824,3.41699843694
8700,Tielt,Boonensbosstraat,3,51.0052386288,3.43919650231
8700,Tielt,Roosbeekdreef,1,50.9628336792,3.34858681257
8700,Tielt,Gross Geraulaan,39,51.0025297282,3.33632334343
8700,Tielt,Zwartegevelstraat,11,50.9851707213,3.33099975097
8700,Tielt,Oude Pittemstraat,58,50.9955959891,3.31348405969
8700,Tielt,Gruuthusestraat,44,50.9901120309,3.33420116744
8700,Tielt,Astenhove,12,51.0115942397,3.40164998026
8700,Tielt,Jozef Samynlaan,3,50.9941804559,3.33960713117
8700,Tielt,Grote Hulststraat,32,50.9961336342,3.32965032489
8700,Tielt,Biermanstraat,52,51.0343104862,3.33906430071
8700,Tielt,Jozef Baertstraat,5B,51.0007986214,3.338982278
8700,Tielt,Vinktstraat,108,51.0009951065,3.43147558194
8700,Tielt,Feestewegel,86,50.9908331107,3.32417272517
8700,Tielt,Ten Broucken,9,51.0113977078,3.4033796242
8700,Tielt,Brunicolaan,10,51.0016351924,3.33373885455
8700,Tielt,Pastorijstraat,30,50.9947353775,3.42541609426
8700,Tielt,Pastorijstraat,83,50.9942857183,3.42603497767
8700,Tielt,Meulebeeksesteenweg,7,50.9893143495,3.31474414814
8700,Tielt,Gavermeersstraat,8,50.98399391,3.42545710716
8700,Tielt,Hondstraat,64,51.0040002773,3.3145257877
8700,Tielt,Keidamstraat,53,50.9998797282,3.31596438087
8700,Tielt,Felix D'Hoopstraat,124,50.9981726402,3.34022527438
8700,Tielt,Rozenlaan,20,51.0034731342,3.31468981446
8700,Tielt,Kronkelbeekstraat,22,51.0326485016,3.34064644173
8700,Tielt,Driesstraat,56,50.9961238478,3.34006308247
8700,Tielt,Kasteelstraat,45,50.99319488,3.3244467497
8700,Tielt,Deken Darraslaan,36,50.997717292,3.31946102683
8700,Tielt,Felix D'Hoopstraat,177,50.9973714949,3.34352834438
8700,Tielt,Hondstraat,46,51.0044791543,3.31558850662
8700,Tielt,Felix D'Hoopstraat,106,50.9984163268,3.33820658736
8700,Tielt,Deinsesteenweg,244,50.9922618908,3.41983126066
8700,Tielt,Pastorijstraat,65,50.9951183028,3.42579244802
8700,Tielt,Luxemburglaan,8,51.0017058287,3.33677803742
8700,Tielt,Bedevaartstraat,105,50.9862886332,3.33264315413
8700,Tielt,Kortrijkstraat,13,50.9993345537,3.32597332258
8700,Tielt,Oude Gentweg,15,51.0015370702,3.41167807313
8700,Tielt,Henri D'Hontstraat,37,51.0306042222,3.33525359656
8700,Tielt,Appelstraat,29,50.9827657064,3.3998784439
8700,Tielt,Bruggestraat,85,51.0029322845,3.32449569707
8700,Tielt,Leukemeersenstraat,38,50.9944692806,3.34461477084
8700,Tielt,Molenweg,14,50.9998945949,3.42256434423
8700,Tielt,Kortrijkstraat,66,50.9974250709,3.32705891568
8700,Tielt,Kasteelstraat,180,50.99087321,3.31839400376
8700,Tielt,Tulpenlaan,21,51.0032097767,3.31724929886
8700,Tielt,Karnemelkstraat,2,50.9983939049,3.33182328295
8700,Tielt,Brugstokwegel,12,51.0321728159,3.33210626893
8700,Tielt,Leo D'Hulsterlaan,11,50.9932213055,3.34102619751
8700,Tielt,Oostweg,20,50.9955026791,3.3448216977
8700,Tielt,Drie Wilgen,45,51.0327301549,3.33684427095
8700,Tielt,Putterijstraat,4,50.9748920779,3.35726981039
8700,Tielt,Uitpachtstraat,16A,50.9986064541,3.39089857052
8700,Tielt,Gruuthusestraat,62,50.9900860517,3.33647482349
8700,Tielt,Bruggestraat,32,51.0012680134,3.32518003722
8700,Tielt,Bilkbosstraat,31,51.0412882464,3.32431476914
8700,Tielt,Begonialaan,23,51.0025848324,3.31465963524
8700,Tielt,Platanenlaan,14,50.9971414424,3.41766383187
8700,Tielt,Kortrijkstraat,31,50.9988170876,3.32667366699
8700,Tielt,Mankemerriestraat,8,50.9823603208,3.3565466218
8700,Tielt,Oude Stationstraat,53,50.994203091,3.32775387937
8700,Tielt,Ter Booye,5,50.9924140412,3.31446521151
8700,Tielt,Oude Kapellestraat,41,51.0065719632,3.33046353742
8700,Tielt,Klijtenstraat,30,50.9924753694,3.33378734507
8700,Tielt,Ondankstraat,20,51.0089550913,3.37471025694
8700,Tielt,Wielmakerstraat,18,50.9902904478,3.36292162929
8700,Tielt,Biermanstraat,70,51.0370527563,3.34460444863
8700,Tielt,Bedevaartstraat,5,50.990372695,3.3315090928
8700,Tielt,Grote Hulststraat,49,50.9959353711,3.33024763545
8700,Tielt,Marialoopsesteenweg,12,50.9785533667,3.33222674597
8700,Tielt,Ervestraat,2A,51.0162722708,3.36350987357
8700,Tielt,Felix D'Hoopstraat,29,50.9983666555,3.33382483227
8700,Tielt,'t Hoge,17,50.9934353233,3.42311462336
8700,Tielt,Sterrestraat,42,50.9953627548,3.41920623495
8700,Tielt,Veldstraat,32,51.0289082578,3.34608903805
8700,Tielt,Hondstraat,11,51.0059016698,3.3194589238
8700,Tielt,Klijtenstraat,83,50.9922005003,3.34100640713
8700,Tielt,Sint-Michielstraat,54,50.9962964279,3.32357518423
8700,Tielt,Stoktmolenstraat,5,50.9948925043,3.32835056517
8700,Tielt,Hulstplein,10,50.9978926212,3.33077214777
8700,Tielt,Vijfpachtgoenstraat,7,51.0166278903,3.30449229199
8700,Tielt,Ruiseleedsesteenweg,27,51.0079006967,3.35356284724
8700,Tielt,Haantjesstraat,44,51.001934276,3.42024870174
8700,Tielt,Blauwvoetstraat,8,50.9824703377,3.32907888853
8700,Tielt,Mgr. Christiaensstraat,27,50.9993877319,3.31556525717
8700,Tielt,Ieperstraat,71,50.9983650811,3.32182074348
8700,Tielt,Begonialaan,51,51.0026347437,3.31572654515
8700,Tielt,Europalaan,23,51.0008642142,3.33247161171
8700,Tielt,Schuiferskapelsesteenweg,1,51.0057705878,3.32685920598
8700,Tielt,Deinsesteenweg,136,50.9944143092,3.38890047988
8700,Tielt,Marialoopsesteenweg,3,50.9787614828,3.33173653792
8700,Tielt,Stedemolenstraat,53,50.9959445044,3.31822568675
8700,Tielt,Pontweg,39,51.0044850263,3.33226888776
8700,Tielt,Bruggestraat,42,51.0015808117,3.32472783399
8700,Tielt,Brignoleslaan,39,51.0006811356,3.33589431821
8700,Tielt,Marialoopsesteenweg,29,50.9698241318,3.32401448973
8700,Tielt,Felix D'Hoopstraat,12,50.9986975533,3.33300432138
8700,Tielt,Oude Stationstraat,130,50.9920436373,3.33055733066
8700,Tielt,Oude Gentweg,41,51.0073207622,3.38649943181
8700,Tielt,Sint-Janstraat,8,51.0006114113,3.32818973813
8700,Tielt,Deinsesteenweg,23,50.9959580194,3.35945995722
8700,Tielt,Felix D'Hoopstraat,116,50.9983235269,3.33910816098
8700,Tielt,Stokerijstraat,24,51.0044911092,3.32431919799
8700,Tielt,Schuiferskapelsesteenweg,27,51.0079838928,3.3275172171
8700,Tielt,Sint-Michielstraat,82,50.9956388305,3.32433732479
8700,Tielt,Brugstokwegel,3,51.0328889745,3.33288597286
8700,Tielt,Oude Pittemstraat,25,50.9958833925,3.31316232731
8700,Tielt,Transvaalstraat,13,50.9963647106,3.4192889415
8700,Tielt,Kerkstraat,5,51.000931687,3.32524978555
8700,Tielt,Lindenlaan,40,50.9949685636,3.33154004716
8700,Tielt,Stedemolenstraat,71,50.995268039,3.3171518963
8700,Tielt,Kortrijkstraat,28,50.999118068,3.32698810259
8700,Tielt,Vredestraat,10,50.9945486859,3.326882072
8700,Tielt,Meerlaantjestraat,13,50.9925058875,3.34535066763
8700,Tielt,Sint-Janstraat,132,51.0035831836,3.33587369171
8700,Tielt,Kistestraat,23,50.9997813781,3.32206493975
8700,Tielt,Dierdonk,45,50.9832659364,3.32944322417
8700,Tielt,Sint-Amandstraat,14A,50.9667192646,3.34997684978
8700,Tielt,Appelstraat,12,50.9833420155,3.41037238247
8700,Tielt,Groenestraat,4,51.0135962448,3.35833977192
8700,Tielt,Dierdonk,8,50.9846093166,3.33050271958
8700,Tielt,Ieperstraat,53,50.9987417852,3.32267298193
8700,Tielt,Jules Van Ooststraat,18,50.9981431093,3.42072059152
8700,Tielt,Ronceval,23,50.9948092161,3.31002326299
8700,Tielt,Waalbosstraat,16,51.0419639614,3.32929111802
8700,Tielt,Henri D'Hontstraat,22,51.0316874028,3.33525251223
8700,Tielt,Hondstraat,72,51.0038467461,3.31400575434
8700,Tielt,Sint-Michielstraat,46,50.9964732626,3.32333233446
8700,Tielt,Hulststraat,17,50.9974377826,3.32907678015
8700,Tielt,Vinktstraat,16B,50.9984027392,3.4243120042
8700,Tielt,Tramstraat,74,51.0036061662,3.33251387008
8700,Tielt,Ten Broucken,46,51.0100436836,3.40319603994
8700,Tielt,Ronceval,58,50.994123502,3.31088834584
8700,Tielt,Kapellestraat,19,51.0029594039,3.32562824439
8700,Tielt,Haantjesstraat,7,51.0003142322,3.42083084285
8700,Tielt,Beernegemstraat,62,50.9935633418,3.33465735983
8700,Tielt,Meulebeeksesteenweg,55,50.9807209543,3.31233879195
8700,Tielt,Sint-Janstraat,54,51.0018957209,3.33083824312
8700,Tielt,Poelberg,7,50.9788214162,3.36035917716
8700,Tielt,Wingensesteenweg,39,51.0068678596,3.32072500453
8700,Tielt,Lindenlaan,23,50.9936533102,3.33198709806
8700,Tielt,Oosthoekstraat,1,51.0138264983,3.4041051489
8700,Tielt,Jules Van Ooststraat,36,50.998988601,3.41951518259
8700,Tielt,Sterrestraat,67,50.9930247116,3.41475149755
8700,Tielt,Astenhove,3,51.0121192252,3.40229368221
8700,Tielt,Neringenstraat,57,51.0003901245,3.41682132055
8700,Tielt,Kortrijkstraat,2,50.9997510224,3.32630413782
8700,Tielt,Vinktstraat,76,51.0005297913,3.4289825249
8700,Tielt,Beernegemstraat,16,49.2933351651,2.30668956214
8700,Tielt,Beernegemstraat,44,50.9948827849,3.33365286137
8700,Tielt,Wingensesteenweg,85,51.0269584861,3.3085366918
8700,Tielt,Burggraaf Vande Vyverelaan,87,51.0027202367,3.31746687633
8700,Tielt,Astenhove,29,51.0111770432,3.40129135531
8700,Tielt,Kattestraat,8,51.0009226627,3.30904003288
8700,Tielt,Oosthoekstraat,27,51.0149863055,3.40744079558
8700,Tielt,Huffeselestraat,21,50.9865902913,3.32421553231
8700,Tielt,Kapellestraat,37,51.0033486344,3.32576633978
8700,Tielt,Uitweg,4,51.0327344534,3.32894800157
8700,Tielt,Karmstraat,64,50.9888698237,3.40029031109
8700,Tielt,Driesstraat,38,50.9969971072,3.33813777404
8700,Tielt,Vinktse Binnenweg,3,51.0138315769,3.43354994898
8700,Tielt,Seyntexlaan,30,50.9853956606,3.33434053548
8700,Tielt,Kasteelstraat,91,50.9925056411,3.32220214296
8700,Tielt,Antoon Vander Plaetselaan,44,50.9943729462,3.33782094238
8700,Tielt,Steenovenstraat,34,50.9954388663,3.3180096528
8700,Tielt,Burggraaf Vande Vyverelaan,34,51.0035064753,3.3196513161
8700,Tielt,Deinsesteenweg,92A,50.9959197444,3.37073608966
8700,Tielt,Tramstraat,56,51.0032759307,3.33183597513
8700,Tielt,Wingensesteenweg,110,51.0173457999,3.30948546596
8700,Tielt,Oostweg,8,50.9945829385,3.34385314543
8700,Tielt,Sterrestraat,39,50.9939991681,3.41700092292
8700,Tielt,Aarselekapellestraat,24,51.0096295793,3.39935081868
8700,Tielt,Europalaan,40,50.9995051761,3.33349082346
8700,Tielt,Leo D'Hulsterlaan,26,50.9929161706,3.34123046381
8700,Tielt,Deinsesteenweg,58,50.9962916415,3.36395906254
8700,Tielt,Hazelaarkouter,25,50.9949033138,3.31377558884
8700,Tielt,Vinktstraat,94,51.000732939,3.43053552448
8700,Tielt,Aarselestraat,42,50.9931991082,3.42111798091
8700,Tielt,Meulebeeksesteenweg,20,50.9841999485,3.31530018358
8700,Tielt,Kasteelstraat,1,50.994433158,3.32529783234
8700,Tielt,Karmstraat,46,50.9903504558,3.40686912017
8700,Tielt,Hoogserleistraat,16,51.0124614218,3.30740419255
8700,Tielt,Bergmolenweg,9,51.0186057194,3.30434703309
8700,Tielt,Wittestraat,24,50.9918661423,3.32389800717
8700,Tielt,Steenstraat,38,50.9959879122,3.32805301973
8700,Tielt,Putterijstraat,14,50.9761517496,3.35833641092
8700,Tielt,Ter Kouter,30,51.0103823401,3.40102845486
8700,Tielt,Steenovenstraat,69,50.9955703723,3.3193381247
8700,Tielt,Burggraaf Vande Vyverelaan,69,51.0036480061,3.31834357189
8700,Tielt,Egemsesteenweg,23,50.99949392,3.31038377333
8700,Tielt,Hondstraat,8,51.0057173231,3.32023021406
8700,Tielt,Hondstraat,90,51.0030880189,3.31232415881
8700,Tielt,Kronkelbeekstraat,2,51.0325004649,3.34150497074
8700,Tielt,Europalaan,58,50.9989238464,3.33436616478
8700,Tielt,Azalealaan,31,51.0041164252,3.31861020826
8700,Tielt,Rozenlaan,35,51.0033982552,3.31558486413
8700,Tielt,Wingensesteenweg,67,51.0111731915,3.31761216428
8700,Tielt,Krommewalstraat,38,51.0016030733,3.32207099843
8700,Tielt,Papenholwegel,24,50.9943259598,3.31825782046
8700,Tielt,Hoogstraat,10,51.0001364119,3.32871218428
8700,Tielt,Bedevaartstraat,79,50.9870646208,3.33254781352
8700,Tielt,Egemsesteenweg,40,50.9991432587,3.3100681408
8700,Tielt,Hondstraat,26,51.0050669442,3.31794600986
8700,Tielt,Deinsesteenweg,76,50.9961438647,3.3673799683
8700,Tielt,Platanenlaan,5,50.9968096548,3.41740017307
8700,Tielt,Pastorijstraat,40,50.9941586446,3.42561373876
8700,Tielt,'t Hoge,20,50.9931004527,3.42368575749
8700,Tielt,Sint-Martenstraat,11,50.9738642614,3.34502420065
8700,Tielt,Magdalena Huysstraat,4,50.9879876719,3.32233972311
8700,Tielt,Stedemolenstraat,104,50.9947407826,3.31635798964
8700,Tielt,Abeelstraat,13,50.9788959307,3.32458384043
8700,Tielt,Blekerijstraat,11,50.9898027753,3.32996467858
8700,Tielt,Ten Broucken,18,51.0103267093,3.40406588075
8700,Tielt,Alfons De Vlamyncklaan,20,50.9957079669,3.33738059449
8700,Tielt,Hoogserleistraat,7,51.0117118091,3.30374630994
8700,Tielt,Hogenhovestraat,43,50.987200425,3.41904049177
8700,Tielt,Ruiseleedsesteenweg,91,51.0164179697,3.36807824782
8700,Tielt,Sint-Michielstraat,36,50.996713974,3.32308478157
8700,Tielt,Tramstraat,28,51.0017253847,3.32856907679
8700,Tielt,Driesstraat,109,50.9923012214,3.34292739188
8700,Tielt,Seyntexlaan,12,50.9859425725,3.3339268219
8700,Tielt,Felix D'Hoopstraat,162,50.9981412166,3.34225937983
8700,Tielt,Drie Wilgen,1,51.031565062,3.33788088128
8700,Tielt,Beneluxlaan,43,50.9995963798,3.33691664981
8700,Tielt,Ten Broucken,36,51.0105150387,3.40345052893
8700,Tielt,Ervestraat,15,51.0259568547,3.36561796734
8700,Tielt,Oude Pittemstraat,51,50.9965756723,3.30893485236
8700,Tielt,Sint-Janstraat,185,51.0037118972,3.33812835591
8700,Tielt,Robert Schumanstraat,2,51.0000418086,3.33891626818
8700,Tielt,Sterrestraat,4,50.9962158356,3.42167727363
8700,Tielt,Drie Wilgen,27,51.0320811364,3.33744552435
8700,Tielt,Deinsesteenweg,182,50.9947213406,3.40764073187
8700,Tielt,Antoon Vander Plaetselaan,7,50.9938257279,3.33512465924
8700,Tielt,Leo D'Hulsterlaan,8,50.9938553883,3.34148168134
8700,Tielt,Joris Minnaertlaan,3,50.9937625129,3.34050236011
8700,Tielt,Neringenstraat,3,51.0129856548,3.40389344169
8700,Tielt,Grote Hulststraat,5,50.9951377422,3.32766816697
8700,Tielt,Euromarktlaan,3,51.0030042864,3.33761359933
8700,Tielt,Rozenlaan,17,51.002998165,3.31453607087
8700,Tielt,Wulfstraat,11,50.9899529588,3.32263060349
8700,Tielt,Sint-Michielstraat,115,50.9948379062,3.32476244854
8700,Tielt,Plantinstraat,10,50.9941816201,3.32124875175
8700,Tielt,Haantjesstraat,16,51.0001590332,3.42170917401
8700,Tielt,Bruggestraat,5,51.0005747655,3.32636403878
8700,Tielt,Uitpachtstraat,14,50.9974199719,3.39181940456
8700,Tielt,Moordhoekstraat,20,50.9731469745,3.35119465293
8700,Tielt,Egemsesteenweg,94,51.002286112,3.30252995652
8700,Tielt,Leukemeersenstraat,21,50.9942589715,3.34597595406
8700,Tielt,Ondankstraat,35,51.0078792851,3.37414741787
8700,Tielt,Wilgenlaan,3,50.996825374,3.41517591108
8700,Tielt,Porakstraat,5,51.003736485,3.42566868555
8700,Tielt,Ter Kouter,12,51.0108430946,3.40156786376
8700,Tielt,Kapelleweg,3,51.0348601557,3.33103349955
8700,Tielt,Vinktstraat,58,50.9999938001,3.42722465401
8700,Tielt,Pittemsesteenweg,16,50.9974119505,3.31062694697
8700,Tielt,Sint-Janstraat,167,51.0031512569,3.33600132551
8700,Tielt,Transvaalstraat,9,50.9964600981,3.41953488827
8700,Tielt,Aarsele-Dorp,4,50.9976825009,3.42303850915
8700,Tielt,Flessestraat,2,51.0138119876,3.3853481341
8700,Tielt,Stationstraat,61,50.9923821595,3.32692992768
8700,Tielt,Luchtbalstraat,7,50.9953510506,3.32513708328
8700,Tielt,Baudeloostraat,1,50.9956540853,3.42239591555
8700,Tielt,Deinsesteenweg,226,50.9925256156,3.41465424652
8700,Tielt,Kasteelstraat,124,50.9917313423,3.32010209333
8700,Tielt,Kleine Weg,51,50.9949555135,3.34301020807
8700,Tielt,Dertig Zilverlingenstraat,34,50.9883676771,3.33064484046
8700,Tielt,Klijtenstraat,29,50.9921497991,3.33395635208
8700,Tielt,Waalbosstraat,7,51.0379527363,3.33597336663
8700,Tielt,Stationstraat,43,50.9929900024,3.32678080875
8700,Tielt,Oude Kapellestraat,33,51.0063522347,3.32975865589
8700,Tielt,Dierdonk,17,50.9841926821,3.33005020543
8700,Tielt,Oude Stationstraat,112,50.992833332,3.33004924724
8700,Tielt,Felix D'Hoopstraat,30,50.99864191,3.33396592511
8700,Tielt,Leiaardsboomstraat,5,50.99462278,3.31707633666
8700,Tielt,Karmstraat,99,50.9858559125,3.38950501021
8700,Tielt,Baudeloostraat,27,50.9959144588,3.42410099987
8700,Tielt,Deinsesteenweg,208,50.9925630179,3.41251620909
8700,Tielt,Hazepad,6,51.032114222,3.33920367435
8700,Tielt,Molenweg,42,51.0007015031,3.42550904673
8700,Tielt,Kazernestraat,15,51.0071001365,3.42770603475
8700,Tielt,Zwartegevelstraat,26,50.9848191576,3.33187091511
8700,Tielt,Bruggestraat,105A,51.0033362717,3.3247263527
8700,Tielt,Felix D'Hoopstraat,83,50.9981768942,3.33608953233
8700,Tielt,Sterrestraat,49,50.9936759927,3.41603511593
8700,Tielt,Deken Darraslaan,53,50.9981177216,3.31509387221
8700,Tielt,Vinktstraat,101,51.0010750809,3.43022962775
8700,Tielt,Pastorijstraat,3,50.9980780538,3.4237663554
8700,Tielt,Hogenhovestraat,61,50.985555525,3.41889277823
8700,Tielt,Sint-Janstraat,89,51.0020662011,3.33202544321
8700,Tielt,Pastorijstraat,29,50.9966914271,3.42471458941
8700,Tielt,Beneluxlaan,61,51.0007939828,3.33795898872
8700,Tielt,Hondstraat,114,51.0010393396,3.30846934512
8700,Tielt,Felix D'Hoopstraat,65,50.9982403951,3.33525299577
8700,Tielt,Beernegemstraat,7,50.9955990657,3.33160516346
8700,Tielt,Vijfpachtgoenstraat,16,51.0159466065,3.30279964836
8700,Tielt,Kasteelstraat,106,50.9919597549,3.32130109518
8700,Tielt,Dierdonk,35,50.9838509229,3.32939294528
8700,Tielt,Aarselestraat,5,50.9958724434,3.42236173491
8700,Tielt,Deken Darraslaan,71,50.9980948787,3.31410894485
8700,Tielt,Willem Pantinlaan,8,50.9940347154,3.33082963291
8700,Tielt,Van Zantvoordestraat,10,50.9996330571,3.33174885985
8700,Tielt,Sint-Michielstraat,18,50.9971533151,3.32253832305
8700,Tielt,Azalealaan,9,51.0046007009,3.31793337879
8700,Tielt,Oude Kapellestraat,15,51.0058668899,3.32824420348
8700,Tielt,Fonteinestraat,31,51.0005906368,3.31464577549
8700,Tielt,Brunicolaan,1,51.0014010075,3.33429170275
8700,Tielt,Claerhoutstraat,11,50.9948295785,3.30869952279
8700,Tielt,Kortrijkstraat,135,50.9947309697,3.32543679452
8700,Tielt,Kreupelstraat,13,50.9962294606,3.3295578812
8700,Tielt,Klijtenstraat,3,50.991525095,3.3324552251
8700,Tielt,Kasteelstraat,159,50.9908085074,3.31640379737
8700,Tielt,Sint-Michielstraat,133,50.9944628062,3.32510300613
8700,Tielt,Vijverstraat,10,50.9991330844,3.32897165378
8700,Tielt,Sint-Amandstraat,18,50.9656715807,3.34890978016
8700,Tielt,Kastanjelaan,17,50.9880225647,3.33499818406
8700,Tielt,Holdestraat,6A,50.9911289563,3.31478084853
8700,Tielt,Felix D'Hoopstraat,180,50.9978596492,3.34564695121
8700,Tielt,Brignoleslaan,4,51.0004990156,3.33399175349
8700,Tielt,Appelstraat,30,50.9820876168,3.39834211499
8700,Tielt,Rozeboomlaan,21,51.0044943195,3.33603813429
8700,Tielt,Wingensesteenweg,128C,51.0300997763,3.30354657164
8700,Tielt,Jules Van Ooststraat,14A,50.997853635,3.42082089758
8700,Tielt,Meikestraat,9,50.9876416343,3.37798349971
8700,Tielt,Kortrijkstraat,21,50.9991414892,3.3265160086
8700,Tielt,Arendstraat,12,50.9828782085,3.33031032332
8700,Tielt,Vrouwenboomstraat,5,51.0156272123,3.31274184065
8700,Tielt,Kronkelbeekstraat,30,51.0331215148,3.34060141602
8700,Tielt,Markt,41,50.9998023322,3.32591575969
8700,Tielt,Bruggestraat,77,51.0027694668,3.3245453452
8700,Tielt,Kreupelstraat,2,50.9968022012,3.32947509492
8700,Tielt,Sint-Michielstraat,99,50.9951099118,3.32440409534
8700,Tielt,Bosakkerstraat,33,50.985802702,3.33644704857
8700,Tielt,Mgr. Christiaensstraat,20,50.9989078091,3.31549084215
8700,Tielt,Keizerstraat,6,51.0138797382,3.40259399396
8700,Tielt,Kortrijkstraat,107,50.9956711715,3.32563269493
8700,Tielt,Gruuthusestraat,34,50.9900815553,3.33308680681
8700,Tielt,Wingensesteenweg,14,51.0048540915,3.32119834315
8700,Tielt,Hondstraat,89,51.0019262272,3.30835211543
8700,Tielt,Sint-Janstraat,26,51.0009352793,3.3288363661
8700,Tielt,Brouwerijstraat,4,51.0308976561,3.33634103033
8700,Tielt,Meulebeeksesteenweg,27,50.9845966792,3.31287217482
8700,Tielt,P.Fl. Robberechtstraat,6,50.9999160585,3.31704193544
8700,Tielt,Jules Van Ooststraat,11,50.9978093811,3.42170050327
8700,Tielt,Hulstplein,17,50.9979404845,3.33129650115
8700,Tielt,Kanegemstraat,191,51.0122818029,3.40140079896
8700,Tielt,Bedevaartstraat,80,50.9875471119,3.33332395702
8700,Tielt,Dennenlaan,4,50.9975344279,3.41627853628
8700,Tielt,Lindenlaan,57,50.994370233,3.33226968795
8700,Tielt,Populierenlaan,4,50.9964474901,3.41662613468
8700,Tielt,Karmstraat,36,50.9906076847,3.40874492377
8700,Tielt,Aarsele-Dorp,14,50.9966893918,3.42253471655
8700,Tielt,Galgestraat,1,51.0406290026,3.34700712465
8700,Tielt,Klijtenstraat,22,50.9921174537,3.33262973714
8700,Tielt,Kapelleweg,9A,51.0370407946,3.32933648627
8700,Tielt,Klokkestraat,3,51.0319974068,3.33354610693
8700,Tielt,Huttegemstraat,6,50.9973575217,3.31257495055
8700,Tielt,Pontweg,32,51.0052765609,3.33245941812
8700,Tielt,Klijtenstraat,126,50.9925391662,3.34251250329
8700,Tielt,Hulststraat,10,50.9977049135,3.32927458112
8700,Tielt,Kalverstraat,5,51.001581473,3.32944664954
8700,Tielt,Keidamstraat,25,50.9993101318,3.31436811389
8700,Tielt,Stationsberm,7,50.9904578884,3.3280727683
8700,Tielt,Bruggestraat,59,51.0021818357,3.32456042924
8700,Tielt,Oude Stationstraat,129,50.9919892715,3.33018290032
8700,Tielt,Bosakkerstraat,15,50.9865343441,3.33588742695
8700,Tielt,Bedevaartstraat,44,50.9890541489,3.33326746256
8700,Tielt,Drie Wilgen,47,51.0326519903,3.33660333673
8700,Tielt,Tulpenlaan,13,51.0036260472,3.31692094141
8700,Tielt,Biermanstraat,16,51.0335050433,3.33612160535
8700,Tielt,Hoogstraat,35,50.9995603026,3.3294518498
8700,Tielt,Blekerijstraat,8,50.9898628827,3.33015421802
8700,Tielt,Robert Schumanstraat,12,50.9996012695,3.33882023234
8700,Tielt,Sterrestraat,50,50.995116145,3.41843513557
8700,Tielt,Hazelaarkouter,43,50.9946179389,3.31372189366
8700,Tielt,Sterrestraat,14,50.9959408553,3.420953447
8700,Tielt,Deinsesteenweg,2A,50.9984108759,3.34744439035
8700,Tielt,Oosthoekstraat,20,51.0183869382,3.41617955653
8700,Tielt,Ronceval,3,50.9954223743,3.3100175371
8700,Tielt,Gross Geraulaan,4,51.0016141298,3.33512775464
8700,Tielt,Pontweg,49,51.0046106264,3.33295460211
8700,Tielt,Jozef Baertstraat,6,51.0009679501,3.34105597992
8700,Tielt,Wittestraat,42,50.991524539,3.32388980773
8700,Tielt,Bilkbosstraat,9,51.0373111354,3.32837045974
8700,Tielt,Kortrijkstraat,9,50.999578731,3.32611648828
8700,Tielt,Beernegemstraat,79,50.9931799739,3.3344487195
8700,Tielt,Rameplein,14,50.998007109,3.32788524983
8700,Tielt,Beneluxlaan,6,50.9991822013,3.33478388317
8700,Tielt,Papenholwegel,42,50.9938743643,3.31681505434
8700,Tielt,Vinktstraat,23,50.9981167438,3.42291962584
8700,Tielt,Hellebosstraat,14,50.9990286831,3.30447922633
8700,Tielt,Driesstraat,84,50.994835527,3.34224001013
8700,Tielt,Hogenhovestraat,6,50.9908142036,3.41832047627
8700,Tielt,Kortrijkstraat,48,50.9982878594,3.32745745767
8700,Tielt,Sterrestraat,32,50.9955573524,3.41987126783
8700,Tielt,Volderstraat,28,50.9963501674,3.32254043196
8700,Tielt,Fonteinestraat,2,51.0031617672,3.31318964198
8700,Tielt,Polderstraat,10,51.023253926,3.35673133327
8700,Tielt,Burggraaf Vande Vyverelaan,70,51.0024785268,3.31786311886
