PKANCODE,COMMUNE_NL,STREET_NL,HUISNR,LAT,LON
8800,Roeselare,Groenestraat,490,50.9370416296,3.08721342047
8800,Roeselare,Appelaarstraat,2,50.9479561782,3.14373766292
8800,Roeselare,Herdersstraat,97,50.9388610099,3.14285420784
8800,Roeselare,Leeuwerikstraat,3,50.956124588,3.11381752447
8800,Roeselare,Bollaardstraat,26,50.9681534339,3.13407590807
8800,Roeselare,Dwarsweg,15,50.9830210919,3.12784810207
8800,Roeselare,Collievijverpark,38A,50.934606797,3.11071998667
8800,Roeselare,Sint-Martinusstraat,14,50.9205055326,3.16295711698
8800,Roeselare,Meensesteenweg,288,50.9324892409,3.11970708443
8800,Roeselare,Kattenstraat,221,50.952012432,3.11671209484
8800,Roeselare,De Witte Reek,9,50.9540175226,3.13694391476
8800,Roeselare,Sint-Lutgardstraat,7,50.936780816,3.10593254341
8800,Roeselare,Heropbouwstraat,123,50.9358916158,3.13640353953
8800,Roeselare,Zuidmolenstraat,102,50.9341512724,3.12823539331
8800,Roeselare,Kouterweg,31,50.971468496,3.1389968141
8800,Roeselare,Zannekinstraat,11,50.9387037114,3.10396626334
8800,Roeselare,Vijfwegenstraat,65,50.9393645483,3.12817828734
8800,Roeselare,Kroontjesmolenstraat,3,50.9755932096,3.14271047788
8800,Roeselare,Désiré Mergaertstraat,5,50.9495764872,3.1200554027
8800,Roeselare,Vierwegstraat,40,50.9465661078,3.14377565637
8800,Roeselare,Prinsenhof,18,50.9593552592,3.12365009345
8800,Roeselare,Beversesteenweg,148,50.9546265762,3.13179942328
8800,Roeselare,Gitsestraat,29,50.9528358803,3.11906270235
8800,Roeselare,Jonkersstraat,80,50.9627552168,3.13932943276
8800,Roeselare,Mandellaan,533,50.9373804796,3.15484853948
8800,Roeselare,Onledegoedstraat,33,50.9725195499,3.1406393946
8800,Roeselare,Spanjestraat,70,50.9461592175,3.1352286568
8800,Roeselare,Brugsesteenweg,383,50.9663622448,3.1198668387
8800,Roeselare,Oude Kantinestraat,2,50.9122345206,3.15557571887
8800,Roeselare,Stationsdreef,132,50.9553030579,3.12735731575
8800,Roeselare,Noordstraat,92,50.9477744365,3.12206437291
8800,Roeselare,Wijnendalestraat,157,50.9705101453,3.12933514203
8800,Roeselare,Stationsdreef,8,50.9518998519,3.12848708353
8800,Roeselare,Groene-Herderstraat,117,50.9319274118,3.14082694696
8800,Roeselare,Populierstraat,74,50.947773883,3.15857129219
8800,Roeselare,Karnemelkstraat,5,50.9448386443,3.12191751072
8800,Roeselare,Weststraat,12,50.949438106,3.11770219092
8800,Roeselare,Diswegel,7,50.9601118609,3.10851013302
8800,Roeselare,Sint-Amandsstraat,120,50.9496283871,3.12891175546
8800,Roeselare,Molenstraat,23,50.9420673332,3.11980992741
8800,Roeselare,Biezenstraat,62,50.9613708541,3.10782714576
8800,Roeselare,Kattenstraat,60,50.9492007989,3.11866151792
8800,Roeselare,Jacob van Arteveldestraat,20,50.9368084642,3.13194257262
8800,Roeselare,Rijselstraat,21,50.9402497835,3.12312143742
8800,Roeselare,Heirweg,98,50.9847255157,3.15762446977
8800,Roeselare,Gitsestraat,289,50.9604798514,3.11697269821
8800,Roeselare,Dennenstraat,20,50.933555969,3.11209764235
8800,Roeselare,Zonnestraat,4,50.9291007945,3.12568705577
8800,Roeselare,Brugsesteenweg,122,50.9561420036,3.12177769745
8800,Roeselare,Delaerestraat,38,50.9453334595,3.12854648618
8800,Roeselare,Hammestraat,1,50.9513635733,3.13296259158
8800,Roeselare,Weidestraat,27,50.9607950435,3.10478929768
8800,Roeselare,Vijfwegenstraat,226,50.9349791729,3.13128577287
8800,Roeselare,Graaf de Limburg Stirumlaan,10,50.9245787458,3.14157703597
8800,Roeselare,Koolzaadstraat,3,50.9032099604,3.13806955545
8800,Roeselare,Kastanjestraat,12,50.9345477686,3.11545421312
8800,Roeselare,Sint-Eloois-Winkelsestraat,93,50.9020263611,3.16157047216
8800,Roeselare,Sint-Blasiusstraat,14,50.9349039197,3.15160103169
8800,Roeselare,Eksaardestraat,52,50.9541265752,3.13428559008
8800,Roeselare,Kwadestraat,247,50.9092840529,3.17581152482
8800,Roeselare,Vierwegstraat,182,50.9509611772,3.15185433147
8800,Roeselare,Rumbeeksesteenweg,85,50.9404611489,3.12807004281
8800,Roeselare,Iepersestraat,411,50.9349238707,3.10490059641
8800,Roeselare,Havenstraat,28,50.9408724298,3.14619362213
8800,Roeselare,Iepersestraat,281,50.937866137,3.11113917941
8800,Roeselare,Ardooisesteenweg,20,50.9489939298,3.13184884015
8800,Roeselare,Weststraat,30,50.9491863443,3.11597682196
8800,Roeselare,Bollenstraat,14A,50.9413312979,3.12113283842
8800,Roeselare,Kortrijksestraat,2A,50.9202129861,3.14752846135
8800,Roeselare,Kuipersstraat,61A,50.9532718142,3.10660121565
8800,Roeselare,Sint-Blasiusstraat,32,50.9357770569,3.15086996912
8800,Roeselare,Joannes Vande Ginstestraat,7,50.9692387351,3.13635453244
8800,Roeselare,Groothofstraat,26,50.9645693539,3.13647264667
8800,Roeselare,Hoogleedsesteenweg,78,50.9529698153,3.11755536319
8800,Roeselare,Karabiniersstraat,50,50.9200914137,3.11111642557
8800,Roeselare,Gitsestraat,146,50.9548310204,3.11802783776
8800,Roeselare,Heuvelstraat,38,50.9279841417,3.12094140392
8800,Roeselare,Iepersestraat,153A,50.9402802682,3.11701851884
8800,Roeselare,Koestraat,119,50.9273178351,3.1519144937
8800,Roeselare,Palfreniersstraat,28,50.9274832834,3.14843045852
8800,Roeselare,Zwingelaarsstraat,5,50.954436571,3.11072450437
8800,Roeselare,Izegemseaardeweg,130,50.957838244,3.15343824311
8800,Roeselare,Mandellaan,260,50.9488587706,3.13956270939
8800,Roeselare,Jonkersstraat,62,50.9625808539,3.13835411233
8800,Roeselare,Witte-Kaproenenstraat,15,50.9370021028,3.10386114813
8800,Roeselare,Meensesteenweg,780,50.8922437874,3.11378159962
8800,Roeselare,Langemarkstraat,21,50.9428692645,3.12153551724
8800,Roeselare,Izegemseaardeweg,6,50.9681211742,3.14416726967
8800,Roeselare,De Gotelaar,23,50.9666998274,3.10755376512
8800,Roeselare,Rumbeeksesteenweg,346,50.9362927058,3.14425291765
8800,Roeselare,Groothofstraat,2,50.9646828001,3.13709808875
8800,Roeselare,Ooststraat,15A,50.9460270613,3.12462149666
8800,Roeselare,Tasscheweg,7,50.9635904864,3.16119895194
8800,Roeselare,Regenboogstraat,7,50.9304094553,3.12743927156
8800,Roeselare,Bruanestraat,38,50.9486091415,3.13707435418
8800,Roeselare,Zwaaikomstraat,44,50.9533737731,3.15300289466
8800,Roeselare,Sint-Eloois-Winkelsestraat,57,50.9141494748,3.16080034075
8800,Roeselare,David Teniersstraat,53,50.9270756222,3.16223130694
8800,Roeselare,Jean-Pierre Monseréstraat,33,50.951169012,3.14442848508
8800,Roeselare,Sint-Amandsstraat,102,50.949212521,3.12724474853
8800,Roeselare,Mandellaan,515,50.9377044174,3.15297021547
8800,Roeselare,Staakmolenstraat,63,50.931399285,3.13086384436
8800,Roeselare,Sneyssensstraat,58,50.9395308204,3.10285299929
8800,Roeselare,Westlaan,29,50.936627961,3.11936943756
8800,Roeselare,Klokkeputstraat,128,50.9654073821,3.10377162467
8800,Roeselare,Stampkotstraat,1,50.9203345777,3.15978468996
8800,Roeselare,Lekkensstraat,21,50.9341997368,3.15675677698
8800,Roeselare,Burgemeestersstraat,9,50.9177259377,3.16192367121
8800,Roeselare,Kardinaal Cardijnlaan,132,50.9594112922,3.1375654589
8800,Roeselare,Nieuwe Abelestraat,8,50.9210336715,3.17267426141
8800,Roeselare,Mgr. De Haernestraat,30,50.934587344,3.13720836321
8800,Roeselare,Meenseheirweg,245,50.9289606495,3.12170785007
8800,Roeselare,Neerstraat,4,50.9259190198,3.12217115862
8800,Roeselare,Groenestraat,100,50.9451703816,3.11547208658
8800,Roeselare,Plaatsmolenstraat,41,50.9142263928,3.16997970365
8800,Roeselare,Verbrandhofstraat,76,50.9291993783,3.11230545107
8800,Roeselare,Germain Hoetstraat,23,50.9485035867,3.1395913686
8800,Roeselare,Weidestraat,3,50.9611125112,3.10654871794
8800,Roeselare,Klokkeputstraat,22,50.9629741073,3.10293634594
8800,Roeselare,Vijfwegenstraat,344,50.9322122946,3.13523390972
8800,Roeselare,Kwadestraat,265,50.9048611847,3.17450339655
8800,Roeselare,Heropbouwstraat,105,50.9356894909,3.13583587537
8800,Roeselare,Bergeikenstraat,3,50.9275189671,3.12903842341
8800,Roeselare,Abraham Hansstraat,11,50.9414223938,3.09956321338
8800,Roeselare,Groene-Herderstraat,99,50.9322626124,3.14127785889
8800,Roeselare,Verbrandhofstraat,112,50.9291997271,3.11117786225
8800,Roeselare,Heirweg,116,50.9857839692,3.1593576105
8800,Roeselare,Fierheidstraat,1,50.9390020252,3.10487815103
8800,Roeselare,Sint-Elooisstraat,7,50.9340267604,3.12511313109
8800,Roeselare,Kerkhofstraat,42,50.8914359894,3.11889238852
8800,Roeselare,Wilgenstraat,84,50.93815391,3.1182178168
8800,Roeselare,Mandellaan,242,50.9492596358,3.139534988
8800,Roeselare,Meensesteenweg,418,50.9206467312,3.11667071411
8800,Roeselare,Jan van Ruusbroecstraat,3,50.9628641731,3.1306282329
8800,Roeselare,Izegemsestraat,119,50.9310243647,3.16936837704
8800,Roeselare,Ardooisesteenweg,410,50.9570771335,3.16093741178
8800,Roeselare,Motestraat,8,50.943844752,3.12246120325
8800,Roeselare,Bobijnstraat,8,50.9677257352,3.11586710215
8800,Roeselare,Deken Wallaertstraat,24,50.9708916677,3.13832576492
8800,Roeselare,Steenovenstraat,1,50.9178450104,3.14463767829
8800,Roeselare,Riddersstraat,48,50.9644230002,3.1382085575
8800,Roeselare,Hoogleedsesteenweg,114,50.953443714,3.11689722923
8800,Roeselare,Zuidmolenstraat,120,50.9341876569,3.12887197928
8800,Roeselare,Glazeniersstraat,46E,50.9532348296,3.1076540767
8800,Roeselare,Schoolstraat,53,50.9707887297,3.14198500602
8800,Roeselare,Noordlaan,45,50.9555263718,3.11874066028
8800,Roeselare,Westlaan,5,50.9362152757,3.12012926479
8800,Roeselare,Meikeverstraat,36,50.9254815672,3.13143979733
8800,Roeselare,Hoogstraat,61,50.931524828,3.14948275903
8800,Roeselare,Kuipersstraat,61C,50.9533164306,3.10664527856
8800,Roeselare,Schildersstraat,45,50.9527913591,3.10686920391
8800,Roeselare,Heilig-Hartstraat,51,50.9353589816,3.12479896296
8800,Roeselare,Leeuwerikstraat,27,50.9572500382,3.1134148955
8800,Roeselare,Hoogleedsesteenweg,96,50.9531918453,3.11710421572
8800,Roeselare,Beverseaardeweg,24,50.9548415123,3.13734873417
8800,Roeselare,Honzebroekstraat,115,50.9654796043,3.11116171373
8800,Roeselare,Klauwaardstraat,4,50.9522574631,3.11601509849
8800,Roeselare,Ieperseweg,145,50.9020200977,3.16839097551
8800,Roeselare,Koekuitstraat,6,50.9112418856,3.11001109388
8800,Roeselare,Spanjestraat,213,50.9461397577,3.14226417038
8800,Roeselare,Haverstraat,11,50.9433198881,3.11208850985
8800,Roeselare,Bilkwegel,8,50.9587936959,3.11169652944
8800,Roeselare,Schaapbruggestraat,15,50.9403731074,3.15474979656
8800,Roeselare,Kleine Kalkenstraat,12,50.9497374879,3.14655729406
8800,Roeselare,Menenpoortstraat,24,50.9300021689,3.11572708026
8800,Roeselare,Désiré Van de Wallestraat,40,50.9692967426,3.13466675138
8800,Roeselare,Olmenstraat,4,50.9358102131,3.11928790592
8800,Roeselare,Koestraat,137,50.9262274239,3.15100758284
8800,Roeselare,Noordstraat,217,50.9509044995,3.11955820556
8800,Roeselare,Windmolenstraat,25,50.9306099378,3.12441136172
8800,Roeselare,Oude Stadenstraat,5,50.9561762126,3.10383204436
8800,Roeselare,Bornstraat,45,50.9285469116,3.12693981833
8800,Roeselare,Groenestraat,472,50.9371304269,3.08902645107
8800,Roeselare,Cipressenstraat,21,50.9361847988,3.10850173506
8800,Roeselare,Nijverheidsstraat,26,50.9484184269,3.13310390979
8800,Roeselare,Populierstraat,235,50.9545705848,3.1550925933
8800,Roeselare,Windmolenstraat,1,50.9296077894,3.12201288835
8800,Roeselare,Moorseelsesteenweg,69,50.9146115946,3.14016145125
8800,Roeselare,Biezenhof M,2,50.9643257857,3.10721724755
8800,Roeselare,Meensesteenweg,28,50.9416149834,3.12218714513
8800,Roeselare,Lodewijk van Velthemstraat,6B,50.9657195185,3.13285775421
8800,Roeselare,Sint-Rochusstraat,7,50.9348293533,3.15246631505
8800,Roeselare,Sint-Hubrechtsstraat,51,50.947264666,3.13416424048
8800,Roeselare,Vierwegstraat,201,50.9502896958,3.14979833816
8800,Roeselare,Karnemelkstraat,29,50.9452612739,3.12131426535
8800,Roeselare,Moorseelsesteenweg,151,50.9025061374,3.14445915016
8800,Roeselare,Kouterweg,13,50.9706617354,3.13927583116
8800,Roeselare,Krekelstraat,21,50.9386113012,3.12749484987
8800,Roeselare,Watertorenstraat,8,50.9374903559,3.12870406027
8800,Roeselare,Pieter Pauwel Rubensplein,18,50.9263086784,3.1615167057
8800,Roeselare,Groene-Herderstraat,135,50.9312094897,3.14041109517
8800,Roeselare,Noordstraat,4,50.9454973526,3.12363736035
8800,Roeselare,Boterstraat,4,50.9583922556,3.15810452011
8800,Roeselare,Meulebekestraat,16,50.9538542027,3.13309925645
8800,Roeselare,Merelstraat,12,50.9557114935,3.11349919003
8800,Roeselare,Hugo Verrieststraat,18,50.9499067745,3.12480371225
8800,Roeselare,Grote Markt,1,50.9444156025,3.12493602664
8800,Roeselare,Hof van 't Henneken,43,50.9401997969,3.12487087449
8800,Roeselare,Blommestraat,53,50.9312980262,3.14273444624
8800,Roeselare,Meensesteenweg,697,50.8952125253,3.11479337733
8800,Roeselare,Ardooisesteenweg,355C,50.9575457618,3.15934969994
8800,Roeselare,Wervikhovestraat,4,50.927215215,3.15930649687
8800,Roeselare,Rozenstraat,6,50.9392573047,3.1327379215
8800,Roeselare,Vierwegstraat,146,50.9491019721,3.14914846141
8800,Roeselare,Schellebellestraat,18,50.9494572639,3.14126673199
8800,Roeselare,Eikstraat,34,50.9348808705,3.11095907132
8800,Roeselare,Meersbloemstraat,31,50.9727884614,3.13497714353
8800,Roeselare,Tornooistraat,18,50.9634053517,3.13878250739
8800,Roeselare,Kardinaal Cardijnlaan,114,50.9585643229,3.13698354466
8800,Roeselare,Sint-Jorisstraat,69,50.9517115049,3.13194487101
8800,Roeselare,Koestraat,13,50.931594802,3.15291418614
8800,Roeselare,Heirweg,137B,50.9871850204,3.16108228976
8800,Roeselare,Collievijverpark,23,50.9335261159,3.11068506678
8800,Roeselare,James Ensorstraat,3,50.9244791783,3.15910087246
8800,Roeselare,Hoogstraat,43,50.9319073001,3.15122787219
8800,Roeselare,Brugsesteenweg,347,50.9626941824,3.12037122516
8800,Roeselare,Fierheidstraat,25,50.938159964,3.10510358976
8800,Roeselare,Zuidmolenstraat,66,50.9344191926,3.12697526456
8800,Roeselare,Pantserstraat,16,50.9496435344,3.10930421684
8800,Roeselare,Peter Benoitstraat,20,50.936947262,3.1311038375
8800,Roeselare,Herdersstraat,9,50.9419346439,3.14271287835
8800,Roeselare,Izegemsestraat,31,50.9322778053,3.16022019499
8800,Roeselare,Skaldenstraat,18,50.9376812773,3.10716032015
8800,Roeselare,Kortekeerstraat,3A,50.9862828593,3.17211275239
8800,Roeselare,Koningsstraat,16,50.9347121809,3.15033659157
8800,Roeselare,Noordstraat,56,50.9469577318,3.12297996172
8800,Roeselare,Boterstraat,56,50.9600374927,3.16501555439
8800,Roeselare,Kwadestraat,23,50.9305448757,3.15982534654
8800,Roeselare,Groenestraat,36,50.9454339179,3.11747506979
8800,Roeselare,Pater Pirestraat,43,50.9565991769,3.13809888515
8800,Roeselare,Meenseheirweg,127,50.9342412275,3.1247262857
8800,Roeselare,Rumbeeksegravier,166,50.9433464816,3.16281869484
8800,Roeselare,Koornstraat,134,50.9470492827,3.13911797404
8800,Roeselare,Smedenstraat,51,50.9548114872,3.11165048697
8800,Roeselare,Blommestraat,1,50.9310818293,3.14601695206
8800,Roeselare,Zwingelaarsstraat,29,50.955035371,3.10924901865
8800,Roeselare,Pilkemstraat,54,50.9458922995,3.1139778659
8800,Roeselare,Rumbeeksesteenweg,103,50.9401863656,3.12920059217
8800,Roeselare,Koning Albert I-laan,41,50.9415738321,3.13130499865
8800,Roeselare,Kattenstraat,184,50.9529493188,3.1165249756
8800,Roeselare,Koestraat,220,50.9145303757,3.14303367662
8800,Roeselare,Koestraat,31,50.9311298622,3.15297104208
8800,Roeselare,Maria's-Lindestraat,15,50.9241084934,3.14887037498
8800,Roeselare,Meensesteenweg,482,50.9160529695,3.1157501318
8800,Roeselare,Ardooisewegel,3,50.9487591615,3.16200243725
8800,Roeselare,Hugo Verrieststraat,36,50.9505599845,3.12417965277
8800,Roeselare,Onlede-erf,6,50.973753163,3.14043650014
8800,Roeselare,Constant Lievensstraat,5,50.9562460133,3.14072059748
8800,Roeselare,Jachthoornstraat,18,50.9268708855,3.14911824714
8800,Roeselare,Gebroeders van Raemdonckstraat,19,50.9285030604,3.16682289641
8800,Roeselare,Lodewijk van Velthemstraat,18,50.9654516975,3.13139566632
8800,Roeselare,Berkenstraat,11,50.9341509252,3.11376031469
8800,Roeselare,Wallenstraat,44,50.9452131062,3.12064696561
8800,Roeselare,Brabantstraat,32A,50.9806690418,3.15874011761
8800,Roeselare,Biezenhof K,2,50.9637306341,3.10802410826
8800,Roeselare,Vinkenstraat,17,50.9579326863,3.11634968988
8800,Roeselare,Sint-Eloois-Winkelsestraat,5,50.919259869,3.16115929364
8800,Roeselare,Meidoornstraat,11,50.9338275649,3.1138389603
8800,Roeselare,Beukenstraat,18,50.9320969375,3.10501554702
8800,Roeselare,Westlaan,326,50.9479170142,3.1126937971
8800,Roeselare,Sint-Alfonsusstraat,13,50.9455706189,3.12727605687
8800,Roeselare,Bevrijdingsstraat,14,50.9671911303,3.14938790184
8800,Roeselare,Brugsesteenweg,104,50.9558562028,3.12186315532
8800,Roeselare,Iepersestraat,499,50.9327308283,3.10012088949
8800,Roeselare,Vijfwegenstraat,402,50.9306215042,3.13772910142
8800,Roeselare,Tulpenstraat,18,50.9401277647,3.14100116189
8800,Roeselare,Kleine Ardooisestraat,20,50.9524624929,3.15659919478
8800,Roeselare,Hugo Verrieststraat,82,50.9516093059,3.1229691932
8800,Roeselare,Kapelhoekstraat,65,50.9897055634,3.16308339531
8800,Roeselare,Tuinstraat,11,50.931428576,3.12114178549
8800,Roeselare,Westlaan,111,50.938627948,3.11693053726
8800,Roeselare,Klokke-Roelandstraat,13,50.9394709084,3.10757638121
8800,Roeselare,Noordstraat,198,50.9505856475,3.12073065196
8800,Roeselare,Hoogleedsesteenweg,8,50.9520079416,3.11923163962
8800,Roeselare,Hoogstraat,139,50.9298425143,3.1420415034
8800,Roeselare,Wijnendalestraat,51,50.9694294736,3.13891116253
8800,Roeselare,Oude Zilverbergstraat,54,50.9216254929,3.12160467125
8800,Roeselare,Meensesteenweg,436,50.9192827781,3.1162920475
8800,Roeselare,Biezenhof H,5,50.9640911573,3.1088804518
8800,Roeselare,Koestraat,202,50.915928131,3.1444215481
8800,Roeselare,Ruiterijstraat,43,50.9255748828,3.14635553864
8800,Roeselare,Zuidmolenstraat,84,50.9342432953,3.12755016861
8800,Roeselare,Spanjestraat,52,50.9463351496,3.13400254621
8800,Roeselare,Oostnieuwkerksesteenweg,87,50.9469978354,3.10210080309
8800,Roeselare,Stationsdreef,114,50.954756642,3.12760677651
8800,Roeselare,Burgemeestersstraat,44,50.9170929596,3.16295272299
8800,Roeselare,Kortrijksestraat,6,50.9189145905,3.14997247561
8800,Roeselare,Keizer Karelstraat,5,50.9268802805,3.14489288103
8800,Roeselare,Ardooisesteenweg,262,50.9543499357,3.14957044778
8800,Roeselare,Kanunnik Duboisstraat,49,50.9453516711,3.10742915807
8800,Roeselare,Mandeldreef,51,50.9536272346,3.13407910166
8800,Roeselare,Dammestraat,34,50.9658153162,3.12979405041
8800,Roeselare,Kerkplein,22,50.9331568912,3.15363503602
8800,Roeselare,Adriaen Willaertstraat,51,50.9508117757,3.12289443721
8800,Roeselare,Kachtemsestraat,22,50.945873888,3.14739295937
8800,Roeselare,Herdersstraat,79,50.9394843072,3.14569304778
8800,Roeselare,Klokke-Roelandstraat,31,50.9391599593,3.10649049775
8800,Roeselare,Ardooisesteenweg,216,50.9526609265,3.14400041801
8800,Roeselare,Sint-Martinusstraat,32,50.9205224028,3.16467275405
8800,Roeselare,Schaaphofweg,17,50.9611227717,3.10883076305
8800,Roeselare,Kwarteldreef,1,50.9612568278,3.11344804702
8800,Roeselare,Lakenstraat,12,50.9645656428,3.11325856304
8800,Roeselare,James Ensorstraat,27,50.9249285616,3.15885998938
8800,Roeselare,Weidestraat,91,50.9649935486,3.10607284105
8800,Roeselare,Stadenstraat,88,50.95680035,3.10350746236
8800,Roeselare,Molenstraat,58,50.9427348988,3.11719055708
8800,Roeselare,Trakelweg,80,50.9421991567,3.14214515709
8800,Roeselare,Wolfaardstraat,38,50.9656194568,3.14487140405
8800,Roeselare,Prins Boudewijnstraat,38,50.958942661,3.12375812827
8800,Roeselare,Populierstraat,198,50.953162434,3.15586146934
8800,Roeselare,Beversesteenweg,60,50.9514474281,3.13172865771
8800,Roeselare,Oude Noordlaan,20,50.9565939065,3.11884246552
8800,Roeselare,Stationsdreef,167,50.9557097859,3.12684621786
8800,Roeselare,Grote Markt,25,50.9455396968,3.12491149941
8800,Roeselare,David Teniersstraat,1,50.927763416,3.16117401427
8800,Roeselare,Jozef Delbaerestraat,16,50.932260376,3.14750272693
8800,Roeselare,Blinde-Rodenbachstraat,23,50.9324890343,3.14323785798
8800,Roeselare,Jan Van Eyckstraat,7,50.9267430623,3.15867154437
8800,Roeselare,Spanjestraat,194,50.9458711918,3.14334878278
8800,Roeselare,Ooststraat,33A,50.9462729966,3.12556080032
8800,Roeselare,Toekomststraat,17,50.9525413164,3.13321837575
8800,Roeselare,Weverijstraat,20,50.9509141574,3.12798637807
8800,Roeselare,Iepersestraat,300,50.9379895202,3.11058762995
8800,Roeselare,Piljoenstraat,48,50.9346439489,3.09406296129
8800,Roeselare,Schaapbruggestraat,33,50.9405488348,3.1569250896
8800,Roeselare,Rumbeeksesteenweg,364,50.9354269975,3.1462472333
8800,Roeselare,Meensesteenweg,762,50.8931038738,3.11370944022
8800,Roeselare,Vierwegstraat,289,50.9525080564,3.15353957292
8800,Roeselare,Hommelweg,2,50.9579270378,3.10965652118
8800,Roeselare,Damberdstraat,30,50.9399671706,3.12580210315
8800,Roeselare,Prinsenhof,36,50.9595605305,3.12519859362
8800,Roeselare,Gitsestraat,372,50.9633578166,3.11781986354
8800,Roeselare,Beversesteenweg,203,50.9582476874,3.1311688569
8800,Roeselare,Mandellaan,339,50.9464920182,3.14501829048
8800,Roeselare,Hoogleedsesteenweg,415,50.9593561742,3.10259664648
8800,Roeselare,Schoolstraat,1,50.9694824555,3.14061796268
8800,Roeselare,Schoolstraat,71,50.9712835698,3.14261538201
8800,Roeselare,Gitsestraat,111,50.9548107227,3.11759025365
8800,Roeselare,Ardooisesteenweg,355A,50.9574239642,3.15887981878
8800,Roeselare,Pennoenstraat,2,50.9380123477,3.11043562134
8800,Roeselare,Bruanestraat,102,50.9493025625,3.13916923085
8800,Roeselare,Karel De Brouckerestraat,11,50.9659970134,3.11036364052
8800,Roeselare,Biezenstraat,80,50.9619040635,3.10900026135
8800,Roeselare,Heirweg,178A,50.9890663971,3.16480046349
8800,Roeselare,Meensesteenweg,501,50.9130419488,3.11602245805
8800,Roeselare,Kattenstraat,166,50.9526036296,3.11676947954
8800,Roeselare,Sint-Eloois-Winkelsestraat,26B,50.9172238573,3.16013415052
8800,Roeselare,Oudstrijderslaan,30,50.9268200279,3.16646980396
8800,Roeselare,Mandellaan,124,50.9534816978,3.13581203235
8800,Roeselare,Guido Gezellelaan,61,50.9397677329,3.14231413913
8800,Roeselare,Meersbloemstraat,13,50.9740524135,3.13418761435
8800,Roeselare,Meenseheirweg,109,50.934628422,3.1248850522
8800,Roeselare,De Gotelaar,58,50.9689607404,3.10539892916
8800,Roeselare,Izegemsestraat,13,50.9322920616,3.15864332048
8800,Roeselare,Robert Lawetstraat,27,50.9690036454,3.1304476667
8800,Roeselare,Lierstraat,27,50.9508733058,3.14068528506
8800,Roeselare,Schildersstraat,10,50.9526899554,3.10968859308
8800,Roeselare,Kasteelstraat,98,50.9323865048,3.12919712562
8800,Roeselare,Ardooisesteenweg,234,50.9530325011,3.14513181593
8800,Roeselare,Orkaanstraat,2,50.9319268336,3.12489176085
8800,Roeselare,Groenestraat,171,50.9433026704,3.1104113236
8800,Roeselare,Constant Lievensstraat,29,50.956119535,3.13983568053
8800,Roeselare,Onledegoedstraat,86,50.9805411066,3.13262493414
8800,Roeselare,Heirweg,144,50.9871588084,3.16180483927
8800,Roeselare,Jozef Delbaerestraat,34,50.9318891658,3.14627520054
8800,Roeselare,Ieperseweg,110,50.9010142898,3.12477193495
8800,Roeselare,Meensesteenweg,590,50.9078097968,3.11503096462
8800,Roeselare,Koornstraat,63,50.9476192,3.13913620092
8800,Roeselare,Biezenhof F,5,50.9639244175,3.11053000131
8800,Roeselare,Pastoriestraat,8,50.9654731977,3.14578056574
8800,Roeselare,Meensesteenweg,446,50.9183648762,3.11594986029
8800,Roeselare,Beverseaardeweg,77,50.9568973019,3.1397585126
8800,Roeselare,Kattenstraat,14,50.9469461492,3.12011628435
8800,Roeselare,Kleine Zilverbergstraat,2,50.9180276405,3.10297059434
8800,Roeselare,Hof van 't Henneken,33,50.94044623,3.12495612504
8800,Roeselare,Pieter Breughelstraat,28,50.9271209394,3.16484479706
8800,Roeselare,Patrijzendreef,17,50.9618201323,3.11068409982
8800,Roeselare,Meiboomlaan,92,50.9330614053,3.11539956897
8800,Roeselare,Prinsenhof,48,50.9601223094,3.12484660199
8800,Roeselare,Volmolenstraat,8,50.9656578227,3.11438939414
8800,Roeselare,Spanjestraat,24,50.9465311838,3.13270573522
8800,Roeselare,Louis Leynstraat,34,50.9335679964,3.14931686607
8800,Roeselare,Reigerstraat,26,50.9587760398,3.10741032159
8800,Roeselare,Noordlaan,10,50.9567417331,3.12093600538
8800,Roeselare,Beversesteenweg,450,50.9682607449,3.1433335455
8800,Roeselare,Merelstraat,40,50.9559236069,3.1156938741
8800,Roeselare,Mandellaan,586,50.9373772299,3.15277664276
8800,Roeselare,Kachtemsestraat,318,50.9455517545,3.16663019108
8800,Roeselare,Noordforeest,3,50.9630539164,3.12200967843
8800,Roeselare,Rode-Beukenstraat,15,50.9283052443,3.12934187134
8800,Roeselare,Kardinaal Cardijnlaan,43,50.958268177,3.1357478858
8800,Roeselare,Runenstraat,22,50.936460585,3.10288244473
8800,Roeselare,Hoogstraat,33,50.9320583734,3.15183884827
8800,Roeselare,Jonkersstraat,34,50.9623476676,3.13641554801
8800,Roeselare,Diksmuidsesteenweg,338,50.9490591296,3.10730602121
8800,Roeselare,Verbrandhofstraat,140,50.9297336366,3.10811040944
8800,Roeselare,Sint-Catharinastraat,19,50.989251799,3.16130952739
8800,Roeselare,Kaasterstraat,39,50.9238265919,3.14588086159
8800,Roeselare,Het Seminariegoed,24,50.9351988287,3.14371759489
8800,Roeselare,Knokuilstraat,23,50.9179433527,3.11045072022
8800,Roeselare,Désiré Van de Wallestraat,12,50.9672147135,3.13580473831
8800,Roeselare,Meensesteenweg,608,50.9056253089,3.11396681061
8800,Roeselare,Sint-Eloois-Winkelsestraat,29,50.9178633502,3.16071974019
8800,Roeselare,Iepersestraat,601,50.9309287353,3.09460814942
8800,Roeselare,Gitsestraat,75,50.953668478,3.1183002305
8800,Roeselare,Juffrouw Lamotestraat,33,50.9482373815,3.11546090919
8800,Roeselare,Mandellaan,232,50.9494370022,3.13937008526
8800,Roeselare,Groenestraat,46,50.9453555696,3.11725159396
8800,Roeselare,Rumbeeksesteenweg,292,50.9375175012,3.1398000895
8800,Roeselare,Jean-Pierre Monseréstraat,68,50.9520944098,3.14520694851
8800,Roeselare,Notelaarstraat,6,50.9348243723,3.11729063794
8800,Roeselare,Schippersstraat,17,50.9407898815,3.14512043063
8800,Roeselare,Toveressestraat,2,50.9081207105,3.14633713509
8800,Roeselare,Wallenstraat,62,50.9453100047,3.12003543574
8800,Roeselare,Sint-Jozefsstraat,176,50.9347602993,3.11209328772
8800,Roeselare,Diksmuidsesteenweg,303,50.9484401957,3.10777310776
8800,Roeselare,Sint-Elooisstraat,42,50.9330063583,3.12651851943
8800,Roeselare,Meenseheirweg,198,50.9308773923,3.12164427139
8800,Roeselare,Pieter de Coninckstraat,1,50.938296489,3.1292366993
8800,Roeselare,Wijnendalekouter,10,50.9693906721,3.13002809313
8800,Roeselare,Meensesteenweg,464,50.9173878192,3.11591164061
8800,Roeselare,Ardooisesteenweg,91,50.9504681696,3.13419125668
8800,Roeselare,Veldmolenstraat,5,50.8926731129,3.12059245882
8800,Roeselare,Westlaan,57,50.9373937845,3.11808496647
8800,Roeselare,Juffrouw Lamotestraat,15,50.9477798342,3.11545064249
8800,Roeselare,Mandellaan,214,50.9499189928,3.13890685581
8800,Roeselare,Rumbeeksesteenweg,274,50.9376473266,3.13825314892
8800,Roeselare,Zeger Maelfaitstraat,6,50.9329668249,3.15979071777
8800,Roeselare,Beversesteenweg,485,50.9688831146,3.14600006167
8800,Roeselare,Beversesteenweg,356,50.9654091757,3.13573715695
8800,Roeselare,Gitsestraat,93,50.9544700914,3.11784558471
8800,Roeselare,Bakkersstraat,15,50.941736457,3.11830194435
8800,Roeselare,Glazeniersstraat,49,50.9525407179,3.10754947043
8800,Roeselare,Kerkhofstraat,14,50.8920124263,3.11556380935
8800,Roeselare,Ieperseweg,99,50.9031448289,3.12807347015
8800,Roeselare,Kaaskerkestraat,14,50.9669673042,3.14881026007
8800,Roeselare,Gareelstraat,22,50.9184688295,3.15799085486
8800,Roeselare,Iepersestraat,109,50.941384292,3.11987477806
8800,Roeselare,Oekensestraat,38,50.9305947308,3.15622487194
8800,Roeselare,Groenestraat,207,50.9428453727,3.10914824889
8800,Roeselare,Haakwegel,6,50.9597825579,3.10666720831
8800,Roeselare,Sneyssensstraat,6,50.9404552869,3.10469657672
8800,Roeselare,Bornstraat,10,50.9300103735,3.13751024711
8800,Roeselare,Stormstraat,13,50.931198901,3.12417281462
8800,Roeselare,Diksmuidsesteenweg,141,50.9464501196,3.11481670219
8800,Roeselare,Kwadestraat,193,50.9148614229,3.17266492508
8800,Roeselare,Biezenhof O,2,50.9632187024,3.10731008764
8800,Roeselare,Moorseelsesteenweg,241,50.8884816289,3.14816781445
8800,Roeselare,Rode-Beukenstraat,33,50.9279957568,3.13084034842
8800,Roeselare,Pantserstraat,34,50.9495821724,3.10804130354
8800,Roeselare,Rumbeeksesteenweg,39,50.9409538095,3.12626320451
8800,Roeselare,Beversesteenweg,238,50.9597102233,3.13306417311
8800,Roeselare,Koningsstraat,44,50.9356090071,3.15232716595
8800,Roeselare,Groene-Herderstraat,145,50.9308141036,3.14018043975
8800,Roeselare,Meiboomlaan,110,50.9320683847,3.112888092
8800,Roeselare,Herentalslaan,34,50.9549931369,3.13344361909
8800,Roeselare,Ruiterijstraat,33,50.9252487586,3.14721667764
8800,Roeselare,Honzebroekstraat,62,50.9613672369,3.11483097591
8800,Roeselare,Spoelstraat,32,50.9666764747,3.11593627423
8800,Roeselare,Maximiliaan Demeulenaerestraat,19,50.9179840695,3.11235720969
8800,Roeselare,Sint-Corneliusstraat,1,50.921003165,3.16078660379
8800,Roeselare,Meensesteenweg,217,50.9348571913,3.12185994758
8800,Roeselare,Boterstraat,26A,50.9590382583,3.16173904626
8800,Roeselare,Cecilia Callebertstraat,6,50.9321326021,3.13141501623
8800,Roeselare,Onledemolenstraat,6,50.9735916164,3.1439130844
8800,Roeselare,Mandellaan,443,50.9407741652,3.14918044113
8800,Roeselare,Oude Oekensestraat,3,50.9279463572,3.1554974788
8800,Roeselare,Mezenstraat,11,50.9561465181,3.11229270687
8800,Roeselare,Kalkenstraat,8,50.9504970411,3.1437355214
8800,Roeselare,Oostnieuwkerksesteenweg,123,50.9447108242,3.09437158029
8800,Roeselare,Vijverstraat,19,50.9530842516,3.13953314884
8800,Roeselare,Langebrugstraat,66,50.9442834459,3.13798324
8800,Roeselare,Oude Zilverbergstraat,72,50.9219913886,3.12501329183
8800,Roeselare,Mandellaan,568,50.9376868155,3.15237235118
8800,Roeselare,Wijngaardstraat,6,50.9329479063,3.10546812072
8800,Roeselare,Sint-Blasiusstraat,49,50.937220548,3.14870874814
8800,Roeselare,Bunderstraat,4,50.9310343282,3.10588453645
8800,Roeselare,Eikstraat,16,50.9355054094,3.11080446438
8800,Roeselare,Meensesteenweg,74,50.9405329219,3.12186014071
8800,Roeselare,Nachtegaalstraat,38,50.9573878845,3.11600565622
8800,Roeselare,Koornstraat,81,50.9472469228,3.1394647459
8800,Roeselare,Stationsdreef,43,50.9517325662,3.1281913287
8800,Roeselare,Iepersestraat,127,50.9410146029,3.11893576577
8800,Roeselare,Vijfwegenstraat,380,50.9312637995,3.13687201897
8800,Roeselare,Noordstraat,21,50.9456774701,3.12277514587
8800,Roeselare,Boterstraat,21,50.959753317,3.15896993368
8800,Roeselare,Ooststraat,107,50.9475519623,3.12864084802
8800,Roeselare,Boomgaardstraat,87,50.9365560235,3.12747378877
8800,Roeselare,Beversesteenweg,95,50.9534584344,3.13155066929
8800,Roeselare,Beverseaardeweg,59,50.95590343,3.13853092653
8800,Roeselare,Cipressenstraat,4,50.9352367332,3.10693349049
8800,Roeselare,Heirweg,169,50.9888015446,3.16356203082
8800,Roeselare,Liebeekstraat,20,50.9790524394,3.12259734405
8800,Roeselare,Westlaan,75,50.9378555319,3.11765333606
8800,Roeselare,Koning Albert I-laan,76,50.9412224167,3.12939521648
8800,Roeselare,Heropbouwstraat,52,50.9347757051,3.13410642327
8800,Roeselare,Noordlaan,80C,50.9552135246,3.11549021477
8800,Roeselare,Beekwegel,5,50.9565271209,3.11134530658
8800,Roeselare,Ardooisesteenweg,197,50.9518095557,3.14003808369
8800,Roeselare,Gitsestraat,354,50.9626613967,3.11729417363
8800,Roeselare,Groenestraat,48,50.9453891664,3.11713072875
8800,Roeselare,Arme-Klarenstraat,10,50.9442518282,3.12188315058
8800,Roeselare,Sint-Sebastiaansstraat,49,50.9501496201,3.11484095587
8800,Roeselare,Manestraat,8,50.9450690785,3.12298697626
8800,Roeselare,Klauwaardstraat,21,50.9524647485,3.11537888325
8800,Roeselare,Groenestraat,225,50.9425533563,3.10834253448
8800,Roeselare,Brugsesteenweg,330,50.9653771446,3.12082276012
8800,Roeselare,Meensesteenweg,744,50.8937066067,3.11397011654
8800,Roeselare,Hoogleedsesteenweg,285,50.9565292008,3.10856593867
8800,Roeselare,Zonnebloemstraat,38,50.9394312206,3.13943039061
8800,Roeselare,Steenstraat,43,50.9545774679,3.11899852393
8800,Roeselare,Walkurenstraat,27,50.9400093389,3.10832120608
8800,Roeselare,Meensesteenweg,572,50.9090661447,3.11533402039
8800,Roeselare,Guido Gezellelaan,33,50.940720199,3.13882103658
8800,Roeselare,Kortewagenstraat,58,50.89404964,3.1220454054
8800,Roeselare,Begoniastraat,30,50.938887481,3.13865733076
8800,Roeselare,Groenestraat,153,50.9435530252,3.11105538059
8800,Roeselare,Gitsestraat,57,50.9533346903,3.11846370317
8800,Roeselare,Oekensestraat,173,50.9211129004,3.15979480472
8800,Roeselare,Oude Zilverbergstraat,107,50.9236887308,3.13204350984
8800,Roeselare,Ange Angillisstraat,15,50.933532555,3.13585112416
8800,Roeselare,Kaaistraat,7,50.9457655871,3.13294847714
8800,Roeselare,Joseph Hanoullestraat,9,50.9329742955,3.13042451225
8800,Roeselare,Pater Pirestraat,15,50.9576660482,3.1394375925
8800,Roeselare,'t Motje,5,50.9358901189,3.13263848805
8800,Roeselare,Gitsestraat,182,50.9559686618,3.1176036446
8800,Roeselare,Vijfwegenstraat,279,50.9331984735,3.13431820936
8800,Roeselare,Hoogstraat,15,50.9325026297,3.15321533834
8800,Roeselare,Magermerriestraat,8,50.9222171206,3.06689902609
8800,Roeselare,Sint-Elooisstraat,60,50.9327269068,3.12743532717
8800,Roeselare,Patrijzendreef,35,50.9620691849,3.11171154654
8800,Roeselare,Vloedstraat,25,50.9730476384,3.1494992188
8800,Roeselare,Brabantstraat,62,50.9845996014,3.17129044811
8800,Roeselare,Sint-Amandsstraat,84,50.9490701492,3.12670341755
8800,Roeselare,Koningsstraat,34,50.9352915263,3.15136048673
8800,Roeselare,Mandellaan,350,50.9469962066,3.14311077063
8800,Roeselare,Hugo Verrieststraat,100,50.9517477657,3.12230794606
8800,Roeselare,Hoogleedsesteenweg,329,50.9577365919,3.10626558666
8800,Roeselare,Iepersestraat,245,50.9376746752,3.11258911251
8800,Roeselare,Ten Hove,19,50.9634999788,3.12490994183
8800,Roeselare,Rosmolenstraat,86,50.9173655439,3.15827317462
8800,Roeselare,Riddersstraat,36,50.9640242539,3.13846445986
8800,Roeselare,Sint-Elooisplein,12,50.9337224591,3.12846028254
8800,Roeselare,Vijfwegenstraat,362,50.9314783151,3.13644328036
8800,Roeselare,Populierstraat,127,50.9507521914,3.15732711488
8800,Roeselare,Sint-Jozefsstraat,77,50.9359047481,3.11647827828
8800,Roeselare,Spoelstraat,14,50.9660809995,3.11611861448
8800,Roeselare,Vijfwegenstraat,118,50.9379897951,3.12900390235
8800,Roeselare,Koning Leopold I-laan,3,50.9325550949,3.13777186877
8800,Roeselare,Mandelstraat,1,50.937229208,3.15585400503
8800,Roeselare,Fabrieksstraat,45,50.9519611123,3.13530358275
8800,Roeselare,Staakmolenstraat,45,50.9314502241,3.13248352042
8800,Roeselare,Vlamingstraat,26,50.9485091449,3.12838171896
8800,Roeselare,Kuipersstraat,51,50.9533525943,3.10731770117
8800,Roeselare,Batavialaan,19,50.9517884831,3.14303299364
8800,Roeselare,Heirweg,3,50.973533424,3.14452406268
8800,Roeselare,Riddersstraat,89,50.9643252842,3.13948219181
8800,Roeselare,Diksmuidsesteenweg,24,50.9457087502,3.11884376857
8800,Roeselare,Heirweg,187,50.9894378609,3.16457042083
8800,Roeselare,Sparstraat,7,50.9358526652,3.11050575327
8800,Roeselare,Hagedoornstraat,7,50.9350021745,3.1080150141
8800,Roeselare,Piljoenstraat,46,50.9344582192,3.09435469888
8800,Roeselare,Louis Leynstraat,44,50.9333109982,3.1494594144
8800,Roeselare,Rumbeeksesteenweg,138,50.9395630446,3.13041986675
8800,Roeselare,Joe Englishstraat,33,50.9293318556,3.16382470178
8800,Roeselare,Rumbeeksesteenweg,429,50.9345370414,3.14988513545
8800,Roeselare,Zwaaikomstraat,62,50.9537518014,3.14964847497
8800,Roeselare,Rosmolenstraat,33,50.9182614991,3.15653351997
8800,Roeselare,Hellestraat,12,50.9567590943,3.08530317856
8800,Roeselare,Honzebroekstraat,80,50.9619144727,3.11462714917
8800,Roeselare,Spechtendreef,14,50.9596530914,3.11305947799
8800,Roeselare,Weststraat,136,50.9484820949,3.10986283363
8800,Roeselare,Ovenstraat,14,50.9477708588,3.09497759393
8800,Roeselare,Meiboomlaan,56,50.934285385,3.11722277051
8800,Roeselare,Molenstraat,112,50.9422049311,3.11492286645
8800,Roeselare,Wagenbrugstraat,6,50.9789015052,3.14436954554
8800,Roeselare,Groene-Herderstraat,28,50.9346764863,3.14085704851
8800,Roeselare,Wilde-Kastanjestraat,13,50.9260864729,3.13238164697
8800,Roeselare,Kalkenstraat,43,50.9497607707,3.14574415633
8800,Roeselare,Jonkersstraat,44,50.9624115504,3.13686672766
8800,Roeselare,Iepersestraat,210,50.9399000535,3.11518692598
8800,Roeselare,Moorseelsesteenweg,16,50.9223895202,3.13907973268
8800,Roeselare,Rennevoordestraat,20,50.8919379385,3.15510460353
8800,Roeselare,Beekstraat,22,50.9578025927,3.11159653505
8800,Roeselare,Boomgaardstraat,69,50.9373753633,3.1282349879
8800,Roeselare,Platanenstraat,11,50.9350241874,3.10658094002
8800,Roeselare,Iepersestraat,4,50.9426891238,3.12412610898
8800,Roeselare,Meulebekestraat,34,50.95425719,3.13299128423
8800,Roeselare,Fabrieksstraat,10,50.9514612458,3.13631587975
8800,Roeselare,Sint-Eloois-Winkelsestraat,132A,50.8979046397,3.1615619403
8800,Roeselare,Staakmolenstraat,10,50.931727788,3.13479635535
8800,Roeselare,Meensesteenweg,163,50.9375654069,3.12163049101
8800,Roeselare,Ieperseweg,56,50.9004225983,3.1203039468
8800,Roeselare,Grote-Bassinstraat,14,50.9518266881,3.11485563478
8800,Roeselare,Blauwvoetstraat,15,50.9408667821,3.10518140597
8800,Roeselare,Henri Horriestraat,18,50.9469125471,3.12553204553
8800,Roeselare,Lijnwaadstraat,2,50.9668252993,3.11127940356
8800,Roeselare,Karabiniersstraat,22,50.9222854496,3.11349341698
8800,Roeselare,Schierveldestraat,79,50.9512424857,3.10815325863
8800,Roeselare,Blauwvoetstraat,33,50.9403827635,3.10579535905
8800,Roeselare,Vierwegstraat,164,50.949725686,3.14975990188
8800,Roeselare,Bruanestraat,66,50.9489814961,3.13816203011
8800,Roeselare,Verwerijstraat,27,50.942851404,3.12371011881
8800,Roeselare,Vijfwegenstraat,297,50.9326930804,3.13510276256
8800,Roeselare,Vierwegstraat,111,50.9479645181,3.14559257637
8800,Roeselare,Sint-Jozefsstraat,59,50.9363916787,3.11739881946
8800,Roeselare,Damaststraat,7,50.9636224422,3.11615038011
8800,Roeselare,Bergeikenstraat,20,50.9255543671,3.1291934311
8800,Roeselare,Ooststraat,72,50.9465362971,3.12701284353
8800,Roeselare,Prinsenhof,46,50.960048874,3.12483118156
8800,Roeselare,Koornstraat,116,50.9475204089,3.13876790858
8800,Roeselare,Stationsdreef,61,50.9530339589,3.12772450741
8800,Roeselare,Armoedestraat,35,50.923030501,3.16453418556
8800,Roeselare,Prins Albertstraat,130,50.9604777758,3.12602728843
8800,Roeselare,Jan van Ruusbroecstraat,20,50.9636299325,3.12890801505
8800,Roeselare,Koestraat,147,50.9259502515,3.15081718342
8800,Roeselare,Landmansstraat,37,50.8942496141,3.11695015888
8800,Roeselare,Leenstraat,25,50.9450402272,3.12815804182
8800,Roeselare,Biezenstraat,44,50.9605910867,3.10690298416
8800,Roeselare,Industrieweg,36,50.9748344053,3.1309107418
8800,Roeselare,Galgestraat,16,50.8978385917,3.10817258903
8800,Roeselare,Kleine Weg,215,50.9283869541,3.10966392728
8800,Roeselare,Jan Breydelstraat,6,50.9376906183,3.13443242614
8800,Roeselare,Ter Bets,5,50.9628503239,3.09692828797
8800,Roeselare,Onledemolenstraat,2A,50.9735916164,3.1439130844
8800,Roeselare,Heropbouwstraat,70,50.9349369945,3.13469719612
8800,Roeselare,Rijselstraat,4,50.9410159778,3.12355631664
8800,Roeselare,Lijnwaadstraat,26,50.9671080833,3.11331965099
8800,Roeselare,Domien Craccostraat,38,50.9442959038,3.1060379979
8800,Roeselare,Jozef De Meesterstraat,35,50.9388494866,3.12334855963
8800,Roeselare,Landbouwstraat,30,50.9502553708,3.12780240506
8800,Roeselare,Jacob van Maerlantlaan,4,50.963158156,3.13300467323
8800,Roeselare,Beversesteenweg,529,50.969667426,3.1500280489
8800,Roeselare,Ooststraat,90,50.9468785901,3.12789241047
8800,Roeselare,Hoogleedsesteenweg,149,50.9537856663,3.11532281707
8800,Roeselare,Joe Englishstraat,15,50.9294350901,3.16514338546
8800,Roeselare,Batavialaan,37,50.951475908,3.14392403101
8800,Roeselare,Mgr. De Haernestraat,40,50.9342541871,3.13758048152
8800,Roeselare,Zuidforeest,6,50.9614175688,3.12363166102
8800,Roeselare,Rumbeeksegravier,95,50.9471834847,3.16560726546
8800,Roeselare,Plaatsmolenstraat,31,50.9148863181,3.16610149163
8800,Roeselare,Trakelweg,44,50.9424039123,3.13650861009
8800,Roeselare,Koning Albert I-laan,94,50.9398381918,3.12772892228
8800,Roeselare,Gladiolenstraat,7,50.9408872836,3.13103708039
8800,Roeselare,Groenestraat,11,50.9453364881,3.11859339446
8800,Roeselare,Handboogstraat,20,50.9522062249,3.11745146769
8800,Roeselare,Spinnersstraat,60,50.9484480237,3.13503229207
8800,Roeselare,Groenestraat,64,50.9454042677,3.11691088035
8800,Roeselare,Koning Leopold I-laan,27,50.9325519834,3.13637653951
8800,Roeselare,Scharestraat,1,50.9452728875,3.12177348145
8800,Roeselare,Heilig-Hartstraat,23,50.9354998106,3.12192540091
8800,Roeselare,Vikingstraat,20,50.9402492575,3.10695127308
8800,Roeselare,Vlamingstraat,2,50.947695848,3.12881494434
8800,Roeselare,Mandelstraat,25,50.9375387094,3.15883418109
8800,Roeselare,Bruanestraat,84,50.9491475893,3.1386899626
8800,Roeselare,Dadizeleleenstraat,8,50.9128120877,3.13711696256
8800,Roeselare,Jozef De Meesterstraat,17,50.9388998566,3.12391952316
8800,Roeselare,Zijstraat,29,50.9538198889,3.12619010264
8800,Roeselare,O.-L.-Vrouwemarkt,13,50.9483671797,3.13473910189
8800,Roeselare,Gitsestraat,218,50.9570612366,3.11759984699
8800,Roeselare,Blekerijstraat,51,50.9446742712,3.1185788729
8800,Roeselare,Meersstraat,4,50.9527697432,3.13888608225
8800,Roeselare,Lijnwaadstraat,79,50.9654863629,3.11196238334
8800,Roeselare,Bergmolenstraat,4,50.9367145161,3.12798381779
8800,Roeselare,Boerenkrijglaan,15,50.9112304327,3.15906156335
8800,Roeselare,Het Gemet,29,50.9311064141,3.10762468497
8800,Roeselare,Hans Memlingstraat,14,50.9261589417,3.16270338586
8800,Roeselare,Blinde-Rodenbachstraat,112,50.9320696993,3.13790951119
8800,Roeselare,Kleine Weg,233,50.9273748001,3.10900169034
8800,Roeselare,Robert Lawetstraat,3,50.9678601047,3.13282854946
8800,Roeselare,Sint-Petrus en Paulusstraat,59,50.9359708194,3.15361725668
8800,Roeselare,Kerkhofstraat,32,50.8916341242,3.1168813901
8800,Roeselare,Rosmolenstraat,68,50.9169669219,3.15721050579
8800,Roeselare,Pastoor Slossestraat,1,50.9318940587,3.15599170662
8800,Roeselare,Processiestraat,12,50.9694254064,3.14294075036
8800,Roeselare,Bornstraat,63,50.9281835105,3.12562968636
8800,Roeselare,Pater Pirestraat,33,50.957522704,3.13817886016
8800,Roeselare,'t Hoog Stuk,52,50.9505097179,3.11066824009
8800,Roeselare,Kattenstraat,95,50.948501687,3.11849996253
8800,Roeselare,Molenstraat,157,50.9415053339,3.11106343665
8800,Roeselare,Orkaanstraat,26,50.9313796303,3.12776331621
8800,Roeselare,Sint-Petrus en Paulusstraat,24,50.9353510968,3.15443433934
8800,Roeselare,Weidestraat,116,50.9663173055,3.10487527582
8800,Roeselare,Sint-Hubrechtsstraat,23,50.9483793203,3.13242834612
8800,Roeselare,Meensesteenweg,320E,50.9307933961,3.11926294604
8800,Roeselare,Middenstraat,15,50.9512098255,3.12782171277
8800,Roeselare,Kleine Kachtemsestraat,10,50.9478984354,3.17076206332
8800,Roeselare,Meensesteenweg,56,50.9409470742,3.12193252503
8800,Roeselare,Het Gemet,5,50.930356608,3.10783503888
8800,Roeselare,Oude Zilverbergstraat,90,50.9227864178,3.12929338914
8800,Roeselare,Kazandstraat,121,50.9421685495,3.15282270056
8800,Roeselare,Brugsesteenweg,441,50.9694838287,3.11918157668
8800,Roeselare,Sint-Eloois-Winkelsestraat,128,50.8989844991,3.16148343643
8800,Roeselare,Noordlaan,63,50.9552047241,3.11711215348
8800,Roeselare,Westlaan,93,50.9382411085,3.11731280206
8800,Roeselare,Kanunnik Duboisstraat,39,50.946095684,3.10787766103
8800,Roeselare,Beversesteenweg,321,50.9639294799,3.13399246294
8800,Roeselare,Groenestraat,401,50.9375812743,3.09632925733
8800,Roeselare,Duizendzinnenstraat,8,50.8917340253,3.14156267241
8800,Roeselare,Verbrandhofstraat,41,50.9243193696,3.17120337147
8800,Roeselare,Kachtemsestraat,336,50.9448998385,3.16987773513
8800,Roeselare,Stationsplein,3,50.9479302373,3.12955763702
8800,Roeselare,Sint-Jozefsstraat,24,50.9378646104,3.12008026692
8800,Roeselare,Brugsesteenweg,51,50.9522545191,3.12031221321
8800,Roeselare,Maïslaan,10,50.9444994881,3.16086363818
8800,Roeselare,Zijstraat,5,50.9540953951,3.12703641013
8800,Roeselare,Palfreniersstraat,21,50.927034964,3.14826955534
8800,Roeselare,Hoogstraat,86,50.9313743002,3.14736700588
8800,Roeselare,Rosmolenstraat,15,50.9166663584,3.15613735814
8800,Roeselare,Heirweg,120A,50.9855124519,3.16028444435
8800,Roeselare,Oostnieuwkerksesteenweg,105,50.9462808291,3.10039842283
8800,Roeselare,Spoelstraat,49,50.9671476941,3.11548317008
8800,Roeselare,Herdersstraat,115,50.9380300691,3.14320402871
8800,Roeselare,Windstraat,8,50.9315783493,3.12406686455
8800,Roeselare,Ramskapellestraat,6,50.9681988494,3.15113121059
8800,Roeselare,Prins Boudewijnstraat,66,50.9585952415,3.12176957689
8800,Roeselare,Zuidmolenstraat,119,50.9344796642,3.12893967411
8800,Roeselare,Groenestraat,479,50.9367123496,3.08814172673
8800,Roeselare,Kaaistraat,70,50.9429935716,3.14118177141
8800,Roeselare,Biezenhof R,2,50.9627840947,3.10734298656
8800,Roeselare,Haverstraat,18,50.9429637005,3.11264549493
8800,Roeselare,Pieter Pauwel Rubensplein,11,50.9263677068,3.16237980279
8800,Roeselare,Rondekomstraat,1,50.9512603028,3.12657371127
8800,Roeselare,Kasteeldreef,30,50.9368629045,3.12921536522
8800,Roeselare,Hugo Verrieststraat,11,50.9493328672,3.12457014347
8800,Roeselare,Azalealaan,24,50.940302491,3.1375402177
8800,Roeselare,Gitsestraat,12,50.9642598199,3.11613748958
8800,Roeselare,Mandellaan,295,50.9476272301,3.14248815642
8800,Roeselare,Groothofstraat,9,50.963537112,3.13736079569
8800,Roeselare,Havenstraat,21,50.9405051607,3.14643498972
8800,Roeselare,Klokkeputstraat,5,50.9620940027,3.10208228031
8800,Roeselare,Kermisstraat,38,50.9430065692,3.11999568644
8800,Roeselare,Mandellaan,267,50.948145974,3.14126388599
8800,Roeselare,Jonkersstraat,69,50.9639650835,3.13984797753
8800,Roeselare,Ardooisesteenweg,27,50.949331794,3.1317464278
8800,Roeselare,Bollenstraat,34,50.9412966433,3.1218069797
8800,Roeselare,Riddersstraat,46,50.9643727269,3.13824133984
8800,Roeselare,Iepersestraat,28,50.9426713424,3.12307523974
8800,Roeselare,Sint-Hubrechtsstraat,58,50.9473069622,3.13323507479
8800,Roeselare,Schoolstraat,106,50.9719106772,3.1438090353
8800,Roeselare,Toekomststraat,10,50.9524531394,3.1338964956
8800,Roeselare,Beversesteenweg,32,50.9502662026,3.13128755703
8800,Roeselare,Edmond De Leyestraat,42,50.9579288147,3.10316243466
8800,Roeselare,Koestraat,102,50.9249573146,3.14954007942
8800,Roeselare,Izegemsestraat,120,50.9305193844,3.16937857526
8800,Roeselare,Brugsesteenweg,129,50.9543748903,3.12153727742
8800,Roeselare,Kerkweg,13,50.9181422603,3.16242883364
8800,Roeselare,Kortewagenstraat,6,50.8999653729,3.12191598779
8800,Roeselare,Beversesteenweg,404,50.967227187,3.13964306156
8800,Roeselare,Burgemeestersstraat,16,50.9159225977,3.16163266513
8800,Roeselare,Brugsesteenweg,257,50.9588149151,3.12099303958
8800,Roeselare,Moorseelsesteenweg,44,50.9152657521,3.13993826004
8800,Roeselare,Diksmuidsesteenweg,123,50.9463205164,3.11534331583
8800,Roeselare,Vijfwegenstraat,190,50.9358822292,3.13055595734
8800,Roeselare,Izegemseaardeweg,247,50.9551187099,3.16277320011
8800,Roeselare,Happestraat,4,50.9345402463,3.11442857905
8800,Roeselare,Jan Van Eyckstraat,32,50.925928702,3.15970237987
8800,Roeselare,Diksmuidsesteenweg,374,50.9526959264,3.105307653
8800,Roeselare,Koornstraat,17,50.9486622644,3.13844750156
8800,Roeselare,Walkurenstraat,55,50.9384763182,3.10748756495
8800,Roeselare,Ardooisesteenweg,287,50.9528979184,3.14317225197
8800,Roeselare,Schildersstraat,23D,50.9521610559,3.10906015101
8800,Roeselare,Iepersestraat,288,50.9384158186,3.11118947843
8800,Roeselare,Oude Kantinestraat,9,50.8945412046,3.16058531352
8800,Roeselare,Vierwegstraat,199,50.9502720693,3.14969375939
8800,Roeselare,Oostnieuwkerksesteenweg,62,50.9476878032,3.10470228544
8800,Roeselare,Rumbeeksesteenweg,221,50.9389384039,3.13344725079
8800,Roeselare,Beversesteenweg,303,50.9618110567,3.1333841029
8800,Roeselare,Gitsestraat,282,50.9599172675,3.11788925196
8800,Roeselare,Koolbrandersstraat,22,50.8941523555,3.11511437522
8800,Roeselare,Groenestraat,253,50.941935865,3.10665604565
8800,Roeselare,Kastanjestraat,29,50.9342396548,3.1164406044
8800,Roeselare,Industrieweg,64,50.9792061179,3.12909491798
8800,Roeselare,Bollenstraat,16,50.9412879211,3.12116273603
8800,Roeselare,Brabantstraat,52B,50.9841494009,3.1677822559
8800,Roeselare,Dennenstraat,27,50.9333496868,3.11257352887
8800,Roeselare,Kortrijksestraat,13,50.9191118509,3.1502940616
8800,Roeselare,Veldstraat,104,50.9414131468,3.13020114671
8800,Roeselare,Mgr. De Haernestraat,37,50.9343615842,3.13801460103
8800,Roeselare,Renpaardestraat,24,50.9296476251,3.15036859124
8800,Roeselare,Rumbeeksesteenweg,450,50.9339461993,3.15087535562
8800,Roeselare,Blommestraat,78,50.9311838333,3.13831031846
8800,Roeselare,'t Hoog Stuk,24,50.9495234929,3.11084810756
8800,Roeselare,Wijnendalestraat,23,50.9691165596,3.141817015
8800,Roeselare,Schaaphofweg,10,50.9615314241,3.10873323223
8800,Roeselare,Daglandstraat,41,50.9325738392,3.10790793876
8800,Roeselare,Spanjestraat,105,50.9463014997,3.13589379497
8800,Roeselare,Groenestraat,135,50.9440424458,3.11269318415
8800,Roeselare,Spanjestraat,59,50.9464380434,3.13506876633
8800,Roeselare,Honzebroekstraat,2,50.9591527442,3.11713124368
8800,Roeselare,Sint-Amandsstraat,137,50.9496268115,3.12778216521
8800,Roeselare,Jonkersstraat,87,50.9637027282,3.14044054864
8800,Roeselare,Sint-Jozefsstraat,123,50.9346002657,3.11280825925
8800,Roeselare,Sint-Petrus en Paulusstraat,7,50.9338688644,3.1552729855
8800,Roeselare,Rumbeeksesteenweg,60,50.9402427689,3.12764408837
8800,Roeselare,Groenestraat,526,50.9363794782,3.0836396312
8800,Roeselare,Iepersestraat,145,50.9405198795,3.11770397899
8800,Roeselare,Meensesteenweg,21,50.9418389918,3.12265875875
8800,Roeselare,Duizendzinnenstraat,1,50.891364479,3.14226543711
8800,Roeselare,Izegemsestraat,102,50.9306979757,3.16715523019
8800,Roeselare,Ardooisesteenweg,144,50.9511847402,3.139343368
8800,Roeselare,Domien Craccostraat,4,50.9422695945,3.10586895727
8800,Roeselare,Perelaarstraat,2,50.948781013,3.14351801897
8800,Roeselare,Wilgenstraat,41,50.9382442879,3.11979312663
8800,Roeselare,Prins Albertstraat,76,50.9589400821,3.12631158542
8800,Roeselare,Wallenstraat,16,50.9448257372,3.12148039134
8800,Roeselare,Vierwegstraat,208,50.9521980286,3.15384920297
8800,Roeselare,Schuttersstraat,1,50.9488382472,3.11334801886
8800,Roeselare,Garenstraat,5,50.9478723424,3.12696710129
8800,Roeselare,Vinkenstraat,10,50.9582692497,3.11631209293
8800,Roeselare,Hans Memlingstraat,49,50.9256246223,3.16062716024
8800,Roeselare,Groenestraat,117,50.944340734,3.113786105
8800,Roeselare,Nijverheidsstraat,9,50.9484517473,3.1338366975
8800,Roeselare,Kwadestraat,6,50.9316810772,3.15730864867
8800,Roeselare,Menenpoortstraat,7,50.92932497,3.11493183407
8800,Roeselare,Ijzerstraat,36,50.9676444485,3.15110004032
8800,Roeselare,Oostnieuwkerksesteenweg,176,50.9458570278,3.09427157404
8800,Roeselare,Klokkeputstraat,111,50.9651112627,3.10284649994
8800,Roeselare,Boomgaardstraat,44,50.9353010953,3.12696872348
8800,Roeselare,Oude Zilverbergstraat,26,50.9213112242,3.11906949748
8800,Roeselare,Mgr. De Haernestraat,19,50.9350103781,3.13715116565
8800,Roeselare,Iepersestraat,335,50.9369707729,3.10894804511
8800,Roeselare,Vijfwegenstraat,172,50.9362762146,3.13030183164
8800,Roeselare,Koornstraat,35,50.9482500339,3.13867790931
8800,Roeselare,Brugsesteenweg,275,50.9593594195,3.1209545001
8800,Roeselare,Cipressenstraat,28,50.9362265224,3.10942532354
8800,Roeselare,Diksmuidsesteenweg,238,50.947705918,3.11138156886
8800,Roeselare,Windmolenstraat,8,50.9291644893,3.12293101802
8800,Roeselare,Collievijverpark,6,50.9339579934,3.11114443163
8800,Roeselare,Weststraat,37,50.9488441395,3.11559471229
8800,Roeselare,Gentstraat,55,50.9202259935,3.11902100386
8800,Roeselare,Gaaipersstraat,9,50.9504177532,3.11922815416
8800,Roeselare,Biezenhof D,5,50.9637249401,3.11141490201
8800,Roeselare,Sint-Eloois-Winkelsestraat,40,50.9128055743,3.16023235421
8800,Roeselare,Bilkwegel,1,50.958085558,3.11082609374
8800,Roeselare,Iepersestraat,418,50.9348987148,3.10384896426
8800,Roeselare,Moorseelsesteenweg,194,50.8978766585,3.14461050572
8800,Roeselare,Sint-Lutgardstraat,14,50.9369688308,3.10488039402
8800,Roeselare,Piljoenstraat,11,50.9317316508,3.09256595675
8800,Roeselare,Stijn Streuvelsstraat,41,50.9385480053,3.14392814021
8800,Roeselare,Meensesteenweg,263,50.9338439854,3.12113393047
8800,Roeselare,Moorseelsesteenweg,168,50.9018038705,3.14405262144
8800,Roeselare,Seringenstraat,73,50.940250452,3.13627173262
8800,Roeselare,Kouterweg,2A,50.9696397658,3.14045223666
8800,Roeselare,Leeuwerikstraat,20,50.9569476316,3.11388988647
8800,Roeselare,Stationsdreef,139,50.9549021847,3.12713704504
8800,Roeselare,Ardooisesteenweg,316,50.9558783063,3.15556066818
8800,Roeselare,Jan Hijoensstraat,26,50.93797674,3.10353237373
8800,Roeselare,Heirweg,91,50.984581666,3.15652378276
8800,Roeselare,Weidestraat,10,50.9617752396,3.10651038681
8800,Roeselare,Fierheidstraat,8,50.9383577253,3.10461561321
8800,Roeselare,Edmond De Leyestraat,60,50.9581233466,3.10367007912
8800,Roeselare,Bobijnstraat,1,50.9674949683,3.11645146875
8800,Roeselare,Koestraat,120,50.9235917986,3.14898209071
8800,Roeselare,Goudenregenstraat,5,50.9341147073,3.10954102475
8800,Roeselare,Sint-Elooisstraat,14,50.9336865376,3.12511118941
8800,Roeselare,Begoniastraat,118,50.9386653795,3.14165653065
8800,Roeselare,Stampkotstraat,8,50.9208325251,3.15845333697
8800,Roeselare,Rumbeeksesteenweg,174,50.9393216162,3.13147565061
8800,Roeselare,Koning Leopold I-laan,91,50.9339272417,3.13612573861
8800,Roeselare,Zannekinstraat,18,50.9390130173,3.10413622202
8800,Roeselare,Prins Albertstraat,94,50.9594470916,3.12618740664
8800,Roeselare,Populierstraat,163,50.9516604784,3.15546789274
8800,Roeselare,Rumbeeksesteenweg,42,50.9404283854,3.127121077
8800,Roeselare,Schierveldestraat,90,50.951587451,3.10899214376
8800,Roeselare,Rozenstraat,13,50.9399156538,3.13243613627
8800,Roeselare,Zwaanhof,22,50.9356536096,3.12876553083
8800,Roeselare,Kalkenstraat,15,50.9505839495,3.14431110102
8800,Roeselare,Hof van 't Henneken,68,50.9397845859,3.12453681288
8800,Roeselare,Zonnebloemstraat,4,50.9387268826,3.13915315637
8800,Roeselare,Lorkenstraat,4,50.9336981299,3.10578228208
8800,Roeselare,Kleine Kalkenstraat,29,50.950354933,3.14762858616
8800,Roeselare,Westlaan,264,50.9452939824,3.11346431993
8800,Roeselare,Zijstraat,50,50.9540969847,3.12499167647
8800,Roeselare,Zuidmolenstraat,137,50.9344923125,3.12984096111
8800,Roeselare,Constant Permekestraat,7,50.9242856259,3.1577401457
8800,Roeselare,Nieuwe Abelestraat,1,50.9209750173,3.16693337941
8800,Roeselare,Prinsenhof,11,50.9591383282,3.12270008701
8800,Roeselare,Langemarkstraat,28,50.9426355619,3.12135388679
8800,Roeselare,Blinde-Rodenbachstraat,130,50.931958668,3.1369311799
8800,Roeselare,Schildersstraat,23B,50.9521698737,3.10914474483
8800,Roeselare,Schoolstraat,96,50.9716439855,3.14348607996
8800,Roeselare,Manestraat,15,50.9447331679,3.12275553119
8800,Roeselare,Albrecht Rodenbachstraat,24,50.9457801893,3.12055859241
8800,Roeselare,Koning Leopold III-laan,66,50.9604996079,3.12485211519
8800,Roeselare,Zwaaikomstraat,34,50.9526061898,3.15022494053
8800,Roeselare,Kortrijksestraat,31,50.9155100064,3.15777743697
8800,Roeselare,Molenstraat,165,50.941327191,3.11031188491
8800,Roeselare,Noordlaan,88,50.9549314338,3.11470875169
8800,Roeselare,Armoedestraat,45,50.9234562813,3.16535838162
8800,Roeselare,Groenestraat,271,50.9410578525,3.10430524628
8800,Roeselare,Jan Mahieustraat,4,50.9472346603,3.12747938277
8800,Roeselare,Koolzaadstraat,20,50.8901661072,3.13940934319
8800,Roeselare,Rumbeeksesteenweg,262A,50.9374298719,3.13772313717
8800,Roeselare,Hoogleedsesteenweg,222,50.9556284201,3.11175656575
8800,Roeselare,Lakenstraat,93,50.96324785,3.11472817473
8800,Roeselare,Kattenstraat,49,50.9474779334,3.11847429505
8800,Roeselare,Mandellaan,314,50.9477007331,3.14114018717
8800,Roeselare,Kouterweg,41,50.9724880898,3.13805876032
8800,Roeselare,Iepersestraat,436,50.9346179265,3.10322964473
8800,Roeselare,Biezenhof K,9,50.9634794512,3.10873842517
8800,Roeselare,Elzenstraat,4,50.9345197259,3.10751078538
8800,Roeselare,Hoogleedsesteenweg,1,50.9510720605,3.11961537346
8800,Roeselare,Gitsestraat,246,50.9587005782,3.11760125508
8800,Roeselare,Bevrijdingsstraat,2B,50.9678261797,3.14843097794
8800,Roeselare,Damberdstraat,37,50.9396042201,3.12550421643
8800,Roeselare,Jules Lagaelaan,26,50.9484722618,3.13130668377
8800,Roeselare,Rode-Kruisstraat,43,50.9405596136,3.12016481043
8800,Roeselare,Kachtemsestraat,5,50.9460039413,3.14574571468
8800,Roeselare,Koestraat,94,50.9254883162,3.15008832374
8800,Roeselare,Izegemseaardeweg,283,50.9543063639,3.16506650302
8800,Roeselare,Kerkplein,5,50.9341834162,3.15476546153
8800,Roeselare,De Gotelaar,51,50.9694549759,3.10656585237
8800,Roeselare,Blekerijstraat,23,50.9447712918,3.1178108008
8800,Roeselare,Zilvermolenstraat,37,50.9179868746,3.11340209366
8800,Roeselare,Rosmolenstraat,114,50.9191186431,3.15728214437
8800,Roeselare,Karnemelkstraat,12,50.9451540445,3.12198654859
8800,Roeselare,Biezenhof B,5,50.9650354293,3.11036722581
8800,Roeselare,Schoolstraat,47,50.9706018075,3.14192354204
8800,Roeselare,Sparstraat,52,50.9348629242,3.10977805421
8800,Roeselare,Stadenstraat,63,50.9562473529,3.10573343006
8800,Roeselare,Hagewegel,25,50.9585054571,3.10813448294
8800,Roeselare,Meensesteenweg,518,50.9137671814,3.1155717695
8800,Roeselare,Moorseelsesteenweg,80,50.9117873811,3.13980841941
8800,Roeselare,Ieperseweg,74,50.9004809836,3.12124672854
8800,Roeselare,Oostrem,11,50.9451806136,3.14292422777
8800,Roeselare,De Gotelaar,6,50.9658190736,3.10716384704
8800,Roeselare,Meensesteenweg,489,50.9136727582,3.11628650781
8800,Roeselare,Ketsersstraat,23,50.9186233257,3.15978494064
8800,Roeselare,Gieterijstraat,22,50.945789667,3.1349847686
8800,Roeselare,Hendrik Consciencestraat,82,50.9490587037,3.12910357232
8800,Roeselare,Skaldenstraat,11,50.9380460426,3.10879681478
8800,Roeselare,Spinnersstraat,52,50.9485614272,3.1348555363
8800,Roeselare,Noordstraat,181,50.9500973327,3.12012551536
8800,Roeselare,Sint-Jozefsstraat,105,50.9347901079,3.11442987002
8800,Roeselare,Weidestraat,98,50.9665623149,3.10594020319
8800,Roeselare,Gareelstraat,5,50.9199184071,3.15805545958
8800,Roeselare,Désiré Mergaertstraat,12,50.9497752162,3.11971194903
8800,Roeselare,Ijzerstraat,18,50.9666655838,3.14995497793
8800,Roeselare,Bornstraat,152,50.9289075543,3.12025477184
8800,Roeselare,Keizer Karelstraat,12,50.9259605533,3.14431484319
8800,Roeselare,Oekensestraat,66,50.929847416,3.15528147345
8800,Roeselare,Zilvermolenstraat,19,50.9191232692,3.11564117829
8800,Roeselare,Herdersstraat,2,50.941776423,3.14196409939
8800,Roeselare,Hoogleedsesteenweg,185,50.9544800382,3.11349683469
8800,Roeselare,Brugsesteenweg,340,50.9660085521,3.12076410442
8800,Roeselare,Pastoriestraat,15,50.9661511574,3.14474249326
8800,Roeselare,Mandeldreef,58,50.9532367,3.13484261763
8800,Roeselare,Koestraat,227,50.9174767681,3.14517394335
8800,Roeselare,Diswegel,32,50.9603687606,3.10926100377
8800,Roeselare,De Witte Reek,16,50.9539839028,3.13798343574
8800,Roeselare,Biezenhof H,12,50.9646757019,3.1085095366
8800,Roeselare,Godshuislaan,22,50.9579047824,3.12597529757
8800,Roeselare,De Zilten,115,50.9546399782,3.09340712848
8800,Roeselare,Mandellaan,142,50.9529985404,3.13641157415
8800,Roeselare,Zuidstraat,63,50.9415892168,3.12486464538
8800,Roeselare,Lijnwaadstraat,54,50.9659334821,3.11271367533
8800,Roeselare,Damberdstraat,19,50.9398625934,3.12637889158
8800,Roeselare,Lindenstraat,77,50.9380313006,3.11428719168
8800,Roeselare,Molenstraat,51,50.942104818,3.11887870001
8800,Roeselare,Izegemseaardeweg,13,50.967302189,3.14513033774
8800,Roeselare,Hoogleedsesteenweg,53,50.9520064811,3.1186458387
8800,Roeselare,Diksmuidsesteenweg,650,50.9574733679,3.08227236571
8800,Roeselare,Hendrik Consciencestraat,26,50.9481755987,3.12646550922
8800,Roeselare,Krekelstraat,28,50.9386252311,3.12674517467
8800,Roeselare,Bunderstraat,28,50.9311804875,3.10852084234
8800,Roeselare,Kwadestraat,3A,50.9316899653,3.15845084301
8800,Roeselare,David Teniersstraat,47,50.9275404482,3.16233814597
8800,Roeselare,Meenseheirweg,110,50.934246876,3.12423214588
8800,Roeselare,Beversesteenweg,49,50.9516403547,3.1311381651
8800,Roeselare,Moorseelsesteenweg,213,50.8931225124,3.14606904854
8800,Roeselare,Diksmuidsesteenweg,105,50.9461932695,3.11580439879
8800,Roeselare,Groenestraat,562,50.9348659938,3.08014878629
8800,Roeselare,Beverseaardeweg,7,50.954550466,3.13601610403
8800,Roeselare,Hellestraat,93,50.9607613538,3.08789510728
8800,Roeselare,Kasteelstraat,55,50.9336379507,3.12970529862
8800,Roeselare,Populierstraat,245,50.9560079711,3.15414299227
8800,Roeselare,Kattenstraat,131,50.9492574033,3.11812544107
8800,Roeselare,Sint-Eloois-Winkelsestraat,67A,50.9111956545,3.1607934061
8800,Roeselare,Henri Horriestraat,26,50.947104828,3.12541053612
8800,Roeselare,Oudstrijderslaan,37,50.9268317353,3.16708717297
8800,Roeselare,Grote Markt,8,50.9447473931,3.12370806229
8800,Roeselare,Rumbeeksesteenweg,156,50.9394426168,3.13098766593
8800,Roeselare,Molenstraat,6,50.9421660985,3.12069512393
8800,Roeselare,Kwarteldreef,47,50.9592203294,3.11013599683
8800,Roeselare,Groenestraat,89,50.9445684723,3.11454521539
8800,Roeselare,Joseph Denolfstraat,11,50.9675223246,3.10844743712
8800,Roeselare,Berkenstraat,18,50.933783478,3.11328853016
8800,Roeselare,Vredestraat,43,50.9394327047,3.12608476547
8800,Roeselare,Beversesteenweg,14,50.949538779,3.13127870177
8800,Roeselare,Vijfwegenstraat,201,50.9355752883,3.13117885482
8800,Roeselare,Noordstraat,163,50.9496170616,3.12026966077
8800,Roeselare,Izegemseaardeweg,31,50.9662191519,3.14695051527
8800,Roeselare,Hoogstraat,132,50.930789637,3.1445742915
8800,Roeselare,Westlaan,246,50.9446399151,3.11363223669
8800,Roeselare,Hoogleedsesteenweg,71,50.9524293605,3.11800844679
8800,Roeselare,Wijnendalestraat,58,50.9697206407,3.13897685678
8800,Roeselare,Zuidstraat,25,50.9432729656,3.12583423133
8800,Roeselare,Molenstraat,42A,50.9422759124,3.11753507407
8800,Roeselare,Kachtemsestraat,39,50.9461852559,3.14715331145
8800,Roeselare,Meensesteenweg,99,50.9390067134,3.12207442494
8800,Roeselare,Izegemseaardeweg,156A,50.9579550861,3.15634469242
8800,Roeselare,Kerkplein,39,50.9329002997,3.15581120218
8800,Roeselare,Kleine-Bassinstraat,26,50.949948598,3.12732376351
8800,Roeselare,Brugsesteenweg,566,50.9751611041,3.11960362666
8800,Roeselare,Tulpenstraat,11,50.9395632699,3.14050366995
8800,Roeselare,Schoolstraat,8,50.9694613315,3.14165222794
8800,Roeselare,Jachthoornstraat,11,50.9268333917,3.15018414197
8800,Roeselare,Lindenstraat,24,50.9357744988,3.11763737677
8800,Roeselare,Dammestraat,80,50.9661517751,3.12523030347
8800,Roeselare,Oekensestraat,84,50.9279025623,3.15605398593
8800,Roeselare,Leiestraat,3,50.9667863467,3.14755564824
8800,Roeselare,Werfwegel,4,50.9619790592,3.10757532997
8800,Roeselare,Rumbeeksesteenweg,299,50.9377558394,3.14045392513
8800,Roeselare,Volmolenstraat,15,50.9662108721,3.11388782308
8800,Roeselare,Onledemolenstraat,51,50.9829492959,3.14294115004
8800,Roeselare,Hoogleedsesteenweg,204,50.9552661346,3.11255897655
8800,Roeselare,Iepersestraat,353,50.9366031383,3.10840185889
8800,Roeselare,Vijfwegenstraat,254,50.9338940736,3.13249613043
8800,Roeselare,Hommelweg,9,50.9585812581,3.10944479481
8800,Roeselare,Karnemelkstraat,40,50.9457076648,3.12122213516
8800,Roeselare,Eksaardestraat,59,50.9544443662,3.13347002334
8800,Roeselare,Trakelweg,87,50.9423184416,3.14278126092
8800,Roeselare,Koestraat,76,50.927059785,3.15107888639
8800,Roeselare,Diksmuidsesteenweg,158,50.9469264384,3.11407502684
8800,Roeselare,Zannekinstraat,36,50.9387961112,3.10307017504
8800,Roeselare,Groothofstraat,54,50.9634388147,3.1354439913
8800,Roeselare,Gitsestraat,128,50.9544916419,3.11824043037
8800,Roeselare,Kwarteldreef,8,50.9613732214,3.11219030555
8800,Roeselare,Iepersestraat,501,50.9326984865,3.10000652131
8800,Roeselare,Nachtegaalstraat,1A,50.9556326216,3.11623756833
8800,Roeselare,Vierwegstraat,93,50.9473175676,3.14434025341
8800,Roeselare,Eksaardestraat,24,50.9533512791,3.13527501
8800,Roeselare,Kattenstraat,113,50.9488433426,3.11830697883
8800,Roeselare,Iepersestraat,317,50.9372296444,3.10964769823
8800,Roeselare,Vijfwegenstraat,19,50.9402052461,3.12707902614
8800,Roeselare,Drafstraat,5,50.9557973951,3.12230327915
8800,Roeselare,Kalkenstraat,33,50.9501016939,3.14526061478
8800,Roeselare,David Teniersstraat,8,50.9275279085,3.16051331443
8800,Roeselare,Rumbeeksesteenweg,328,50.9372832686,3.142380193
8800,Roeselare,David Teniersstraat,78,50.926260475,3.16001063341
8800,Roeselare,Gitsestraat,389,50.964363735,3.11682862573
8800,Roeselare,Gebroeders van Raemdonckstraat,30,50.9281862694,3.16627235722
8800,Roeselare,Zwarte-Leeuwstraat,24,50.9527068635,3.11557296532
8800,Roeselare,Roelensbeekstraat,2,50.9709770654,3.15273984759
8800,Roeselare,Meulebekestraat,44,50.9544815982,3.13287207181
8800,Roeselare,James Ensorstraat,20,50.9250986681,3.15930610985
8800,Roeselare,Biezenstraat,34,50.9602608839,3.10664494479
8800,Roeselare,Schellebellestraat,11,50.9495540903,3.14056054851
8800,Roeselare,Spanjestraat,241,50.9461114377,3.14404112725
8800,Roeselare,Hugo Verrieststraat,89,50.9510026705,3.12292238922
8800,Roeselare,Herdersstraat,90,50.9389565529,3.14245514474
8800,Roeselare,Kleine Weg,161,50.9311259224,3.1118384614
8800,Roeselare,Izegemsestraat,76,50.9312066603,3.16438819115
8800,Roeselare,Dweersstraat,23,50.9349907949,3.15679027628
8800,Roeselare,Pieter Breughelstraat,56,50.9269611849,3.16392409438
8800,Roeselare,Lindenstraat,59,50.9375984471,3.11472932601
8800,Roeselare,Vierwegstraat,226,50.9524001976,3.15442995104
8800,Roeselare,Beukenstraat,11,50.9326668554,3.10519995702
8800,Roeselare,Kanunnik Duboisstraat,42,50.9447987562,3.10736247451
8800,Roeselare,Meikeverstraat,11,50.9269068913,3.13092382736
8800,Roeselare,Ardooisesteenweg,269,50.9527794663,3.14265013375
8800,Roeselare,Jan Van Eyckstraat,14,50.9262023839,3.15837565305
8800,Roeselare,Désiré Van de Wallestraat,29,50.9688807564,3.13524979083
8800,Roeselare,Leiestraat,17,50.9664661224,3.14830205821
8800,Roeselare,Groene-Herderstraat,100,50.9307480123,3.13963757069
8800,Roeselare,Groenestraat,417A,50.9370413429,3.09413388189
8800,Roeselare,Tornooistraat,11,50.963466147,3.13830298916
8800,Roeselare,Blinde-Rodenbachstraat,6,50.9344322841,3.14773476177
8800,Roeselare,Koestraat,209,50.9186873702,3.14622164296
8800,Roeselare,Ieperseweg,92,50.9005321127,3.12188772277
8800,Roeselare,Sint-Jozefsstraat,158,50.9349485714,3.11298603908
8800,Roeselare,Weidestraat,45,50.9622149508,3.10560451158
8800,Roeselare,Abeelstraat,1,50.9390592848,3.11324317393
8800,Roeselare,Heropbouwstraat,44,50.9346965671,3.13383902773
8800,Roeselare,Zwaaikomstraat,2,50.9500819686,3.15081766082
8800,Roeselare,Meersbloemstraat,41,50.9729622927,3.13400456664
8800,Roeselare,Begoniastraat,37,50.9391249115,3.13990314073
8800,Roeselare,Hammestraat,53,50.9524383913,3.13440999468
8800,Roeselare,Constant Lievensstraat,12,50.9555772355,3.1411705377
8800,Roeselare,Grenadiersstraat,19,50.9243104655,3.14382629626
8800,Roeselare,Kristus-Koningstraat,5,50.972711528,3.13880929731
8800,Roeselare,Fabrieksstraat,35,50.9517584656,3.13550062949
8800,Roeselare,Baliestraat,23,50.9546564477,3.14114609027
8800,Roeselare,Vijfwegenstraat,356A,50.9318661551,3.13586771565
8800,Roeselare,Hoogleedsesteenweg,15,50.9514184811,3.11940532316
8800,Roeselare,Zilverbergstraat,246,50.9234797635,3.10032960316
8800,Roeselare,Kerkhofstraat,2B,50.8923203456,3.1146277731
8800,Roeselare,Meensesteenweg,324A,50.9295011318,3.11883540903
8800,Roeselare,Constant Verbekestraat,22,50.9672347773,3.13724820843
8800,Roeselare,Mezenstraat,36,50.9571462776,3.11242877942
8800,Roeselare,Schuttersstraat,33,50.9494346864,3.11334031705
8800,Roeselare,David Teniersstraat,25,50.9275668061,3.16177043298
8800,Roeselare,Vaartstraat,16,50.9460035249,3.13331251158
8800,Roeselare,Kapelhoekstraat,37,50.9906475057,3.16395531488
8800,Roeselare,Kleine Bruanestraat,20,50.9415842487,3.14520374174
8800,Roeselare,Uilstraat,9,50.947157022,3.12167943977
8800,Roeselare,Rosmolenstraat,43,50.9189744427,3.156742258
8800,Roeselare,Izegemsestraat,41,50.9321078554,3.16056715787
8800,Roeselare,Sint-Michielsstraat,44,50.9427657651,3.12237316634
8800,Roeselare,Henri Horriestraat,46,50.9481102735,3.12425814306
8800,Roeselare,Meenseheirweg,217,50.9308198152,3.12259871167
8800,Roeselare,Piljoenstraat,82,50.93692731,3.09399824833
8800,Roeselare,Koning Leopold III-laan,4,50.9602372034,3.12300273552
8800,Roeselare,Constantijn Duboisstraat,2,50.9386981593,3.13284670047
8800,Roeselare,Wagenbrugstraat,13,50.9790038467,3.14121412283
8800,Roeselare,Noordstraat,145,50.9491004033,3.12070411477
8800,Roeselare,Kwarteldreef,25,50.9601717364,3.11039105897
8800,Roeselare,Windmolenstraat,47,50.9303200156,3.1242861697
8800,Roeselare,Hendrik Consciencestraat,46,50.948544657,3.12772553203
8800,Roeselare,Heropbouwstraat,176,50.9358557393,3.13721819647
8800,Roeselare,Oude Zilverbergstraat,97,50.9234795217,3.13105287585
8800,Roeselare,Zuidmolenstraat,155,50.9344882572,3.1306337034
8800,Roeselare,Kortewagenstraat,51,50.8961384255,3.12263724256
8800,Roeselare,Albrecht Rodenbachstraat,77,50.945373195,3.12023740304
8800,Roeselare,Toveressestraat,9,50.9139192568,3.15602853006
8800,Roeselare,Gentstraat,20,50.9181535321,3.11993921025
8800,Roeselare,Wolfaardstraat,4,50.9656116854,3.14692604567
8800,Roeselare,Prins Boudewijnstraat,4,50.9591147834,3.12537724712
8800,Roeselare,Klokkeputstraat,50,50.9614754337,3.10461251774
8800,Roeselare,Gitsestraat,602,50.9742834806,3.11339699998
8800,Roeselare,Westlaan,40,50.93788903,3.1184189568
8800,Roeselare,Botermarkt,26A,50.9439539362,3.12676439252
8800,Roeselare,Wallenstraat,69,50.9450834373,3.1196370156
8800,Roeselare,Windmolenstraat,53,50.9299178682,3.12378524463
8800,Roeselare,Lindenstraat,7,50.9352123522,3.11796153745
8800,Roeselare,Groene-Herderstraat,153,50.9304510284,3.14001338909
8800,Roeselare,Klokkeputstraat,85,50.9636465047,3.10353778852
8800,Roeselare,Landmansstraat,65,50.8943483549,3.11756833026
8800,Roeselare,Zuidforeest,13,50.961925685,3.12219469448
8800,Roeselare,Zuidstraat,45,50.9420124172,3.12479821606
8800,Roeselare,Louis Leynstraat,16,50.9340644747,3.14879049138
8800,Roeselare,Mandellaan,349,50.9460153647,3.14560794235
8800,Roeselare,Polenstraat,4,50.9683685656,3.14814449246
8800,Roeselare,Iepersestraat,456,50.9340825737,3.10200597057
8800,Roeselare,Sint-Henricusstraat,1,50.9223437943,3.11808913341
8800,Roeselare,Pastoriestraat,1,50.9663958911,3.1456082976
8800,Roeselare,Iepersestraat,608,50.930595626,3.09177396043
8800,Roeselare,Sparstraat,14,50.9359497863,3.11012154447
8800,Roeselare,Hagedoornstraat,14,50.9352942059,3.10903985295
8800,Roeselare,Jonkersstraat,16,50.9620997646,3.135339821
8800,Roeselare,Sint-Eloois-Winkelsestraat,113A,50.9005033854,3.16187917251
8800,Roeselare,Sint-Sebastiaansstraat,60,50.9507643281,3.11442188172
8800,Roeselare,Kapelhoekstraat,19,50.9910165322,3.16557003945
8800,Roeselare,'s Gravenstraat,24,50.9384533239,3.12305627588
8800,Roeselare,Zuidmolenstraat,38,50.9346995932,3.12614006427
8800,Roeselare,Mezenstraat,18,50.9563205362,3.11263423127
8800,Roeselare,Essenstraat,7,50.9333888519,3.10796814099
8800,Roeselare,Karabiniersstraat,5,50.9212703492,3.1160070386
8800,Roeselare,Domien Craccostraat,66,50.9437618939,3.10675251977
8800,Roeselare,Laagstraat,15,50.9696420036,3.14325317819
8800,Roeselare,Sparstraat,32,50.9355118007,3.10948675657
8800,Roeselare,Patersstraat,3,50.9438950805,3.12479427986
8800,Roeselare,Orkaanstraat,9,50.9325620664,3.12442079299
8800,Roeselare,Runenstraat,39,50.935544636,3.10169845291
8800,Roeselare,Duizendzinnenstraat,4A,50.8917928534,3.14228851277
8800,Roeselare,Dokter Delbekestraat,22,50.9391032648,3.12294738959
8800,Roeselare,Ooststraat,97,50.9479064876,3.12788515542
8800,Roeselare,Volmolenstraat,1,50.9668199525,3.11364956268
8800,Roeselare,Lierstraat,20,50.950556327,3.14095460877
8800,Roeselare,Ardooisesteenweg,369,50.9582300831,3.16258646294
8800,Roeselare,Sint-Eloois-Winkelsestraat,12,50.9191149313,3.16050221461
8800,Roeselare,Sint-Elooisstraat,67,50.9328182082,3.12829153539
8800,Roeselare,Eksaardestraat,7,50.952989513,3.13526743978
8800,Roeselare,Damaststraat,14,50.9643132081,3.11613606399
8800,Roeselare,Iepersestraat,235,50.9386754125,3.11309393281
8800,Roeselare,Jean-Pierre Monseréstraat,43,50.9515966241,3.14478510938
8800,Roeselare,Hooistraat,23,50.96599182,3.16246975212
8800,Roeselare,Vijfwegenstraat,272,50.9335188662,3.13301464776
8800,Roeselare,Pieter Breughelstraat,21,50.9262059169,3.16361060467
8800,Roeselare,Spinnersstraat,32,50.9490270094,3.13447524746
8800,Roeselare,Wijnendalekouter,3,50.9699066335,3.13088231146
8800,Roeselare,Runenstraat,5,50.9360418045,3.10346714476
8800,Roeselare,Sint-Alfonsusstraat,41,50.9462284379,3.12868037651
8800,Roeselare,Kattenstraat,148,50.9522615326,3.1169545311
8800,Roeselare,Sint-Eloois-Winkelsestraat,146,50.8963506569,3.16190680873
8800,Roeselare,Koekuitstraat,13,50.9115550171,3.11421325149
8800,Roeselare,Groene-Herderstraat,56,50.9328552047,3.14067790407
8800,Roeselare,Iepersestraat,492,50.9332341106,3.10036978706
8800,Roeselare,Watertorenstraat,15,50.9370440261,3.12904979835
8800,Roeselare,Sint-Jorisstraat,24,50.9507432395,3.13353685431
8800,Roeselare,Kerelsstraat,14,50.9403453727,3.11045845123
8800,Roeselare,Klokke-Roelandstraat,41,50.9389749925,3.10611085363
8800,Roeselare,Verbrandhofstraat,165,50.9288859254,3.10565766188
8800,Roeselare,Poststraat,21,50.9454684061,3.12662142065
8800,Roeselare,Magermerriestraat,1,50.9229961622,3.07054011677
8800,Roeselare,Vijfwegenstraat,308,50.9329442933,3.13401687022
8800,Roeselare,Rotsestraat,51,50.9659417751,3.1242541987
8800,Roeselare,Mandellaan,367,50.944960405,3.14644489713
8800,Roeselare,Begoniastraat,19,50.9391050782,3.13945074292
8800,Roeselare,Sint-Amandsstraat,155,50.9499277588,3.12861222025
8800,Roeselare,Weidestraat,63,50.9637608149,3.10450323827
8800,Roeselare,Blekerijstraat,58,50.9432849568,3.11878109869
8800,Roeselare,Iepersestraat,217,50.939063516,3.11390899303
8800,Roeselare,Vijfwegenstraat,290,50.9332594087,3.1334774692
8800,Roeselare,Sint-Jozefsstraat,52,50.9372783426,3.1183720486
8800,Roeselare,Meenseheirweg,66,50.9357519628,3.12480789897
8800,Roeselare,Meensesteenweg,127,50.938390389,3.12184335109
8800,Roeselare,Brugsesteenweg,157,50.9553036366,3.12144668512
8800,Roeselare,Noordstraat,28,50.9461535819,3.12366392451
8800,Roeselare,Boterstraat,28,50.9590784784,3.16193502728
8800,Roeselare,Meenseheirweg,163,50.9329693804,3.12414451204
8800,Roeselare,Kalkenstraat,1,50.950782318,3.1435638277
8800,Roeselare,Izegemsestraat,94,50.9308097232,3.166284402
8800,Roeselare,Vierwegstraat,29,50.9464347206,3.14201281887
8800,Roeselare,Onledegoedstraat,61,50.9745977379,3.13788293151
8800,Roeselare,Koornstraat,170,50.9462928039,3.13957185387
8800,Roeselare,Hammestraat,71,50.9526831312,3.13517443679
8800,Roeselare,Manestraat,1,50.944911807,3.12323051756
8800,Roeselare,Koestraat,155A,50.9254440929,3.15059232803
8800,Roeselare,Schildersstraat,35,50.952334329,3.10839962584
8800,Roeselare,Jan Deweertstraat,10,50.9638874878,3.12729486884
8800,Roeselare,Vijfwegenstraat,37,50.9399867124,3.12737096385
8800,Roeselare,Gitsestraat,40,50.952711104,3.11982552211
8800,Roeselare,Adriaen Willaertstraat,6,50.949713693,3.12097117311
8800,Roeselare,Mgr. De Haernestraat,93,50.9329050331,3.13987118914
8800,Roeselare,Iepersestraat,448,50.9343238255,3.10254325126
8800,Roeselare,Fabrieksstraat,17,50.9513740011,3.13578913114
8800,Roeselare,Brugsesteenweg,229,50.9575946144,3.12088926509
8800,Roeselare,Zuster Idastraat,10,50.9340589913,3.13391057752
8800,Roeselare,Verbrandhofstraat,13,50.9286219812,3.11814580156
8800,Roeselare,Beversesteenweg,504,50.9688757043,3.14758041737
8800,Roeselare,Bobijnstraat,15,50.967494001,3.11581178383
8800,Roeselare,Spanjestraat,7,50.9468406106,3.13262628485
8800,Roeselare,Motestraat,15,50.9434691694,3.12226155982
8800,Roeselare,Biezenhof F,12,50.9641390328,3.11009414691
8800,Roeselare,Koornstraat,55,50.947759893,3.13904086114
8800,Roeselare,Iepersestraat,572,50.9315210225,3.09425019621
8800,Roeselare,Koornstraat,88,50.9481028509,3.13834190752
8800,Roeselare,Hammestraat,47,50.9523024478,3.13432361649
8800,Roeselare,Ardooisesteenweg,180,50.951679932,3.14064239789
8800,Roeselare,Ieperseweg,109,50.9018333872,3.13230511515
8800,Roeselare,Groenestraat,426,50.9378385744,3.09504963952
8800,Roeselare,Wilgenstraat,102,50.937444602,3.11668477723
8800,Roeselare,Iepersestraat,388,50.9356718842,3.10556953348
8800,Roeselare,Beversesteenweg,593,50.9773837345,3.16963407058
8800,Roeselare,Teerlingstraat,9,50.9496597373,3.12559646422
8800,Roeselare,Blinde-Rodenbachstraat,51,50.9322957927,3.14186400475
8800,Roeselare,Weststraat,57,50.948560259,3.11413979248
8800,Roeselare,Rumbeeksesteenweg,399,50.9348037573,3.14809701699
8800,Roeselare,Plaatsweg,14,50.9194591095,3.16000592849
8800,Roeselare,Brugsesteenweg,23,50.9517896767,3.12027519175
8800,Roeselare,Menenpoortstraat,70,50.9298457322,3.11191214476
8800,Roeselare,Iepersestraat,110,50.9415293117,3.11928264887
8800,Roeselare,Seringenstraat,20,50.9403572714,3.13366831754
8800,Roeselare,Brugsesteenweg,584,50.9769939229,3.11956392247
8800,Roeselare,Kasteelstraat,91,50.9329010874,3.12972247168
8800,Roeselare,'t Motje,12,50.936103074,3.13450106374
8800,Roeselare,Het Seminariegoed,7,50.9348794667,3.14306020322
8800,Roeselare,Trakelweg,2,50.9440120129,3.13352389441
8800,Roeselare,Rumbeeksesteenweg,121,50.9400406919,3.1297694955
8800,Roeselare,Hoogstraat,149,50.9294731208,3.14084718178
8800,Roeselare,Kachtemsestraat,289,50.9469491326,3.16027046226
8800,Roeselare,Diksmuidsesteenweg,52,50.9459544063,3.11783248913
8800,Roeselare,Batavialaan,65,50.9499243146,3.14286947956
8800,Roeselare,Honzebroekstraat,69,50.962987912,3.11341952086
8800,Roeselare,Rumbeeksesteenweg,336B,50.9370842847,3.1429899663
8800,Roeselare,Rumbeeksegravier,148,50.9448786824,3.16343736211
8800,Roeselare,Mgr. De Haernestraat,101,50.9330466252,3.13941462392
8800,Roeselare,Groene-Herderstraat,171,50.929830017,3.13984654883
8800,Roeselare,Mandellaan,195,50.9505424686,3.13901732887
8800,Roeselare,Kokelaarstraat,38,50.9488974183,3.12309726275
8800,Roeselare,Regenbeekstraat,7,50.9328277425,3.17019514395
8800,Roeselare,Sint-Elooisplein,29,50.9329501567,3.12876566314
8800,Roeselare,Kleine Kachtemsestraat,3,50.9488320349,3.16804152999
8800,Roeselare,Stationsdreef,68,50.9535004481,3.12814800383
8800,Roeselare,Alfons Carlierstraat,24,50.9454943605,3.11601674615
8800,Roeselare,Jan van Ruusbroecstraat,27,50.964229482,3.12791665589
8800,Roeselare,Kerselaardreef,1A,50.8928049215,3.16755202607
8800,Roeselare,Koornstraat,152,50.9467063787,3.13934085916
8800,Roeselare,Notelaarstraat,13,50.9347592923,3.11671756158
8800,Roeselare,Ten Hove,30,50.9639040829,3.12535053435
8800,Roeselare,Heirweg,55,50.9767133306,3.14740553087
8800,Roeselare,Diksmuidsesteenweg,70,50.9461071816,3.11724350437
8800,Roeselare,Sint-Jozefsstraat,3B,50.9378242676,3.12092938403
8800,Roeselare,Onledegoedstraat,43,50.9731725474,3.13947088285
8800,Roeselare,Aardbeienstraat,8,50.9485176086,3.14478870607
8800,Roeselare,Zwaaikomstraat,16,50.9505123164,3.1539618746
8800,Roeselare,Vijfwegenstraat,154,50.9368849618,3.12973000072
8800,Roeselare,Regenboogstraat,14,50.9316507325,3.12683039661
8800,Roeselare,Koning Leopold I-laan,55,50.9336659062,3.13470500197
8800,Roeselare,Hugo Verrieststraat,117,50.951420584,3.12231478677
8800,Roeselare,Kermisstraat,76,50.9424993997,3.11841239376
8800,Roeselare,Verbrandhofstraat,183,50.9305822923,3.10547558427
8800,Roeselare,Torteldreef,26,50.9598402074,3.10946239218
8800,Roeselare,Meensesteenweg,361,50.9283811971,3.11940396731
8800,Roeselare,Rondekomstraat,15,50.9521439574,3.12606112178
8800,Roeselare,Kaaistraat,32,50.9443851041,3.13609270797
8800,Roeselare,Biezenhof J,3,50.9630425799,3.10908044871
8800,Roeselare,Ardooisesteenweg,65,50.9501334394,3.1330428091
8800,Roeselare,Lijsterstraat,16,50.9581721188,3.1143179263
8800,Roeselare,Ardooisesteenweg,162,50.951409849,3.1399099208
8800,Roeselare,Bergeikenstraat,27,50.9249769462,3.13113417145
8800,Roeselare,Nieuwe Abelestraat,15,50.9220961212,3.17162776414
8800,Roeselare,Sint-Amandsstraat,38,50.948067829,3.12318731285
8800,Roeselare,Tumulusstraat,79,50.9342994987,3.12265615505
8800,Roeselare,Heropbouwstraat,59,50.9351394107,3.13424710534
8800,Roeselare,Mandellaan,468,50.9410877155,3.14829303292
8800,Roeselare,Kardinaal Cardijnlaan,33,50.9574735006,3.13509531975
8800,Roeselare,Iepersestraat,163,50.9399725791,3.1165173055
8800,Roeselare,Lijnwaadstraat,9,50.9671428275,3.11232976029
8800,Roeselare,Kerkplein,50,50.9333610795,3.15530759527
8800,Roeselare,Westlaan,419,50.9539010586,3.11286610823
8800,Roeselare,Arme-Klarenstraat,17,50.9439107573,3.12194529291
8800,Roeselare,Honzebroekstraat,87,50.9640567558,3.11237198289
8800,Roeselare,Landbouwstraat,19,50.9499261872,3.12762807951
8800,Roeselare,Kachtemsestraat,50,50.9463351986,3.14988070182
8800,Roeselare,Hoogleedsesteenweg,150,50.9542880651,3.11540803723
8800,Roeselare,Heirweg,119B,50.9862987533,3.15956738639
8800,Roeselare,Vredestraat,23,50.9394027976,3.12663225022
8800,Roeselare,Steenstraat,86,50.9544326309,3.12099684485
8800,Roeselare,Groene-Herderstraat,92,50.9315746853,3.14014445821
8800,Roeselare,Menenpoortstraat,52,50.930306283,3.11297705804
8800,Roeselare,Stationsdreef,33,50.9515123842,3.12825052378
8800,Roeselare,Heropbouwstraat,24,50.9345087498,3.13310269638
8800,Roeselare,Beverseaardeweg,52,50.9562090345,3.13934096703
8800,Roeselare,Westkouter,21,50.9399029816,3.11402016504
8800,Roeselare,Mandelstraat,8,50.9364480346,3.15686619366
8800,Roeselare,Beekstraat,39,50.9586363504,3.11246119323
8800,Roeselare,Kleine Weg,26,50.932153865,3.11182630326
8800,Roeselare,Bornstraat,35,50.9287464072,3.12785027861
8800,Roeselare,Pastoor Slossestraat,47,50.930375698,3.15344525396
8800,Roeselare,Lijnwaadstraat,72,50.9652594311,3.11255888312
8800,Roeselare,Karabiniersstraat,39,50.9197769147,3.11068733463
8800,Roeselare,Gitsestraat,264,50.9593251887,3.11782489237
8800,Roeselare,Mandellaan,96,50.9543194196,3.1348337875
8800,Roeselare,Cichoreistraat,4,50.949747938,3.12546076884
8800,Roeselare,Gitsestraat,211,50.9575141496,3.11692968926
8800,Roeselare,Diswegel,14,50.9606888263,3.10919418618
8800,Roeselare,Rumbeeksesteenweg,412,50.9343752879,3.14847110968
8800,Roeselare,Stationsdreef,15,50.950995957,3.12841120199
8800,Roeselare,Hoogleedsesteenweg,322,50.9603170314,3.10434720011
8800,Roeselare,Batavialaan,30,50.9509718525,3.14253881133
8800,Roeselare,Staakmolenstraat,3,50.9315517728,3.13610075837
8800,Roeselare,Haakwegel,13,50.960026437,3.10758611065
8800,Roeselare,Groene-Herderstraat,74,50.9324686055,3.1404965192
8800,Roeselare,Herdersstraat,54,50.9406279065,3.14298308369
8800,Roeselare,Ooststraat,26,50.9456427329,3.12550705153
8800,Roeselare,Mgr. De Haernestraat,75,50.9331909493,3.13964929654
8800,Roeselare,Steenstraat,33,50.9545265716,3.11872687152
8800,Roeselare,Sint-Michielsstraat,24,50.9431154143,3.12225515948
8800,Roeselare,Meensesteenweg,210,50.9348350562,3.12040956255
8800,Roeselare,Groene-Herderstraat,48,50.9330259973,3.14076136131
8800,Roeselare,Sneyssensstraat,13,50.9398839761,3.10431566896
8800,Roeselare,Diksmuidsesteenweg,294,50.9483182741,3.10920671467
8800,Roeselare,Guido Gezellelaan,114,50.9367129038,3.15287908089
8800,Roeselare,Groenestraat,18,50.9454602473,3.11808232673
8800,Roeselare,Processiestraat,29,50.9693716061,3.14259203342
8800,Roeselare,Iepersestraat,84,50.9418381312,3.12023851965
8800,Roeselare,Mandellaan,415,50.9423018219,3.14797571908
8800,Roeselare,Ommegangsstraat,21,50.9478770525,3.13386021764
8800,Roeselare,Joannes Vande Ginstestraat,14,50.9682925642,3.13699661389
8800,Roeselare,Knokuilstraat,6,50.9194297447,3.11102775645
8800,Roeselare,Bruanestraat,4,50.9482120256,3.13584687563
8800,Roeselare,Biezenstraat,133,50.9633058883,3.11293778467
8800,Roeselare,Spoelstraat,42,50.9670030724,3.11593381604
8800,Roeselare,Windstraat,1,50.9318792679,3.12410128262
8800,Roeselare,Ooststraat,79,50.9475353912,3.1275899795
8800,Roeselare,Rondekomstraat,33,50.9520307233,3.1257166878
8800,Roeselare,Arme-Klarenstraat,35,50.9438370117,3.12133276854
8800,Roeselare,Krekelstraat,66,50.9381627079,3.12558352032
8800,Roeselare,Koning Leopold I-laan,73,50.9345263687,3.13507137124
8800,Roeselare,Stationsplein,20,50.9488861615,3.12938366674
8800,Roeselare,Bornstraat,3,50.9293920746,3.13060094631
8800,Roeselare,Sneyssensstraat,31,50.9396120034,3.10375495351
8800,Roeselare,Mgr. De Haernestraat,57,50.9340083507,3.1391147007
8800,Roeselare,Heirweg,73,50.9816532007,3.15199856744
8800,Roeselare,Zeger Maelfaitstraat,31,50.9345912254,3.15861990459
8800,Roeselare,Ardooisesteenweg,334,50.9561954978,3.15651200654
8800,Roeselare,Weststraat,75,50.9485075771,3.11320500771
8800,Roeselare,Platanenstraat,18,50.9340702998,3.10665752433
8800,Roeselare,Veldstraat,6,50.9409190114,3.12692652492
8800,Roeselare,Kanunnik Duboisstraat,22,50.9463653955,3.10765921812
8800,Roeselare,Biezenstraat,115,50.9629606602,3.11149076673
8800,Roeselare,Meershofstraat,38,50.9712412695,3.13570316534
8800,Roeselare,Armoedestraat,63,50.9254778819,3.17110625342
8800,Roeselare,Spinnersstraat,14,50.9495354379,3.13413424384
8800,Roeselare,Leenstraat,47,50.9463199012,3.13080784166
8800,Roeselare,Brugsesteenweg,193,50.9561685959,3.12136888797
8800,Roeselare,Dadizeleleenstraat,1,50.9091859521,3.11882445522
8800,Roeselare,Schierveldestraat,72,50.9517342459,3.10951910033
8800,Roeselare,Mandellaan,433,50.9414742874,3.14864641342
8800,Roeselare,Kardinaal Cardijnlaan,68,50.9577356425,3.13575362466
8800,Roeselare,Noordlaan,3,50.9563130502,3.1210276891
8800,Roeselare,Batavialaan,83,50.949566692,3.14242281539
8800,Roeselare,Gitsestraat,419,50.9665832365,3.11674632479
8800,Roeselare,Bornstraat,45A,50.9284244055,3.12683252235
8800,Roeselare,Verbrandhofstraat,130,50.9295398989,3.10845505507
8800,Roeselare,Ieperseaardeweg,38,50.9297249745,3.08841840713
8800,Roeselare,Vrouwenstraat,6,50.9443562155,3.12264713807
8800,Roeselare,Koning Leopold I-laan,20,50.932812262,3.13682284769
8800,Roeselare,Westlaan,282,50.9461849952,3.11318275422
8800,Roeselare,Kasteelstraat,108,50.9321601079,3.12918716926
8800,Roeselare,Rosmolenstraat,61,50.9199915758,3.15692878654
8800,Roeselare,Hellestraat,40,50.9588695238,3.08453580786
8800,Roeselare,Wallenstraat,34,50.945016373,3.12094151609
8800,Roeselare,Ieperseweg,17A,50.9007999119,3.11709109549
8800,Roeselare,Vlamingstraat,9,50.9477394165,3.12841942705
8800,Roeselare,Onledemolenstraat,31,50.9796010265,3.14201097082
8800,Roeselare,Noordstraat,99,50.9478405696,3.12150130755
8800,Roeselare,Beversesteenweg,575,50.9744477379,3.15925818619
8800,Roeselare,Patrijzendreef,10,50.9616924314,3.11005885382
8800,Roeselare,Oude Diksmuidsestraat,27,50.9732981682,3.1159989091
8800,Roeselare,Diksmuidsesteenweg,7,50.945260346,3.11942310849
8800,Roeselare,Kazandstraat,138,50.9414196642,3.15468658261
8800,Roeselare,Rumbeeksesteenweg,192,50.9391702897,3.13193554634
8800,Roeselare,Motestraat,33,50.9432918077,3.121695482
8800,Roeselare,Sint-Jozefsstraat,70,50.9370393128,3.11790147029
8800,Roeselare,Kuipersstraat,58,50.9534250547,3.10629519674
8800,Roeselare,Sint-Eloois-Winkelsestraat,111,50.9009498714,3.1617405962
8800,Roeselare,Populierstraat,145,50.9512368893,3.15705015493
8800,Roeselare,Edmond De Leyestraat,22,50.9573997049,3.10292688458
8800,Roeselare,Stokerijstraat,13,50.9546086648,3.12655139689
8800,Roeselare,Heirweg,20,50.9741251759,3.14607215359
8800,Roeselare,Steenstraat,68,50.9544442473,3.12023615747
8800,Roeselare,Schildersstraat,17,50.9523961852,3.10974273428
8800,Roeselare,Ieperseaardeweg,4,50.9304420773,3.09115443524
8800,Roeselare,Beversesteenweg,522,50.9689462938,3.14902917566
8800,Roeselare,Dadizeleleenstraat,15,50.91114442,3.12599054125
8800,Roeselare,Lijsterstraat,2,50.9583003021,3.11547978877
8800,Roeselare,Sint-Hubrechtsstraat,6,50.9485602713,3.13165632395
8800,Roeselare,Vijfwegenstraat,326,50.9324844116,3.13476024756
8800,Roeselare,Iepersestraat,181,50.9391509874,3.11541709946
8800,Roeselare,Brugsesteenweg,240,50.9615423652,3.12123112944
8800,Roeselare,Handboogstraat,27,50.951948804,3.11740709278
8800,Roeselare,Mandellaan,78,50.9547020283,3.1343601243
8800,Roeselare,Spinnersstraat,67,50.9486845657,3.13525535359
8800,Roeselare,Heropbouwstraat,77,50.9353453445,3.13487711755
8800,Roeselare,Veldbosstraat,5,50.9442578765,3.09327685345
8800,Roeselare,Meensesteenweg,245,50.9342116653,3.121249363
8800,Roeselare,Aardappelhoekstraat,25,50.9519963664,3.15923026948
8800,Roeselare,Kardinaal Cardijnlaan,15,50.9560306791,3.13602689169
8800,Roeselare,Burgemeestersstraat,34,50.9173553013,3.16181401107
8800,Roeselare,Tumulusstraat,26,50.933898727,3.12293014905
8800,Roeselare,Mandelstraat,15,50.9375893666,3.15792991995
8800,Roeselare,Sint-Michielsstraat,9,50.94350386,3.12307477335
8800,Roeselare,Rumbeeksesteenweg,199,50.9391294873,3.1328346315
8800,Roeselare,Beversesteenweg,176,50.9560087706,3.1318848304
8800,Roeselare,Zuidmolenstraat,130,50.9341848636,3.1292379919
8800,Roeselare,Vierwegstraat,172B,50.9500665024,3.1501751783
8800,Roeselare,Kermisstraat,21,50.942714434,3.1203227898
8800,Roeselare,Ooststraat,46,50.9460885655,3.12622090034
8800,Roeselare,Jonkersstraat,52,50.9625945868,3.13784494378
8800,Roeselare,Gasstraat,19,50.9466278258,3.13065412997
8800,Roeselare,Sint-Eloois-Winkelsestraat,134A,50.8974741986,3.16158209957
8800,Roeselare,Havenstraat,38,50.9401173927,3.14556968691
8800,Roeselare,Landbouwstraat,5,50.9497781494,3.12795521562
8800,Roeselare,Moeringstraat,6,50.9386880872,3.10601725961
8800,Roeselare,Bornstraat,73,50.9280504106,3.12426652407
8800,Roeselare,Sint-Hubrechtsstraat,41,50.9475697945,3.13340149874
8800,Roeselare,Gitsestraat,156,50.9549869603,3.11788831428
8800,Roeselare,Weidestraat,37,50.9616323667,3.10531995651
8800,Roeselare,Processiestraat,37,50.9696403165,3.14247864741
8800,Roeselare,Stationsplein,47,50.9503845387,3.12867785897
8800,Roeselare,Rosmolenstraat,25,50.9175716529,3.15632404969
8800,Roeselare,Eksaardestraat,62,50.9542925517,3.13414116199
8800,Roeselare,Kwarteldreef,43,50.9592823422,3.10946199196
8800,Roeselare,De Gotelaar,13,50.9648468073,3.10811669234
8800,Roeselare,Jozef Lievensstraat,9,50.9678681076,3.13449859833
8800,Roeselare,Wagenstraat,24,50.9183907024,3.12317518449
8800,Roeselare,Meensesteenweg,317,50.9307130603,3.11987583954
8800,Roeselare,Sint-Petrus en Paulusstraat,16,50.9345298367,3.15500221692
8800,Roeselare,Louis Leynstraat,52,50.9329063751,3.14967991954
8800,Roeselare,Herdersstraat,125,50.9376617626,3.14214691169
8800,Roeselare,Graaf de Limburg Stirumlaan,20,50.924845055,3.14338759321
8800,Roeselare,David Teniersstraat,43,50.9274495206,3.1621596745
8800,Roeselare,Roterijstraat,6,50.9321997878,3.16429556051
8800,Roeselare,Vijfwegenstraat,197,50.935611619,3.13125657901
8800,Roeselare,Noordlaan,73,50.9550997398,3.11680194451
8800,Roeselare,Kardinaal Cardijnlaan,122,50.9590016204,3.13731000954
8800,Roeselare,Sint-Eloois-Winkelsestraat,65,50.9114353183,3.16077358992
8800,Roeselare,Biezenhof S,8,50.9631825858,3.10675084613
8800,Roeselare,Pieter Breughelstraat,48,50.9266910091,3.16432649403
8800,Roeselare,Biezenhof I,4,50.9632066645,3.11021511797
8800,Roeselare,De Gotelaar,31,50.9680056466,3.10692036876
8800,Roeselare,Leenstraat,15,50.9449205518,3.12788426913
8800,Roeselare,Schaaphofweg,27,50.9606289433,3.10821166741
8800,Roeselare,Vijfwegenstraat,75,50.9392078066,3.1283452136
8800,Roeselare,Gitsestraat,299,50.9607149496,3.11692172456
8800,Roeselare,Rumbeeksesteenweg,467,50.933792492,3.15265864731
8800,Roeselare,Karabiniersstraat,60,50.9208720144,3.10943218454
8800,Roeselare,Gitsestraat,429,50.9671108136,3.1167563052
8800,Roeselare,Meershofstraat,4,50.9723101443,3.13282449039
8800,Roeselare,Lierstraat,47,50.9517084782,3.14222337176
8800,Roeselare,Dennenstraat,10,50.9337837445,3.11202609708
8800,Roeselare,Jacob van Arteveldestraat,10,50.9378689266,3.13210785786
8800,Roeselare,Blommestraat,61,50.9312619139,3.14191862507
8800,Roeselare,Bruanestraat,28,50.9484030021,3.13692961619
8800,Roeselare,Stijn Streuvelsstraat,21,50.9371707169,3.1453323062
8800,Roeselare,Hoogleedsesteenweg,68,50.9528992399,3.11789344054
8800,Roeselare,Zuidmolenstraat,92,50.9341709025,3.12790607027
8800,Roeselare,Lindenstraat,62,50.9385388858,3.11439471568
8800,Roeselare,Daglandstraat,58,50.9326009179,3.10606675707
8800,Roeselare,Beversesteenweg,549,50.9702901823,3.15263377843
8800,Roeselare,Heuvelstraat,28,50.9265875523,3.11990919053
8800,Roeselare,Leiestraat,20,50.9661516888,3.14805567358
8800,Roeselare,Biezenstraat,52,50.9607478801,3.10717110007
8800,Roeselare,Ardooisesteenweg,402,50.9571145605,3.15960123806
8800,Roeselare,Molenstraat,13,50.9420178328,3.1201520579
8800,Roeselare,Klokkeputstraat,32,50.9610741043,3.10323361056
8800,Roeselare,Oude Kantinestraat,18,50.8922293772,3.16045527419
8800,Roeselare,Doorgangsstraat,7,50.9543025837,3.12532200442
8800,Roeselare,Meelstraat,4,50.9412473629,3.11700837922
8800,Roeselare,Hoogleedsesteenweg,229,50.9552911135,3.11167407613
8800,Roeselare,Meenseheirweg,135,50.9340741123,3.12462614041
8800,Roeselare,Iepersestraat,403,50.9352328603,3.10539253993
8800,Roeselare,Ooststraat,64,50.9462061752,3.12696266035
8800,Roeselare,Ketsersstraat,6,50.9178357378,3.1586824741
8800,Roeselare,Schaapsstraat,8,50.9240629268,3.15921529404
8800,Roeselare,Rumbeeksesteenweg,95,50.9403921867,3.12835076745
8800,Roeselare,James Ensorstraat,17,50.924589114,3.15858381398
8800,Roeselare,Zwaaikomstraat,3B,50.9487497619,3.15117345598
8800,Roeselare,Wetterenstraat,3,50.9518670599,3.14121422627
8800,Roeselare,Groothofstraat,36,50.9642315456,3.13669222627
8800,Roeselare,Schierveldestraat,89,50.9504194154,3.1064362657
8800,Roeselare,Piljoenstraat,26,50.932942405,3.09351758563
8800,Roeselare,Blauwvoetstraat,25,50.9405641959,3.10553619028
8800,Roeselare,Menenpoortstraat,34,50.9298415091,3.11439535587
8800,Roeselare,Jachthoornstraat,26,50.9265029274,3.14884329775
8800,Roeselare,Molenstraat,31,50.9420589265,3.11958559839
8800,Roeselare,Brugsesteenweg,132,50.9569392693,3.12169188231
8800,Roeselare,Spanjestraat,80,50.9461015545,3.13588552781
8800,Roeselare,Beekstraat,42,50.958788463,3.11433062892
8800,Roeselare,Sint-Blasiusstraat,22,50.935094855,3.15147727708
8800,Roeselare,Renaat De Rudderstraat,7,50.9274735875,3.16568303353
8800,Roeselare,Rumbeeksesteenweg,218,50.9383468827,3.13426562101
8800,Roeselare,Willem van Saeftingenstraat,5,50.9362500955,3.13569451773
8800,Roeselare,Heirweg,88,50.9843086011,3.15699245508
8800,Roeselare,Oude Diksmuidsestraat,45,50.9735510925,3.11403517962
8800,Roeselare,Bornstraat,55,50.928239798,3.12587686641
8800,Roeselare,Hoogleedsesteenweg,86,50.9531020827,3.11739640563
8800,Roeselare,Kwadestraat,137,50.9215017237,3.17069774571
8800,Roeselare,Sint-Eloois-Winkelsestraat,122C,50.900351211,3.16131395797
8800,Roeselare,Handelsstraat,47,50.956670146,3.12341929114
8800,Roeselare,Weststraat,126,50.9483949018,3.11064552229
8800,Roeselare,Karabiniersstraat,42,50.9200853394,3.11236413798
8800,Roeselare,Rumbeeksesteenweg,430,50.9341226363,3.14970851673
8800,Roeselare,Meenseheirweg,117,50.9344291984,3.12480923241
8800,Roeselare,Meulebekestraat,2,50.9534463542,3.13320664314
8800,Roeselare,Oude-Schoolstraat,9,50.920507385,3.11186212743
8800,Roeselare,Wilgenstraat,56,50.9383962635,3.11927185484
8800,Roeselare,Alfons Carlierstraat,9,50.9457569254,3.11646798649
8800,Roeselare,Galgestraat,24,50.8991195693,3.10632110959
8800,Roeselare,Processiestraat,19,50.9688983864,3.14282837183
8800,Roeselare,Meikeverstraat,26,50.9259297025,3.13059040247
8800,Roeselare,Albrecht Rodenbachstraat,44,50.9456058696,3.12009345411
8800,Roeselare,Hortensiastraat,12,50.9398028381,3.13800767143
8800,Roeselare,Kermisstraat,58,50.9426501008,3.11902313189
8800,Roeselare,Onledemolenstraat,13,50.9735812956,3.14288752566
8800,Roeselare,Aardbeienstraat,15,50.9493045888,3.14391224721
8800,Roeselare,Bollaardstraat,36,50.9690185818,3.13406723136
8800,Roeselare,Groenestraat,72,50.9453275479,3.11664623393
8800,Roeselare,Kerkplein,14,50.9338365068,3.15408980058
8800,Roeselare,Borstelstraat,6,50.9388200328,3.12522902031
8800,Roeselare,Gitsestraat,37,50.9529966193,3.11893473194
8800,Roeselare,Hoogleedsesteenweg,330,50.9601788959,3.10370789375
8800,Roeselare,Kachtemsestraat,14,50.9458064516,3.14661341818
8800,Roeselare,Beversesteenweg,39,50.9511307338,3.13123686146
8800,Roeselare,Iepersestraat,253,50.9381506189,3.11214167745
8800,Roeselare,Toekomststraat,1,50.9520672571,3.13371564108
8800,Roeselare,Kouterweg,23,50.9710901646,3.13917603462
8800,Roeselare,Batavialaan,12,50.951937798,3.14228114206
8800,Roeselare,Brugsesteenweg,6,50.9512219513,3.1203368388
8800,Roeselare,Sint-Jozefsstraat,16,50.9379244728,3.12044293566
8800,Roeselare,James Ensorstraat,35,50.9247979723,3.15835766097
8800,Roeselare,Stationsdreef,122,50.955121018,3.12756340298
8800,Roeselare,Sint-Amandsstraat,4,50.9478786023,3.12217987326
8800,Roeselare,Vloedstraat,15,50.9734360041,3.14824002152
8800,Roeselare,Sint-Amandsstraat,74,50.9486463804,3.12517627646
8800,Roeselare,Valleistraat,32,50.9256329534,3.12573790322
8800,Roeselare,Kapelleweg,12,50.9598454274,3.11195946761
8800,Roeselare,Boomgaardstraat,24,50.9360638764,3.12651144854
8800,Roeselare,Westlaan,530,50.9538405598,3.11373428168
8800,Roeselare,Hellestraat,19,50.9571832435,3.08437840583
8800,Roeselare,Herdersstraat,107,50.9384929666,3.14346058685
8800,Roeselare,Beversesteenweg,194,50.9572191432,3.13110573893
8800,Roeselare,Deken Wallaertstraat,34,50.9712296335,3.13837029537
8800,Roeselare,Vijfwegenstraat,57,50.9394760154,3.12806605934
8800,Roeselare,Meensesteenweg,408,50.9222297096,3.11715223673
8800,Roeselare,Heropbouwstraat,131,50.9359804108,3.1366578871
8800,Roeselare,Skaldenstraat,26,50.9380881686,3.1061783932
8800,Roeselare,Heropbouwstraat,9,50.934658315,3.13254330114
8800,Roeselare,Diksmuidsesteenweg,16,50.9456588203,3.11906909914
8800,Roeselare,Koning Leopold I-laan,47,50.9334730204,3.13502677813
8800,Roeselare,Sint-Jorisstraat,59,50.9515545696,3.13211951945
8800,Roeselare,Heirweg,47,50.9762373545,3.14680558477
8800,Roeselare,Sint-Elooisplein,19,50.933402293,3.12829715754
8800,Roeselare,Parkstraat,9,50.9306889075,3.13426312987
8800,Roeselare,Zilverbergstraat,174,50.92446329,3.09644067494
8800,Roeselare,Sint-Eloois-Winkelsestraat,103,50.9014847419,3.16158524385
8800,Roeselare,Polenstraat,28,50.9669015792,3.14631539533
8800,Roeselare,Wilgenstraat,74,50.938238753,3.11855335414
8800,Roeselare,Smedenstraat,6,50.9521510937,3.11122074934
8800,Roeselare,Gulden-Sporenstraat,6,50.9368516791,3.13402677594
8800,Roeselare,Ange Angillisstraat,25,50.933930983,3.13683432172
8800,Roeselare,Hof van 't Henneken,71,50.9397276361,3.1248899332
8800,Roeselare,Mandellaan,252,50.9490529594,3.1395793982
8800,Roeselare,Meenseheirweg,99,50.9355656155,3.12534582662
8800,Roeselare,Kruisboommolenstraat,25,50.97363295,3.16508043532
8800,Roeselare,Ieperseweg,38,50.9003446178,3.11892279198
8800,Roeselare,Rumbeeksesteenweg,301,50.9377873915,3.14056536508
8800,Roeselare,Biezenstraat,2,50.9590032464,3.10525068232
8800,Roeselare,'t Hoog Stuk,44,50.9501779073,3.11082230976
8800,Roeselare,Hugo Verrieststraat,26,50.950461236,3.12459288655
8800,Roeselare,Begoniastraat,75,50.9389377008,3.14166506332
8800,Roeselare,Dammestraat,77,50.9645127734,3.12514134666
8800,Roeselare,Kachtemsestraat,48A,50.9463393101,3.14978296754
8800,Roeselare,Pater Pirestraat,25,50.9585254714,3.13890687925
8800,Roeselare,Brugsesteenweg,114,50.956000566,3.1218608846
8800,Roeselare,Blekerijstraat,76,50.9428227906,3.11913138088
8800,Roeselare,Blinde-Rodenbachstraat,31,50.9325087211,3.14269443253
8800,Roeselare,Leeuwerikstraat,17,50.9568150179,3.11355251209
8800,Roeselare,Pieter Pauwel Rubensplein,26,50.9261406774,3.16046977931
8800,Roeselare,Gaaipersstraat,18,50.9504351008,3.11857640136
8800,Roeselare,Onledegoedstraat,21B,50.9718772362,3.14095438159
8800,Roeselare,Noordstraat,84,50.947629912,3.12254341528
8800,Roeselare,Hoogstraat,25,50.9322824683,3.15253884768
8800,Roeselare,Vinkenstraat,1,50.9580091409,3.11712160923
8800,Roeselare,Wilgenstraat,21,50.9383794261,3.12034432306
8800,Roeselare,Garenstraat,20A,50.9480140864,3.12803686967
8800,Roeselare,Hoogstraat,71,50.930673887,3.1495530881
8800,Roeselare,Moorseelsesteenweg,143,50.9035098696,3.14418530367
8800,Roeselare,Rumbeeksesteenweg,354,50.9352247762,3.14483638147
8800,Roeselare,Oekensestraat,117,50.9275930638,3.15678180116
8800,Roeselare,Kortewagenstraat,13,50.8988675269,3.12250073102
8800,Roeselare,Adriaen Willaertstraat,41,50.9508977869,3.12200103272
8800,Roeselare,Beversesteenweg,336,50.9645297308,3.13509398186
8800,Roeselare,Klokkeputstraat,138,50.9658806681,3.10343965697
8800,Roeselare,Mandellaan,206,50.950008336,3.13874140911
