PKANCODE,COMMUNE_NL,STREET_NL,HUISNR,LAT,LON
8820,Torhout,Bakvoordestraat,8,51.0435940254,3.09145621116
8820,Torhout,Rozeveldstraat,62,51.0867315611,3.1343898228
8820,Torhout,Meibosstraat,29,51.0530296079,3.10015575367
8820,Torhout,Oostendestraat,238,51.069321852,3.08771492113
8820,Torhout,Wijnendale-Stationsstraat,77,51.0860088145,3.07451292653
8820,Torhout,Violierstraat,1,51.0543964196,3.1171190376
8820,Torhout,Zwevezelestraat,22,51.060123777,3.11035226876
8820,Torhout,Kwaplasstraat,25,51.0573221333,3.12029244275
8820,Torhout,Eugeen Van Oyestraat,65,51.0626015699,3.09854141432
8820,Torhout,Viereikenstraat,5,51.0487030824,3.12681420293
8820,Torhout,Doornstraat,10,51.0697124338,3.07865772583
8820,Torhout,Boeiaardstraat,29,51.0636358794,3.10421810584
8820,Torhout,Werkenstraat,44,51.0657940825,3.09351108582
8820,Torhout,Kleistraat,7,51.0867285228,3.0957717836
8820,Torhout,Driekoningenstraat,63,51.0844990961,3.11309379227
8820,Torhout,Rozeveldstraat,80,51.0873798823,3.13620826064
8820,Torhout,Steenstraat,92,51.0954736174,3.06587426406
8820,Torhout,Eugeen Van Oyestraat,83,51.0621360093,3.09656953524
8820,Torhout,Ruddervoordestraat,70,51.0634981483,3.1139526136
8820,Torhout,Pieter de Coninckstraat,11,51.063371913,3.09498924037
8820,Torhout,Vredelaan,69,51.0574786321,3.09829638793
8820,Torhout,Maria Van Bourgondiëlaan,49,51.0693580602,3.09742228636
8820,Torhout,Karperstraat,2,51.093278519,3.07091772384
8820,Torhout,Gwijde Van Dampierrestraat,18,51.0733917232,3.09747510449
8820,Torhout,Sterstraat,41,51.0253589672,3.09897484349
8820,Torhout,Kasteelstraat,16,51.0621821431,3.10770765684
8820,Torhout,'s Gravenwinkelstraat,56,51.0680646233,3.09999965691
8820,Torhout,Pottebezemstraat,12,51.083146523,3.11834778359
8820,Torhout,Eikenstraat,5,51.0685894684,3.08378707277
8820,Torhout,Oostendestraat,356,51.0749600922,3.07060247512
8820,Torhout,Kievitsstraat,4,51.0585077908,3.11242599464
8820,Torhout,Meibosstraat,5,51.0536660842,3.10199157122
8820,Torhout,Driekoningenstraat,45,51.084887158,3.110870955
8820,Torhout,Zeeweg,40,51.0927869707,3.08526725441
8820,Torhout,Sparappelstraat,46,51.1000780262,3.07400766858
8820,Torhout,Steenstraat,4,51.0889632612,3.05890046573
8820,Torhout,Steenstraat,74,51.0944462699,3.06467479123
8820,Torhout,Berkenstraat,30,51.0694362312,3.07935425088
8820,Torhout,Steenstraat,110,51.0967491562,3.06682802039
8820,Torhout,Korenbloemstraat,127,51.0831557563,3.14913217975
8820,Torhout,Hondeweg,16,51.0886069152,3.1020505797
8820,Torhout,Sint-Rembertlaan,30,51.0692286922,3.09615571964
8820,Torhout,Lichterveldestraat,76,51.0603342148,3.10533246398
8820,Torhout,Kortemarkstraat,58,51.0608449482,3.09802227484
8820,Torhout,Nijlstraat,9,51.0651445612,3.11617132875
8820,Torhout,Kortemark-Ellestraat,4,51.0191417477,3.07054632748
8820,Torhout,Hogestraat,32,51.0731062716,3.08777158404
8820,Torhout,Oude Gentweg,64,51.0827345662,3.11315784468
8820,Torhout,Slingerstraat,43,51.0361996349,3.09602151987
8820,Torhout,Gitsstraat,57,51.0585532715,3.09920091453
8820,Torhout,Rondevijverstraat,1,51.0605441667,3.13439056005
8820,Torhout,Brasemstraat,5,51.092508619,3.07210487478
8820,Torhout,Rode Kruisstraat,8,51.0667831034,3.08028200935
8820,Torhout,Slingerstraat,8,51.0356282372,3.10756107858
8820,Torhout,Steenveldstraat,11,51.0861316518,3.09657866744
8820,Torhout,Brildam,14,51.0672025784,3.10762718608
8820,Torhout,Ernest Claeslaan,71,51.0701083962,3.11676392715
8820,Torhout,Lichterveldestraat,58,51.060745501,3.10550711163
8820,Torhout,Rozenplein,8,51.0546060276,3.11577799674
8820,Torhout,Schavelarestraat,55,51.0558327823,3.11579024198
8820,Torhout,Rijselstraat,103,51.0581123395,3.10261478105
8820,Torhout,Kasteelstraat,34,51.0614556569,3.10850746563
8820,Torhout,Markt,18,51.0648460677,3.1020255814
8820,Torhout,August Vermeylenlaan,11,51.0630958913,3.10833661475
8820,Torhout,Rijselstraat,121,51.057369732,3.10278921594
8820,Torhout,Oostendestraat,7,51.0658583426,3.10009213423
8820,Torhout,Kortemarkstraat,94,51.0595737271,3.09536449786
8820,Torhout,Berkenstraat,12,51.0682535541,3.08038949579
8820,Torhout,Vijfhuishoekstraat,7,51.0543723328,3.08164204948
8820,Torhout,Komeetstraat,12,51.0251116455,3.09680857794
8820,Torhout,Papebrugstraat,13,51.0662628717,3.10543910527
8820,Torhout,Moereveldstraat,29,51.0547087475,3.08253132721
8820,Torhout,Slarinweg,1,51.052607188,3.07613076879
8820,Torhout,Makeveldstraat,2,51.065361172,3.07351866686
8820,Torhout,Aartrijkestraat,245,51.0883428015,3.09984399691
8820,Torhout,Boeiaardstraat,5,51.0641908074,3.10387938702
8820,Torhout,Pottebezemstraat,30,51.0819539638,3.11932993411
8820,Torhout,Revinzestraat,108,51.0654232067,3.07707507365
8820,Torhout,Wijnendalestraat,14,51.0928147193,3.06960318556
8820,Torhout,Ernest Claeslaan,53,51.0696081924,3.11547854136
8820,Torhout,Molenstraat,37,51.0637777075,3.08611490727
8820,Torhout,Rijksweg,7,51.0262625619,3.09983193452
8820,Torhout,Bruggestraat,121,51.0769371764,3.11204311069
8820,Torhout,Aartrijkestraat,56,51.0717399364,3.09966828039
8820,Torhout,Schavelarestraat,27,51.0549692125,3.11217859968
8820,Torhout,Amandelenstraat,13,51.0678518166,3.07828023954
8820,Torhout,Klaproosstraat,9,51.084295137,3.13279095743
8820,Torhout,Bollestraat,65,51.0545476887,3.11143090208
8820,Torhout,Roeselaarseweg,7,51.0506989079,3.10455879553
8820,Torhout,Keibergstraat,87,51.0804388586,3.12159772611
8820,Torhout,Rupelstraat,26,51.0665033773,3.11284560305
8820,Torhout,Koer Vanthuyne,5,51.0632905569,3.10146289151
8820,Torhout,Breugellaan,7,51.0701239732,3.11351926961
8820,Torhout,Notestraat,17,51.0670255739,3.07934489532
8820,Torhout,Korenbloemstraat,109,51.0817119537,3.14267277394
8820,Torhout,Aartrijkestraat,198,51.0848513716,3.09774681327
8820,Torhout,Isidoor Opsomerlaan,4,51.0705734031,3.11286181446
8820,Torhout,Oude Gentweg,18,51.0808418003,3.10056493227
8820,Torhout,Ruitjesbosstraat,7,51.0778945201,3.14127514569
8820,Torhout,Wollemarkt,5,51.063628352,3.10072183652
8820,Torhout,Haverstraat,2,51.0654581494,3.08767627453
8820,Torhout,Groenhovestraat,41,51.0719356896,3.13393800203
8820,Torhout,Rozeveldstraat,44,51.0861199708,3.1316015446
8820,Torhout,Maria Van Bourgondiëlaan,32,51.0682454858,3.09763571649
8820,Torhout,Reigerstraat,5,51.0582694226,3.11259116734
8820,Torhout,Zomerstraat,6,51.0682165353,3.0895477369
8820,Torhout,Aartrijkestraat,21,51.0709312791,3.1007973767
8820,Torhout,Zeeweg,5,51.0888809886,3.09704264225
8820,Torhout,Garnaalstraat,4,51.0912747133,3.07351211996
8820,Torhout,Rijselstraat,156,51.0537569387,3.10439948241
8820,Torhout,Oostendestraat,95,51.0669483415,3.09580750715
8820,Torhout,Biezenstraat,10,51.0881946231,3.09779630641
8820,Torhout,Zomerstraat,23,51.0674269555,3.08760497974
8820,Torhout,Kwaplasstraat,78,51.0609183945,3.12738420261
8820,Torhout,Leopoldstraat,19,51.0670132211,3.09391604928
8820,Torhout,Eugeen Van Oyestraat,19,51.0632901501,3.0998872392
8820,Torhout,Mosselstraat,22,51.0930904404,3.07527179692
8820,Torhout,Begoniastraat,3,51.0545166273,3.11490369798
8820,Torhout,Ruddervoordestraat,141,51.0643682737,3.11883243008
8820,Torhout,Zwaluwstraat,42,51.0596987505,3.11697498914
8820,Torhout,Waterhoekweg,24,51.0714047035,3.08665589344
8820,Torhout,Nieuwstraat,54,51.0644919488,3.09908435809
8820,Torhout,Ieperleestraat,4,51.0639976071,3.11220203601
8820,Torhout,Hogestraat,103,51.0766485187,3.08861737805
8820,Torhout,Ieperse Heerweg,11,51.0521817711,3.09277183471
8820,Torhout,Werkenstraat,9,51.0664024222,3.0952383603
8820,Torhout,Rijselstraat,50,51.0612235409,3.10268585046
8820,Torhout,Beukenstraat,3,51.0689183664,3.0855485297
8820,Torhout,Moertjes,21,51.0603511831,3.11320610305
8820,Torhout,Groenhovestraat,31,51.0710077821,3.13142181797
8820,Torhout,Aartrijkestraat,210A,51.0874838156,3.09901068003
8820,Torhout,Leiestraat,5,51.0640729016,3.11157396367
8820,Torhout,Zwevezelestraat,57,51.0570820198,3.11404526889
8820,Torhout,Kortemarkstraat,130,51.0584186065,3.090707644
8820,Torhout,Maria Van Bourgondiëlaan,14,51.0676171149,3.09848235055
8820,Torhout,Margareta van Constantinopelstr.,3,51.0681751599,3.09696671475
8820,Torhout,Kortemarkstraat,23,51.0624780084,3.10106872424
8820,Torhout,Kwaplasstraat,71,51.0614204068,3.12931526924
8820,Torhout,Spoorwegstraat,2,51.0913352586,3.06349239579
8820,Torhout,Guldensporenlaan,49,51.0892781504,3.06929255562
8820,Torhout,Keibergstraat,69,51.0794150853,3.1195866853
8820,Torhout,Leenstraat,16,51.0527602443,3.10942604163
8820,Torhout,Bollestraat,101,51.0528112844,3.11309762673
8820,Torhout,Garonnestraat,9,51.0671342976,3.1155904407
8820,Torhout,Roeselaarseweg,59,51.0372320257,3.10767973387
8820,Torhout,Keibergstraat,194,51.0830859672,3.12572489017
8820,Torhout,Sterstraat,31,51.0250206732,3.09862577216
8820,Torhout,Langepijpestraat,9,51.0656139465,3.09655091234
8820,Torhout,Poperbosstraat,21,51.0654822913,3.10857597307
8820,Torhout,Vijfhuishoekstraat,24,51.0375435276,3.0705205024
8820,Torhout,Oostendestraat,148,51.0675223117,3.09370584912
8820,Torhout,Eugeen Van Oyestraat,37,51.0629946359,3.09930216811
8820,Torhout,Loirestraat,2,51.0684142688,3.11589876084
8820,Torhout,Parkstraat,51,51.0535613299,3.12051953319
8820,Torhout,Mandelstraat,4,51.0647102223,3.11127948551
8820,Torhout,Hans Memlinclaan,2,51.0648597437,3.10929327233
8820,Torhout,Groenhovestraat,13,51.0683440766,3.12028239267
8820,Torhout,Hogestraat,85,51.0753264772,3.0882252743
8820,Torhout,Wijnendale-Stationsstraat,24,51.0839175549,3.06777557338
8820,Torhout,Kwaplasstraat,53,51.0589762453,3.12466372495
8820,Torhout,Leliestraat,12,51.0533779333,3.12012945083
8820,Torhout,Keibergstraat,176,51.0816725135,3.12416218695
8820,Torhout,Oostendestraat,24,51.0654181083,3.09921675209
8820,Torhout,Bruggestraat,50,51.0715447234,3.10609605963
8820,Torhout,Zandbergstraat,27,51.0839666541,3.13260366139
8820,Torhout,Beckhofstraat,21,51.0581797296,3.10152378135
8820,Torhout,Steenstraat,28,51.0903021573,3.0605028062
8820,Torhout,'s Gravenwinkelstraat,28,51.0669356371,3.0991148086
8820,Torhout,Hogestraat,67,51.0739158859,3.0883800331
8820,Torhout,Molenstraat,19,51.0644071783,3.08928944687
8820,Torhout,Keibergstraat,158,51.0812911247,3.12265258905
8820,Torhout,Ruddervoordestraat,52,51.0630493028,3.11170275045
8820,Torhout,Smissestraat,15,51.0852002305,3.06817868712
8820,Torhout,Rozenstraat,15,51.0551204735,3.11462234719
8820,Torhout,Oostendestraat,328,51.0738880548,3.07382837011
8820,Torhout,Kersouwkensstraat,7,51.0671831105,3.1311137107
8820,Torhout,Gustaaf Van de Woestijnelaan,13,51.0716012136,3.11440403634
8820,Torhout,Hogestraat,14,51.0717398504,3.08811107533
8820,Torhout,Revinzestraat,103A,51.0663679995,3.0773793085
8820,Torhout,Wijnendalestraat,42,51.0950914624,3.07046681165
8820,Torhout,Rogier Vander Weijdenlaan,5,51.071765536,3.11374336944
8820,Torhout,Olmenstraat,22,51.0702718604,3.08145921579
8820,Torhout,Oostendestraat,131,51.0676972167,3.09471628878
8820,Torhout,Constant Permekelaan,3,51.0707636405,3.11386712452
8820,Torhout,Beerstraat,20,51.0660147702,3.10270121612
8820,Torhout,Boeiaardstraat,40,51.0636469082,3.10491961341
8820,Torhout,Lijsterstraat,13,51.0582256907,3.11516313666
8820,Torhout,Filips Van Kleefstraat,12,51.0748568893,3.09681138838
8820,Torhout,Zwaluwstraat,32,51.0595968086,3.11640008609
8820,Torhout,Leliestraat,30,51.0527668076,3.12141423439
8820,Torhout,Vredelaan,34,51.0653298892,3.09340045886
8820,Torhout,Nachtegaalstraat,5,51.0616756577,3.11775072907
8820,Torhout,Oostendestraat,184,51.0682398953,3.09220064583
8820,Torhout,Smissestraat,68,51.0873903312,3.06654045941
8820,Torhout,Karel de Goedelaan,13,51.0692535742,3.09880521936
8820,Torhout,Oostendestraat,59,51.0660658108,3.09726073426
8820,Torhout,Keibergstraat,123,51.0825867012,3.12671042671
8820,Torhout,Oostendestraat,113,51.0673057163,3.09527599292
8820,Torhout,Aardenhuttestraat,15,51.0842734914,3.09593849359
8820,Torhout,Sneppestraat,51,51.0368975082,3.10986652908
8820,Torhout,Berkenstraat,37,51.0713498711,3.07982907828
8820,Torhout,Bruggestraat,211,51.0850211046,3.11890403286
8820,Torhout,Wijnendale-Stationsstraat,59,51.0847495783,3.07280378964
8820,Torhout,Vinkenstraat,17,51.0586939509,3.11020696103
8820,Torhout,Kortemarkstraat,165,51.0576162793,3.08584633978
8820,Torhout,Roeselaarseweg,30A,51.0479955777,3.10622290127
8820,Torhout,Hogestraat,49,51.0723884235,3.0887337634
8820,Torhout,Ambachtstraat,28,51.0802930862,3.11097004792
8820,Torhout,Rijselstraat,39,51.061213587,3.10165065671
8820,Torhout,Sparappelstraat,18,51.1006111686,3.07673269072
8820,Torhout,Edewallestraat,22,51.0601652897,3.05676841124
8820,Torhout,Essenstraat,4,51.0676916363,3.08017309944
8820,Torhout,Korenbloemstraat,56,51.0813397646,3.13658273517
8820,Torhout,Poperboswegel,28,51.0640158346,3.11400622054
8820,Torhout,Postiljonstraat,5,51.0740076307,3.07219265842
8820,Torhout,Koolskampstraat,38,51.0517602692,3.11876720077
8820,Torhout,Hofstraat,7,51.0643756592,3.10274155511
8820,Torhout,Oostendestraat,166,51.0679569163,3.09283489778
8820,Torhout,Keibergstraat,105,51.0818750681,3.1252196898
8820,Torhout,Kortemarkstraat,112,51.0590531677,3.09365733762
8820,Torhout,Keurvorstenstraat,19,51.0722790734,3.0826751715
8820,Torhout,Ieperse Heerweg,46,51.0437923065,3.08903252531
8820,Torhout,Korenbloemstraat,21,51.0820944738,3.12958019162
8820,Torhout,Aartrijkestraat,155,51.0807110533,3.097923075
8820,Torhout,Revinzestraat,20,51.0662722221,3.08915870659
8820,Torhout,Sint-Henricusstraat,2,51.0273755846,3.09438727654
8820,Torhout,Bruggestraat,39,51.0716408388,3.10800417525
8820,Torhout,Ambachtstraat,4,51.0766897846,3.10425724774
8820,Torhout,Revinzestraat,83,51.0664347399,3.08015120033
8820,Torhout,Hillestraat,34,51.078546133,3.07640698448
8820,Torhout,Rozeveldstraat,79,51.0876179236,3.13795446353
8820,Torhout,Kruiskensstraat,10,51.0621694372,3.07558151983
8820,Torhout,Consciencestraat,17,51.0879354629,3.07365738615
8820,Torhout,Makeveldstraat,45B,51.0694181982,3.0768035776
8820,Torhout,Gwijde Van Dampierrestraat,11,51.0739013926,3.0978351436
8820,Torhout,Sint-Henricusstraat,36,51.0217431174,3.09462700514
8820,Torhout,Ieperse Heerweg,64,51.0428135608,3.08712434659
8820,Torhout,Kortemarkstraat,41,51.0616615178,3.09823793344
8820,Torhout,Maria Van Bourgondiëlaan,50,51.0693271471,3.09651504711
8820,Torhout,Wijnendale-Stationsstraat,60,51.0854406364,3.07022731831
8820,Torhout,Pieter de Coninckstraat,18,51.0646624538,3.09498864901
8820,Torhout,Schoolstraat,13,51.0904833131,3.05972514593
8820,Torhout,Industrielaan,15,51.0709981333,3.10478831071
8820,Torhout,Bollestraat,37,51.0558761331,3.10984363771
8820,Torhout,Moldaustraat,19,51.0691321542,3.1179328351
8820,Torhout,Rijnstraat,7,51.0694428095,3.11676817594
8820,Torhout,Hazelaarstraat,28,51.0540550561,3.11885528136
8820,Torhout,Zwanestraat,14,51.0655373246,3.10068752825
8820,Torhout,Lessestraat,1,51.067317162,3.11396794469
8820,Torhout,Nijlstraat,26,51.0646331224,3.11514063339
8820,Torhout,Kastanjestraat,2,51.067680612,3.07742356708
8820,Torhout,Rijselstraat,14,51.0625967026,3.10296172718
8820,Torhout,Consciencestraat,1,51.0868528282,3.07427660369
8820,Torhout,Bosdreef,4,51.066601544,3.13607425037
8820,Torhout,Waterhoekweg,60,51.0734512348,3.0823716808
8820,Torhout,Revinzestraat,65,51.0667589616,3.0813639232
8820,Torhout,Steenveldstraat,4,51.0856268845,3.09648976269
8820,Torhout,Keibergstraat,16,51.0709311269,3.11016428116
8820,Torhout,Steenstraat,109,51.0964679115,3.06848802662
8820,Torhout,Snoekstraat,17,51.0932497809,3.07230218805
8820,Torhout,Korenbloemstraat,74,51.0819979301,3.141946792
8820,Torhout,Gustaaf Van de Woestijnelaan,6,51.0715652763,3.11398376024
8820,Torhout,Brildam,7,51.0666681777,3.10759136083
8820,Torhout,Voshoekstraat,3A,51.0578778211,3.0737048851
8820,Torhout,Hillestraat,16,51.0738393867,3.08067924186
8820,Torhout,August Vermeylenlaan,4,51.0640095383,3.10842657987
8820,Torhout,Tegelarestraat,4,51.0169663937,3.08313152004
8820,Torhout,Lijsterstraat,6,51.0588575116,3.11564409231
8820,Torhout,Filips Van Kleefstraat,5,51.075458027,3.09579994178
8820,Torhout,Aartrijkestraat,28,51.0689518332,3.0998294932
8820,Torhout,Parkstraat,33,51.0543704393,3.11905940082
8820,Torhout,Lindenstraat,31,51.0681148296,3.08234855146
8820,Torhout,Driekoningenstraat,98,51.0863171352,3.11288798414
8820,Torhout,Aartrijkestraat,173,51.0824821978,3.09844803134
8820,Torhout,Kortemarkstraat,193,51.0552045273,3.07719253375
8820,Torhout,Ruddervoordestraat,87,51.0631976899,3.11463635624
8820,Torhout,Vredelaan,71D,51.0523380394,3.10322123957
8820,Torhout,Guldensporenlaan,7,51.0921147286,3.0640710977
8820,Torhout,Hogestraat,39,51.0716049769,3.08883781267
8820,Torhout,Landstraat,48,51.0607169931,3.08252730939
8820,Torhout,Fraeysstraat,6,51.0661748962,3.10000936052
8820,Torhout,Beckhofstraat,84,51.0576580553,3.10023932073
8820,Torhout,Burg,29,51.0664960924,3.10170412499
8820,Torhout,Kasteelstraat,9,51.0622452762,3.10676876977
8820,Torhout,Ieperse Heerweg,82,51.0342254421,3.07674300236
8820,Torhout,Rijselstraat,138,51.0564174812,3.10441364858
8820,Torhout,Consciencestraat,35,51.0891386073,3.07269034343
8820,Torhout,Boeiaardstraat,22,51.0640117352,3.10451755368
8820,Torhout,Bakvoordestraat,25,51.0319783311,3.09136247995
8820,Torhout,Zwaluwstraat,7,51.0586725981,3.11483390056
8820,Torhout,Industrielaan,33,51.0763329131,3.10318813752
8820,Torhout,Oostendestraat,60,51.0657984535,3.09712845668
8820,Torhout,Pottebezemstraat,19,51.0823928545,3.11819265283
8820,Torhout,Bruggestraat,14,51.0687310303,3.10294037046
8820,Torhout,Karel de Ghelderelaan,14,51.063862072,3.09725553656
8820,Torhout,Roggestraat,7,51.0648015687,3.08836924681
8820,Torhout,Parkstraat,15,51.05513571,3.11737543621
8820,Torhout,Ebrostraat,14,51.0655658453,3.11814484649
8820,Torhout,Guido Gezellelaan,38,51.0630165858,3.10730167925
8820,Torhout,Pottebezemstraat,5,51.0825682105,3.11758693143
8820,Torhout,Felix Timmermanslaan,10,51.0661447747,3.10864288892
8820,Torhout,Samberstraat,1,51.0680102369,3.11397847204
8820,Torhout,Groenhovestraat,6,51.0684531074,3.11973727549
8820,Torhout,Snoekstraat,1,51.092661546,3.07159825633
8820,Torhout,Prosper Moncareystraat,2,51.0930832493,3.06653687869
8820,Torhout,Korenbloemstraat,92,51.0829731278,3.14474585196
8820,Torhout,Oostendestraat,213,51.070448514,3.08753354084
8820,Torhout,Kloosterstraat,7,51.0930666966,3.06795369519
8820,Torhout,Ijzerenwegstraat,9,51.0875933766,3.06817425344
8820,Torhout,Voshoekstraat,8,51.0555938608,3.06679509701
8820,Torhout,Zonstraat,6,51.0265846273,3.09595171739
8820,Torhout,Klaproosstraat,26,51.0845528831,3.13324575467
8820,Torhout,Ruitjesbosstraat,24,51.0767403224,3.1367702003
8820,Torhout,Rijksweg,60,51.0273884006,3.08189646076
8820,Torhout,Weidestraat,7,51.0862538679,3.0940926384
8820,Torhout,Heidestraat,21,51.0790420782,3.0858633387
8820,Torhout,Wijngaardstraat,14,51.06954876,3.08078277158
8820,Torhout,Aartrijkestraat,191,51.0842860463,3.09866254639
8820,Torhout,Berkenstraat,19,51.0690932814,3.08043415799
8820,Torhout,Pieter de Coninckstraat,4,51.0629385103,3.09450824983
8820,Torhout,Molenstraat,30,51.0643396028,3.09079252018
8820,Torhout,Schavelarestraat,20,51.0551167126,3.11026303952
8820,Torhout,Landstraat,36,51.0629778441,3.08542917653
8820,Torhout,Slingerstraat,25,51.0359738777,3.10331519589
8820,Torhout,Tuinstraat,16,51.0600591231,3.10722202019
8820,Torhout,Oude Wijnendalestraat,54,51.0846148553,3.07479713766
8820,Torhout,Noordlaan,9,51.0757567679,3.10621060418
8820,Torhout,Sint-Rembertlaan,19,51.070365173,3.09734170472
8820,Torhout,Biezenstraat,3,51.0876161751,3.09759404782
8820,Torhout,Rietstraat,6,51.0872190644,3.09363639464
8820,Torhout,Ruddervoordestraat,193B,51.0608812513,3.13407708629
8820,Torhout,Marnestraat,16,51.0692253605,3.11652485759
8820,Torhout,Moldaustraat,5,51.0694252619,3.1187916983
8820,Torhout,Maria Van Bourgondiëlaan,39,51.0689134936,3.0978975296
8820,Torhout,Spoorwegstraat,36,51.0897589288,3.06669037029
8820,Torhout,Sterstraat,6,51.0242668224,3.09842468308
8820,Torhout,Oostendestraat,231,51.071290174,3.08436005031
8820,Torhout,Breskensstraat,6,51.0511108039,3.1031313167
8820,Torhout,Ernest Claeslaan,47,51.0695244133,3.11494669617
8820,Torhout,Bollestraat,5,51.0583606799,3.10759903638
8820,Torhout,Bassinstraat,8,51.063114407,3.10398808336
8820,Torhout,Koningsdreef,6,51.0846442122,3.10906530678
8820,Torhout,Ernest Claeslaan,17,51.06822846,3.11164369929
8820,Torhout,Markt,11,51.0649325599,3.1010058152
8820,Torhout,Ernest Claeslaan,1,51.0674722099,3.1101188873
8820,Torhout,Slingerstraat,44A,51.0348669958,3.10165932103
8820,Torhout,Steenveldstraat,18,51.0802101928,3.08445260301
8820,Torhout,Denderstraat,1,51.0650559151,3.11241974283
8820,Torhout,Lichterveldestraat,41,51.0611566088,3.10430662126
8820,Torhout,Oostendestraat,284,51.0716581376,3.08055219912
8820,Torhout,Rijksweg,24,51.0263182655,3.0978105094
8820,Torhout,Alberic Deleustraat,42,51.0911281345,3.06716261846
8820,Torhout,Langenhoekstraat,2,51.0336588748,3.09046557987
8820,Torhout,Rupelstraat,2,51.0656778404,3.11037830137
8820,Torhout,Keibergstraat,34,51.0720632031,3.11129653906
8820,Torhout,August Vermeylenlaan,18,51.0630288162,3.1096735301
8820,Torhout,Pottebezemstraat,37,51.0810897962,3.11861383538
8820,Torhout,Tiberstraat,11,51.066442571,3.1172302393
8820,Torhout,Roeselaarseweg,24,51.0493168668,3.10594523398
8820,Torhout,Luchtstraat,1,51.0838253573,3.14264851005
8820,Torhout,Aartrijkestraat,210,51.0873007543,3.09907545835
8820,Torhout,Werkenstraat,26,51.06591672,3.09469284183
8820,Torhout,Kortemarkstraat,230,51.0543504359,3.08106950458
8820,Torhout,Keibergstraat,70,51.0741999296,3.11340908838
8820,Torhout,Bruggestraat,49,51.0725652644,3.10790849328
8820,Torhout,Smissestraat,104,51.0898460762,3.06805409635
8820,Torhout,Driekoningenstraat,10,51.0860859532,3.10068342965
8820,Torhout,Korenbloemstraat,28,51.082387328,3.13163129769
8820,Torhout,Ambachtstraat,21,51.0784548041,3.11082893134
8820,Torhout,Oostendestraat,141,51.0681591076,3.09432288567
8820,Torhout,Netestraat,5,51.0674703629,3.11166477377
8820,Torhout,Langepijpestraat,26,51.0649539945,3.09599471855
8820,Torhout,Consciencestraat,47,51.0900793872,3.07115722422
8820,Torhout,Veldstraat,11,51.0706230599,3.06824073982
8820,Torhout,Papebrugstraat,6,51.0659355093,3.10324853809
8820,Torhout,Dijlestraat,11,51.0667521906,3.10952999678
8820,Torhout,Aardenhuttestraat,8,51.0852235994,3.09616600731
8820,Torhout,Rozeveldstraat,26,51.0850890316,3.12956753969
8820,Torhout,Revinzestraat,126,51.0658554691,3.07555073614
8820,Torhout,Koolskampstraat,31,51.0530175036,3.11580781284
8820,Torhout,Sterstraat,23,51.024876649,3.09889268984
8820,Torhout,Vanhullestraat,10,51.060611655,3.10801132176
8820,Torhout,Zennestraat,15,51.066680962,3.11247700058
8820,Torhout,Keibergstraat,52,51.0730156291,3.11221648361
8820,Torhout,Aartrijkestraat,74,51.0730364199,3.09881730027
8820,Torhout,Wijnendalestraat,39,51.0942386515,3.07083426374
8820,Torhout,Warandestraat,16,51.0788196417,3.09433539446
8820,Torhout,Amandelenstraat,6,51.0682529902,3.07734684753
8820,Torhout,Alberic Deleustraat,60,51.0905108487,3.06840806228
8820,Torhout,Rozenstraat,8,51.0546882546,3.11462522371
8820,Torhout,Sint-Henricusstraat,54,51.0198118326,3.09714146017
8820,Torhout,Ravenhofstraat,9,51.0634395878,3.09934631392
8820,Torhout,Hogestraat,7,51.0697890189,3.09017797691
8820,Torhout,Moereveldstraat,5,51.0478560197,3.08780870571
8820,Torhout,Stationsstraat,13,51.0646397033,3.10445907444
8820,Torhout,Rijselstraat,67,51.0600893576,3.10216913219
8820,Torhout,Leopoldstraat,12,51.0668665037,3.09330123107
8820,Torhout,Zandbergstraat,20,51.0837626496,3.13204439985
8820,Torhout,Eugeen Van Oyestraat,12,51.0631550575,3.10026598332
8820,Torhout,Nachtegaalstraat,22,51.0618184734,3.1212338203
8820,Torhout,Makeveldstraat,36,51.071658857,3.07941716228
8820,Torhout,Parkstraat,68,51.0521858158,3.12403768467
8820,Torhout,Ruddervoordestraat,148,51.0641513573,3.13076214137
8820,Torhout,Albrecht Rodenbachlaan,4,51.0672818496,3.10794451828
8820,Torhout,Doornstraat,45,51.0685080285,3.07799403548
8820,Torhout,Heidestraat,4,51.0780622148,3.08835121321
8820,Torhout,Rijksweg,42,51.0274942406,3.0946932669
8820,Torhout,Leliestraat,19,51.0529316854,3.11997917069
8820,Torhout,Oostendestraat,266,51.0704686173,3.08440685446
8820,Torhout,Zwaluwstraat,50,51.0597940311,3.11748159575
8820,Torhout,Bruggestraat,67,51.0731791263,3.10875073172
8820,Torhout,Ruddervoordestraat,34,51.0621270829,3.11013506029
8820,Torhout,Rijselstraat,49,51.0605198182,3.10201097054
8820,Torhout,Vredelaan,9,51.0670550685,3.09116269356
8820,Torhout,Ieperse Heerweg,18,51.0501790654,3.09619451548
8820,Torhout,Consciencestraat,71,51.0905470702,3.06908428829
8820,Torhout,Smissestraat,8,51.0844024314,3.06761564267
8820,Torhout,Roeselaarseweg,42,51.036138195,3.10897551271
8820,Torhout,Camiel Meysmanstraat,15,51.0939331338,3.06654876789
8820,Torhout,Kortemarkstraat,140,51.0581339351,3.08985020661
8820,Torhout,Mandelstraat,21,51.0647393835,3.11322265546
8820,Torhout,Hugo Verriestlaan,10,51.0679736211,3.1087748622
8820,Torhout,Aartrijkestraat,127,51.0784850639,3.097870924
8820,Torhout,Zuidstraat,13,51.0638266871,3.10155894811
8820,Torhout,Wijnendalestraat,59,51.0956923278,3.07256443413
8820,Torhout,Oude Wijnendalestraat,48,51.0840890141,3.07514097163
8820,Torhout,Bollestraat,83,51.0535053029,3.1123358532
8820,Torhout,Leliestraat,5,51.053387646,3.11928989436
8820,Torhout,Aartrijkestraat,92,51.0737375981,3.09885378467
8820,Torhout,Gitsstraat,40,51.058094349,3.09967114182
8820,Torhout,Amazonestraat,28,51.0653220355,3.11578292072
8820,Torhout,Oostendestraat,248,51.0692781168,3.08710711671
8820,Torhout,Hogestraat,50,51.0742631224,3.08753898896
8820,Torhout,Ruddervoordestraat,131,51.0641742644,3.11803549991
8820,Torhout,Sterstraat,38,51.0258135158,3.09723273249
8820,Torhout,Vredelaan,70,51.061305599,3.09535547825
8820,Torhout,Ruddervoordestraat,16,51.0617721025,3.10928889095
8820,Torhout,Steenstraat,56,51.0931238982,3.06366648328
8820,Torhout,Ruddervoordestraat,69,51.0629645933,3.11364134318
8820,Torhout,Oesterstraat,4,51.0918322095,3.07440620415
8820,Torhout,Zwevezelestraat,17B,51.0601519734,3.10925487133
8820,Torhout,Ruddervoordestraat,166,51.0626596829,3.13337333337
8820,Torhout,Sparappelstraat,11,51.0999930623,3.07645877106
8820,Torhout,Elisabethlaan,15,51.0624332935,3.1051939178
8820,Torhout,Ieperse Heerweg,4,51.0518267958,3.09666037061
8820,Torhout,Sneppestraat,33,51.0364942584,3.11204429933
8820,Torhout,Markiezenstraat,14,51.0717874282,3.08410467341
8820,Torhout,Revinzestraat,27,51.0669317119,3.08778133671
8820,Torhout,Oostendestraat,311,51.0760894818,3.06958529396
8820,Torhout,Rubenslaan,9,51.0713476173,3.11313014023
8820,Torhout,Hofstraat,24,51.0650423101,3.10319621209
8820,Torhout,Steenstraat,21,51.0897420746,3.06127377757
8820,Torhout,Ruddervoordestraat,184,51.0623912777,3.13833725828
8820,Torhout,Leenstraat,9,51.0525115634,3.11281197275
8820,Torhout,Sparappelstraat,64,51.0994232786,3.07197000917
8820,Torhout,Ruddervoordestraat,113,51.063859705,3.11706203176
8820,Torhout,Keurvorstenstraat,12,51.0728754156,3.08264408535
8820,Torhout,Sparappelstraat,82,51.0986746412,3.0705044214
8820,Torhout,Onze Lieve Vrouwstraat,16,51.0640418124,3.09573346027
8820,Torhout,Wijnendale-Stationsstraat,42,51.0842910327,3.06969441576
8820,Torhout,Rijselstraat,85,51.0591084064,3.10235901674
8820,Torhout,Bruggestraat,32,51.07070169,3.10532171555
8820,Torhout,Rhônestraat,1,51.0678998924,3.11591110251
8820,Torhout,Oostendestraat,42,51.0654737781,3.09800033763
8820,Torhout,Zuidstraat,31,51.0633312351,3.1023285197
8820,Torhout,Baarsstraat,17,51.0915250104,3.07184390895
8820,Torhout,Olmenstraat,29,51.0706198895,3.08198788645
8820,Torhout,Rijselstraat,32,51.0619427131,3.10262302859
8820,Torhout,Zwevezelestraat,40,51.0595818483,3.11143921009
8820,Torhout,Kortemarkstraat,129,51.058938912,3.09018072462
8820,Torhout,Aartrijkestraat,109,51.0769567801,3.09849270132
8820,Torhout,Guldensporenlaan,39,51.0903349265,3.06729275346
8820,Torhout,Bruggestraat,85,51.0741813233,3.10949720639
8820,Torhout,Gerstestraat,8,51.0656394947,3.08751193873
8820,Torhout,Groenhovestraat,38,51.0720383442,3.13184392531
8820,Torhout,Lindenstraat,13,51.0680830345,3.08395079739
8820,Torhout,Sint-Henricusstraat,48,51.0209611897,3.09524709103
8820,Torhout,Nijlstraat,44,51.0646630346,3.11387073666
8820,Torhout,Waterhoekweg,42,51.0728130968,3.08331035681
8820,Torhout,Postiljonstraat,22,51.0727547171,3.07335114231
8820,Torhout,Nieuwstraat,36,51.0647382793,3.09944321201
8820,Torhout,Nieuwstraat,2,51.0643003921,3.10099968071
8820,Torhout,Vredelaan,71B,51.0520344054,3.1033772185
8820,Torhout,Waterhoekweg,49,51.0734002215,3.08358006377
8820,Torhout,Sint-Henricusstraat,9,51.0269856998,3.09367524076
8820,Torhout,Kasteelstraat,26,51.06226351,3.10850683137
8820,Torhout,Hillestraat,7,51.0726052939,3.08137034388
8820,Torhout,Heidestraat,36,51.0784591597,3.08429471954
8820,Torhout,Koddaardstraat,5,51.0523404948,3.1149835123
8820,Torhout,Oostendestraat,366,51.0760870689,3.06740972358
8820,Torhout,Landstraat,46,51.0606844782,3.08290911589
8820,Torhout,Boeiaardstraat,19,51.0638780013,3.10402680329
8820,Torhout,Gangesstraat,6,51.0651159605,3.11474946653
8820,Torhout,Oostendestraat,105,51.0673305463,3.09557723654
8820,Torhout,Hooistraat,7,51.0869343251,3.09839166857
8820,Torhout,Bruggestraat,111,51.076403891,3.11137784184
8820,Torhout,Wijnendale-Stationsstraat,67,51.084918848,3.07394828726
8820,Torhout,Rijselstraat,5,51.0628786184,3.10272568904
8820,Torhout,Hogestraat,59,51.0734688903,3.08846261502
8820,Torhout,Korenbloemstraat,35C,51.0816169162,3.13126659086
8820,Torhout,Keibergstraat,131,51.083032602,3.12725609682
8820,Torhout,Aartrijkestraat,253,51.089005763,3.10017261213
8820,Torhout,Kruiskensstraat,1,51.0584793843,3.0800560488
8820,Torhout,Driekoningenstraat,73,51.083402497,3.11340782941
8820,Torhout,Wijnendale-Stationsstraat,49,51.084149613,3.07194058308
8820,Torhout,Rijselstraat,111,51.0577506071,3.10269332373
8820,Torhout,Zwaluwstraat,24,51.0593998148,3.11593301185
8820,Torhout,Kortemarkstraat,86,51.0597901465,3.09563309053
8820,Torhout,Oostendestraat,67,51.0661976554,3.09677346609
8820,Torhout,Keibergstraat,7,51.0705730605,3.1105360658
8820,Torhout,Meibosstraat,19,51.0528950771,3.10137240716
8820,Torhout,Klaverstraat,5,51.0860540296,3.09510911796
8820,Torhout,Boeiaardstraat,37,51.0634191083,3.10440929236
8820,Torhout,Ambachtstraat,16A,51.077984548,3.10788435496
8820,Torhout,Keibergstraat,113,51.0821782626,3.12608569974
8820,Torhout,Zuidstraat,6,51.0640347449,3.10192926075
8820,Torhout,Demerstraat,1,51.0658616535,3.11204370195
8820,Torhout,Driekoningenstraat,55,51.0847797507,3.11235773268
8820,Torhout,Oostendestraat,384,51.0769505343,3.06456539182
8820,Torhout,Waterhoekweg,67,51.0746750436,3.08330045471
8820,Torhout,Kortemarkstraat,209B,51.0522916825,3.07614390117
8820,Torhout,Oostendestraat,49,51.0661212238,3.09788916192
8820,Torhout,Steenstraat,100,51.0960236006,3.06619660172
8820,Torhout,Molenstraat,29,51.0638649119,3.08724734391
8820,Torhout,Alberic Deleustraat,14,51.0920558084,3.06533659882
8820,Torhout,Gavervijver,5,51.082607417,3.10260179643
8820,Torhout,Kortemarkstraat,68,51.0604398987,3.09675158695
8820,Torhout,Zwevezelestraat,12,51.0605634867,3.10938403707
8820,Torhout,Sterstraat,51,51.025337434,3.09825352421
8820,Torhout,Zeeweg,40B,51.0926901609,3.08368311457
8820,Torhout,Karel de Ghelderelaan,2B,51.0652490117,3.098124434
8820,Torhout,Sint-Henricusstraat,11,51.0268450222,3.09374364972
8820,Torhout,Kwaplasstraat,17,51.0568451069,3.11898535505
8820,Torhout,Eugeen Van Oyestraat,57,51.0629325211,3.09863515646
8820,Torhout,Aartrijkestraat,271,51.0907823121,3.10112672234
8820,Torhout,Processieweg,15,51.0994649714,3.06892900671
8820,Torhout,Kerselarenstraat,14,51.0686307592,3.08159710039
8820,Torhout,Camiel Meysmanstraat,41,51.0926583575,3.06858934882
8820,Torhout,Aartrijkestraat,117,51.0777557613,3.09834470934
8820,Torhout,Rondevijverstraat,17,51.056059769,3.13584954353
8820,Torhout,Stationsstraat,6,51.0648639949,3.10439908471
8820,Torhout,Hogestraat,95,51.076165398,3.08840325532
8820,Torhout,Werkenstraat,52,51.0657093045,3.09303741825
8820,Torhout,Kortemarkstraat,227,51.0435267061,3.06482184446
8820,Torhout,Aartrijkestraat,13,51.0702323177,3.10103391893
8820,Torhout,Markiezenstraat,5,51.072163655,3.08416112924
8820,Torhout,Molenstraat,3,51.064979654,3.09143464052
8820,Torhout,Bollestraat,75,51.0541541094,3.11178609765
8820,Torhout,Vijfhuishoekstraat,22A,51.0386276172,3.07335779641
8820,Torhout,Ernest Claeslaan,43,51.0694260655,3.11411045806
8820,Torhout,Leiestraat,12,51.0643016715,3.11051773746
8820,Torhout,Koolskampstraat,6,51.0544591039,3.1140686311
8820,Torhout,Meibosstraat,37,51.0529603158,3.09894733093
8820,Torhout,Moereveldstraat,19,51.0541387197,3.08305465782
8820,Torhout,Lichterveldestraat,86,51.0599887232,3.10591999421
8820,Torhout,Ernest Claeslaan,61,51.0697618514,3.11612309858
8820,Torhout,Roeselaarseweg,49,51.0393654286,3.10720190914
8820,Torhout,Hans Memlinclaan,9,51.0636220584,3.10966313729
8820,Torhout,Landstraat,9,51.0655509657,3.08531568173
8820,Torhout,Rupelstraat,16,51.0662285188,3.11187276629
8820,Torhout,Schavelarestraat,45,51.0555615129,3.11485702757
8820,Torhout,Industrielaan,8,51.0755559218,3.10223630447
8820,Torhout,Papebrugstraat,21,51.0663721948,3.10580013302
8820,Torhout,Rijselstraat,42,51.0616651599,3.10244492672
8820,Torhout,Roeselaarseweg,67,51.0355285103,3.10828125964
8820,Torhout,Aartrijkestraat,66,51.0727576778,3.09904676314
8820,Torhout,Schoolstraat,28,51.0901635219,3.05688399394
8820,Torhout,Ieperse Heerweg,36,51.0464273223,3.0926766288
8820,Torhout,Bollestraat,57,51.0550801393,3.11111533441
8820,Torhout,Rozeveldstraat,2,51.0836130454,3.12716618916
8820,Torhout,Rijksweg,49,51.0278519178,3.09556187367
8820,Torhout,Karperstraat,18,51.0946392684,3.07206180352
8820,Torhout,James Ensorlaan,3,51.0703870255,3.11253163056
8820,Torhout,Langepijpestraat,2,51.0655315552,3.09713042849
8820,Torhout,Sint-Henricusstraat,46,51.0209855528,3.09464019453
8820,Torhout,Wijnendalestraat,24,51.09353139,3.06973132871
8820,Torhout,Kwaplasstraat,35,51.057757319,3.12169097124
8820,Torhout,Aartrijkestraat,84,51.0733945297,3.09878674812
8820,Torhout,Mezenstraat,12,51.058852158,3.11675625002
8820,Torhout,Brildam,24,51.0673260289,3.10874692164
8820,Torhout,Elzenstraat,6,51.0245632061,3.07780763528
8820,Torhout,Lichterveldestraat,68,51.0605638251,3.10556736743
8820,Torhout,Oostendestraat,85,51.066602196,3.09615521928
8820,Torhout,Waterhoekweg,32,51.0724374736,3.08448082409
8820,Torhout,Kortemarkstraat,209,51.0518150145,3.07489015654
8820,Torhout,Zwevezelestraat,30,51.0607543187,3.11114964119
8820,Torhout,Wijnendalestraat,50,51.0955016506,3.07135445389
8820,Torhout,Gwijde Van Dampierrestraat,4,51.0735871721,3.09841791344
8820,Torhout,Rijselstraat,146,51.0554276287,3.10415965022
8820,Torhout,Korenbloemstraat,145,51.0802704002,3.14986304655
8820,Torhout,Aartrijkestraat,135,51.078827352,3.09818260254
8820,Torhout,Oude Gentweg,54,51.0825877196,3.11176174749
8820,Torhout,Revinzestraat,40,51.0664847552,3.08704035266
8820,Torhout,Wijnendale-Stationsstraat,32,51.0839709824,3.06869915722
8820,Torhout,Berkenstraat,22,51.0688638364,3.0796021752
8820,Torhout,Guido Gezellelaan,6,51.0650861492,3.10710180197
8820,Torhout,Oostendestraat,32,51.0654541404,3.09892285669
8820,Torhout,Makeveldstraat,18,51.0671257942,3.07422377672
8820,Torhout,Werkenstraat,2,51.0661223693,3.09614515084
8820,Torhout,Revinzestraat,118,51.0659516104,3.07628359717
8820,Torhout,Aartrijkestraat,31,51.071187598,3.10068112769
8820,Torhout,Bruggestraat,146,51.0803799257,3.113644487
8820,Torhout,Oostendestraat,348,51.0746993274,3.07138232561
8820,Torhout,Mandelstraat,13,51.0644371837,3.11247629831
8820,Torhout,Bruggestraat,42,51.0712638201,3.10585634668
8820,Torhout,Sint-Rembertlaan,22,51.0696539107,3.09743736596
8820,Torhout,Aartrijkestraat,188,51.0838804254,3.09751241331
8820,Torhout,Markt,4,51.064624013,3.10103899739
8820,Torhout,Vijfhuishoekstraat,32,51.0340637141,3.06465126112
8820,Torhout,Oude Wijnendalestraat,11,51.0820060618,3.07843080784
8820,Torhout,Beckhofstraat,13,51.0574992508,3.10227586916
8820,Torhout,Driekoningenstraat,27,51.0851822042,3.10789792754
8820,Torhout,Leopoldstraat,3,51.0666885289,3.0948757257
8820,Torhout,Wijnendale-Molenstraat,7,51.082246796,3.06923377454
8820,Torhout,Kanariestraat,10,51.059173414,3.1175725089
8820,Torhout,Keibergstraat,184,51.0820662756,3.12464740745
8820,Torhout,Kortemarkstraat,33,51.0617980624,3.09853668138
8820,Torhout,Bollestraat,121A,51.0506846457,3.1149891975
8820,Torhout,Poperbosstraat,13,51.0654598775,3.1081949134
8820,Torhout,Keurvorstenstraat,3,51.0727446367,3.08183100219
8820,Torhout,Vijfhuishoekstraat,14,51.0512809942,3.07890940858
8820,Torhout,Onze Lieve Vrouwstraat,7,51.0645120304,3.09576946693
8820,Torhout,Leliestraat,22,51.0530560113,3.12075923137
8820,Torhout,Moertjes,31,51.0602960807,3.11255704264
8820,Torhout,Haverstraat,9,51.0651728616,3.08719398503
8820,Torhout,Kwaplasstraat,61,51.0600127597,3.1256045596
8820,Torhout,Noordlaan,21A,51.0705424702,3.09247474175
8820,Torhout,Kortemarkstraat,120,51.0589651836,3.09275456596
8820,Torhout,Ruddervoordestraat,151,51.0644987611,3.11957413471
8820,Torhout,Prosper Moncareystraat,16,51.0937285648,3.06586918852
8820,Torhout,Breidelstraat,15,51.0653260264,3.10254178369
8820,Torhout,Sparappelstraat,4,51.1016178965,3.07948684086
8820,Torhout,Zuidstraat,28,51.0635342953,3.10314624399
8820,Torhout,Industrielaan,41,51.0765222787,3.10101508212
8820,Torhout,Olmenstraat,30,51.0704395876,3.08055919825
8820,Torhout,Klaproosstraat,2,51.0848512673,3.13206230034
8820,Torhout,Molenstraat,40,51.06413072,3.09033281943
8820,Torhout,Maria Van Bourgondiëlaan,5,51.0677071616,3.09928036935
8820,Torhout,Groenhovestraat,21,51.0695726595,3.12285642271
8820,Torhout,Ijzerstraat,12,51.066921977,3.11057057616
8820,Torhout,Bruggestraat,221,51.0920949497,3.1292460537
8820,Torhout,Bruggestraat,199,51.0840334992,3.11795882301
8820,Torhout,Kortemarkstraat,15,51.062652081,3.10139685798
8820,Torhout,Notestraat,1,51.066955941,3.07751689964
8820,Torhout,Makeveldstraat,9,51.0651348184,3.0744292233
8820,Torhout,Maria Van Bourgondiëlaan,24,51.0679744433,3.09794542868
8820,Torhout,Landstraat,18,51.0650466186,3.08608441624
8820,Torhout,Keibergstraat,79,51.0798753559,3.12026359979
8820,Torhout,Moertjes,13,51.0598177576,3.11312668176
8820,Torhout,Vossebergstraat,8,51.0594054164,3.12728822575
8820,Torhout,Nieuwstraat,64,51.0652119577,3.09914116
8820,Torhout,Zwevezelestraat,65,51.0562654577,3.11447784109
8820,Torhout,Zonstraat,21,51.0251210106,3.09537877921
8820,Torhout,Ruddervoordestraat,7,51.0611819114,3.109004318
8820,Torhout,Mosselstraat,12,51.0926765568,3.07397925342
8820,Torhout,Ruddervoordestraat,44,51.0625542657,3.11084804693
8820,Torhout,Parkstraat,41,51.054089694,3.11965486794
8820,Torhout,Rijselstraat,60,51.0609650363,3.10272437074
8820,Torhout,Zomerstraat,15,51.067747003,3.08813414346
8820,Torhout,Steenstraat,38,51.0916437826,3.06211015816
8820,Torhout,Bruggestraat,203,51.0840129196,3.11823085338
8820,Torhout,Oude Gentweg,33A,51.0785836824,3.10544272078
8820,Torhout,Beckhofstraat,31,51.0585790981,3.10142552197
8820,Torhout,Rijksweg,39,51.0276044454,3.09638020993
8820,Torhout,Keibergstraat,166,51.0812992756,3.1235519717
8820,Torhout,Spoorwegstraat,18,51.0906951169,3.06469185047
8820,Torhout,Wijnendale-Stationsstraat,14,51.0836048508,3.06723559692
8820,Torhout,Parkstraat,8,51.0558091566,3.11712049731
8820,Torhout,Oostendestraat,158,51.0678125684,3.09316215807
8820,Torhout,Durmestraat,1,51.0651852863,3.1137873946
8820,Torhout,Marnestraat,7,51.0688124326,3.11594004117
8820,Torhout,Nijlstraat,2,51.0649472157,3.11703366423
8820,Torhout,Pastoriestraat,33,51.0688100821,3.0852721139
8820,Torhout,Merelaarstraat,2,51.0580376622,3.12174470238
8820,Torhout,Ruddervoordestraat,80,51.0639429841,3.11460326234
8820,Torhout,Aartrijkestraat,163,51.0811764077,3.09874310009
8820,Torhout,Tinnenburgstraat,2,51.0609938529,3.1030385943
8820,Torhout,Paleputstraat,15,51.0243719998,3.0956925118
8820,Torhout,Aartrijkestraat,100,51.0741268133,3.09878143205
8820,Torhout,Keibergstraat,148,51.0806405144,3.12068063243
8820,Torhout,Edewallestraat,12,51.0628243286,3.07211492913
8820,Torhout,Zennestraat,8,51.0668696807,3.111803613
8820,Torhout,Alberic Deleustraat,32,51.0915054034,3.066929989
8820,Torhout,Rozeveldstraat,70,51.0869613183,3.13491975941
8820,Torhout,Vinkenstraat,25,51.0579531613,3.11019891554
8820,Torhout,Sint-Rembertlaan,3,51.0707550064,3.09949621479
8820,Torhout,Karel de Goedelaan,21,51.0690942637,3.0983208315
8820,Torhout,Wijngaardstraat,5,51.0697210015,3.08193440503
8820,Torhout,Hogestraat,77,51.0746021402,3.08839122568
8820,Torhout,Oostendestraat,194,51.0687712126,3.09033334472
8820,Torhout,Blauwpannestraat,1,51.0196425312,3.09400493116
8820,Torhout,Wollesteeg,3,51.0640516644,3.10092737592
8820,Torhout,Berg op Zoomstraat,14,51.0820353873,3.11782626101
8820,Torhout,'s Gravenwinkelstraat,38,51.0674080481,3.09943815759
8820,Torhout,Berkenstraat,3,51.0672055365,3.08176185651
8820,Torhout,Karperstraat,9,51.0939426505,3.07135329333
8820,Torhout,Rembrandtlaan,3,51.0702572613,3.11144865426
8820,Torhout,Burg,12,51.0662809516,3.1010513355
8820,Torhout,Tuinstraat,7,51.0607996992,3.10695810777
8820,Torhout,Steenstraat,117,51.0971885519,3.06924569421
8820,Torhout,Geuzenbosstraat,8,51.0894107981,3.06481587217
8820,Torhout,Komeetstraat,3,51.0255419154,3.09750739764
8820,Torhout,Hogestraat,24,51.0725026947,3.08788157333
8820,Torhout,Smissestraat,58,51.0868168245,3.06654671588
8820,Torhout,Hogestraat,111,51.076896878,3.09001402663
8820,Torhout,Oostendestraat,176,51.0681675026,3.09239795822
8820,Torhout,Lindenstraat,6,51.0675907856,3.08238949401
8820,Torhout,Ourthestraat,14,51.0661363049,3.11365574267
8820,Torhout,Aartrijkestraat,145,51.0795438431,3.09889801848
8820,Torhout,Maanstraat,4,51.0258335193,3.09677058859
8820,Torhout,Leopoldstraat,29,51.067224203,3.09332415827
8820,Torhout,Lijsterstraat,21,51.0579644164,3.1153727026
8820,Torhout,Karel de Stoutelaan,6,51.0743200571,3.09628384201
8820,Torhout,Korenbloemstraat,84,51.0822575261,3.14333543681
8820,Torhout,Eugeen Van Oyestraat,29,51.0631337872,3.09958444975
8820,Torhout,Dijlestraat,4,51.0656004546,3.10967284075
8820,Torhout,Schoolstraat,6,51.0930489835,3.05923490875
8820,Torhout,Driekoningenstraat,106,51.0838272208,3.11424712669
8820,Torhout,Doornstraat,27,51.0688471744,3.07839134638
8820,Torhout,Wollestraat,10,51.0634882273,3.10098401145
8820,Torhout,Ruddervoordestraat,62,51.0632342278,3.11278208314
8820,Torhout,Nieuwstraat,48,51.0645965507,3.09901346457
8820,Torhout,Olmenstraat,12,51.0699226116,3.08268869813
8820,Torhout,Revinzestraat,93,51.0663161287,3.07850449844
8820,Torhout,Sneppestraat,8,51.0363641878,3.11415496913
8820,Torhout,Sneppestraat,41,51.0366996371,3.11104550643
8820,Torhout,Oostendestraat,241,51.0717567671,3.08289187005
8820,Torhout,Breestraat,8,51.0841087145,3.06371755169
8820,Torhout,Ebrostraat,5,51.0650653977,3.11785160598
8820,Torhout,Koolskampstraat,28,51.0530399142,3.1169946884
8820,Torhout,Kortemarkstraat,102,51.0595279185,3.0949273493
8820,Torhout,Bruggestraat,5,51.0673068562,3.10237604771
8820,Torhout,Smissestraat,23,51.085679927,3.06797293767
8820,Torhout,Karel de Ghelderelaan,5,51.0651455126,3.09711352211
8820,Torhout,Beckhofstraat,92,51.0583542808,3.10077610203
8820,Torhout,Parkstraat,23,51.0547676339,3.11823786275
8820,Torhout,Doornstraat,1,51.0700492739,3.07778486408
8820,Torhout,Edewallestraat,5,51.064338651,3.07236018621
8820,Torhout,Kievitsstraat,13,51.0584469722,3.1113594164
8820,Torhout,Bruggestraat,128,51.0784366891,3.11203894729
8820,Torhout,Meibosstraat,12,51.0526570231,3.09815007356
8820,Torhout,Revinzestraat,75,51.0666080012,3.08080291118
8820,Torhout,Burg,5,51.0658228491,3.10124722796
8820,Torhout,Ruddervoordestraat,105,51.0631010301,3.11668170025
8820,Torhout,Bruggestraat,24,51.0703381866,3.10505884242
8820,Torhout,Karel de Ghelderelaan,24,51.0630951492,3.0980590614
8820,Torhout,Warandestraat,22A,51.0777385047,3.09008536295
8820,Torhout,Werkenstraat,48,51.0658731201,3.09324640208
8820,Torhout,Oostendestraat,50,51.0655869145,3.09770377639
8820,Torhout,Kortemarkstraat,202,51.0557350502,3.08339411657
8820,Torhout,Landstraat,7B,51.0656505958,3.08464036036
8820,Torhout,Korenbloemstraat,6,51.0831286791,3.12844121282
8820,Torhout,Krabstraat,2,51.0910758296,3.07445211453
8820,Torhout,Boeiaardstraat,12,51.0642450956,3.10436429649
8820,Torhout,Berkenstraat,40,51.070179728,3.07896005407
8820,Torhout,Hogestraat,42,51.0737898605,3.08761188121
8820,Torhout,Aartrijkestraat,38,51.0698956378,3.09983073066
8820,Torhout,Bakvoordestraat,17,51.0352765035,3.09207400787
8820,Torhout,Zeeweg,30,51.0908545074,3.09229861151
8820,Torhout,Sparappelstraat,36,51.1002895693,3.07484395973
8820,Torhout,Revinzestraat,57,51.0671374136,3.0821181562
8820,Torhout,Vredelaan,62,51.0620093824,3.09491703271
8820,Torhout,Kortemarkstraat,51,51.0613730698,3.09762530922
8820,Torhout,Oostendestraat,336,51.0742508148,3.07320669537
8820,Torhout,Kerselarenstraat,7,51.0690229538,3.08244102477
8820,Torhout,Jacob van Arteveldestraat,9,51.0627434021,3.09578788898
8820,Torhout,Rubenslaan,2,51.0710509966,3.11365037203
8820,Torhout,Keibergstraat,26,51.0716958818,3.11091884394
8820,Torhout,Sint-Rembertlaan,40,51.0690440392,3.09493247218
8820,Torhout,Kleine Korenbloemstraat,5,51.0825094126,3.13535643679
8820,Torhout,Zwevezelestraat,19,51.0600217965,3.10944012407
8820,Torhout,Hoedemakersstraat,7,51.0647395725,3.10039867731
8820,Torhout,Ruddervoordestraat,123,51.0640128571,3.11760023687
8820,Torhout,Steenovenstraat,6,51.0871414642,3.09614053331
8820,Torhout,Vredelaan,80,51.0599225157,3.0964604928
8820,Torhout,Oude Gentweg,89,51.0825475688,3.11550734128
8820,Torhout,Ieperse Heerweg,54,51.0427269389,3.088807509
8820,Torhout,Koekoekstraat,5,51.0593835571,3.11783908578
8820,Torhout,Gitsstraat,37,51.0596541623,3.09955495797
8820,Torhout,Schoolstraat,21,51.090207981,3.05873256638
8820,Torhout,Wijnendale-Stationsstraat,50,51.0845802571,3.0706178896
8820,Torhout,Wijnendalestraat,49,51.0952292399,3.07181972971
8820,Torhout,Moereveldstraat,30,51.0544595151,3.08183750148
8820,Torhout,Papebrugstraat,28,51.0668892956,3.1055637386
8820,Torhout,Kortemarkstraat,183,51.0557331502,3.08232173368
8820,Torhout,Lindenstraat,21,51.067966507,3.08300113726
8820,Torhout,Rozeveldstraat,69,51.0866174567,3.13573731527
8820,Torhout,Werkenstraat,34,51.0660058799,3.09390895698
8820,Torhout,Rijselstraat,128,51.0566410061,3.10378779317
8820,Torhout,Leenstraat,2,51.0526299672,3.10534266118
8820,Torhout,Ruddervoordestraat,97,51.0635388224,3.11567200168
8820,Torhout,Industrielaan,23,51.0713990071,3.10381599835
8820,Torhout,Nijlstraat,16,51.0646314551,3.11609174984
8820,Torhout,Waterhoekweg,50,51.0724816357,3.08425157759
8820,Torhout,Consciencestraat,25,51.088514915,3.0733575596
8820,Torhout,Pottebezemstraat,29,51.0815469799,3.11859177255
8820,Torhout,Rijselstraat,24,51.0620288828,3.10301217756
8820,Torhout,Zwevezelestraat,5,51.060523244,3.10822641299
8820,Torhout,Moertjes,56,51.0611442226,3.11203467171
8820,Torhout,Camiel Meysmanstraat,8,51.0945782768,3.06669599057
8820,Torhout,Guido Gezellelaan,28,51.0635448165,3.10727331961
8820,Torhout,Tulpenstraat,18,51.0540016537,3.11944881608
8820,Torhout,Sint-Rembertlaan,29,51.0690309666,3.09394755941
8820,Torhout,Kreeftenstraat,7,51.0918673386,3.07601099071
8820,Torhout,Korenbloemstraat,100,51.0843379164,3.15160934531
8820,Torhout,Zwevezelestraat,37,51.0589586375,3.11185981242
8820,Torhout,Oostendestraat,276,51.070938344,3.08292919649
8820,Torhout,Roeselaarseweg,14,51.0501533546,3.10576392551
8820,Torhout,Groenestraat,15,51.0596199072,3.10814231518
8820,Torhout,Kwaplasstraat,61A,51.0600200896,3.1258307674
8820,Torhout,Eugeen Van Oyestraat,40,51.0627760902,3.09940297039
8820,Torhout,Moertjes,6,51.0601056645,3.11151102347
8820,Torhout,Gitsstraat,5,51.0611542211,3.0993749034
8820,Torhout,Slingerstraat,35,51.0359765724,3.10127425899
8820,Torhout,Werkenstraat,16,51.0661466361,3.09492914014
8820,Torhout,Bollestraat,29,51.0564676975,3.10930577282
8820,Torhout,Amazonestraat,6,51.0657094136,3.1177376592
8820,Torhout,Ieperse Heerweg,72,51.0421635907,3.08609425459
8820,Torhout,Poperbosstraat,6,51.065864389,3.10729955208
8820,Torhout,Berkenstraat,29,51.0703431591,3.07972352735
8820,Torhout,Makeveldstraat,11,51.0654459859,3.07462707504
8820,Torhout,Kanariestraat,3,51.0590054052,3.11699837902
8820,Torhout,Strepestraat,7,51.0487084188,3.06176550423
8820,Torhout,Rijselstraat,59,51.0602792068,3.10207483166
8820,Torhout,Rozeveldstraat,48,51.0863192255,3.13240218972
8820,Torhout,Ernest Claeslaan,25,51.0683718406,3.11243532585
8820,Torhout,Revinzestraat,101,51.0663826325,3.07769751286
8820,Torhout,Oude Wijnendalestraat,18,51.0819088138,3.07741469014
8820,Torhout,Nieuwstraat,46,51.0649926769,3.09933230209
8820,Torhout,Lichterveldestraat,33,51.0619273103,3.10402729037
8820,Torhout,Oostendestraat,341,51.0797278264,3.06412874956
8820,Torhout,Hugo Verriestlaan,1,51.0678118141,3.10981154354
8820,Torhout,Berg op Zoomstraat,8C,51.0817226413,3.11711641919
8820,Torhout,Ravenhofstraat,2,51.064421655,3.10042155933
8820,Torhout,Schavelarestraat,10,51.0540197444,3.10602835815
8820,Torhout,Oude Wijnendalestraat,4,51.0808189308,3.07424942512
8820,Torhout,Nijlstraat,34,51.0644498111,3.11459952742
8820,Torhout,Klaproosstraat,16,51.0851366401,3.13248510968
8820,Torhout,Aartrijkestraat,200,51.0850396692,3.0980595753
8820,Torhout,Vredelaan,2,51.068207727,3.09190330797
8820,Torhout,Kortemarkstraat,220,51.0547195646,3.08159513015
8820,Torhout,Bruggestraat,59,51.0729513603,3.10835958532
8820,Torhout,Oostendestraat,39,51.0658988729,3.0984459418
8820,Torhout,Vanhullestraat,1,51.0610382684,3.10822410051
8820,Torhout,Burg,37,51.0666835905,3.10197670806
8820,Torhout,Lichterveldestraat,15,51.0624464969,3.10379283974
8820,Torhout,Driekoningenstraat,47,51.0847789822,3.11119744727
8820,Torhout,Lichterveldestraat,51,51.0604464297,3.1047302524
8820,Torhout,Papeplekkedreef,6,51.0867228325,3.13143743733
8820,Torhout,Ruitjesbosstraat,50,51.0806971054,3.1401197858
8820,Torhout,Oostendestraat,294,51.0726722558,3.07802202673
8820,Torhout,Ruitjesbosstraat,14,51.0755783114,3.13468571887
8820,Torhout,Mezenstraat,5,51.058704764,3.11611737971
8820,Torhout,Zeeweg,12,51.088083379,3.09565055481
8820,Torhout,Wijnendale-Stationsstraat,39,51.0841249722,3.07091827738
8820,Torhout,Roeselaarseweg,50,51.0333048368,3.10980168618
8820,Torhout,Boeiaardstraat,30,51.0638492335,3.10456331776
8820,Torhout,Ieperse Heerweg,90,51.0291093385,3.06862470754
8820,Torhout,Wijnendalestraat,67,51.0961303594,3.07328743181
8820,Torhout,Gitsstraat,19,51.0607048098,3.09927566958
8820,Torhout,Albrecht Rodenbachlaan,13,51.0681165022,3.10792802756
8820,Torhout,Karperstraat,11,51.0941451799,3.07141691783
8820,Torhout,Rozeveldstraat,79A,51.0878297118,3.13907329495
8820,Torhout,Rijksweg,50,51.0275988729,3.09308031573
8820,Torhout,Heidestraat,13,51.0789611996,3.0870404247
8820,Torhout,Boudewijn Hapkenstraat,16,51.0668220734,3.0976531128
8820,Torhout,Rijksweg,14,51.025908357,3.09859871156
8820,Torhout,Aartrijkestraat,235,51.0873130503,3.09979198887
8820,Torhout,Pastoriestraat,8,51.0687674526,3.08459365684
8820,Torhout,Camiel Meysmanstraat,23,51.0937731201,3.06682676123
8820,Torhout,Stijn Streuvelslaan,1,51.0642566126,3.10785707792
8820,Torhout,Olmenstraat,37,51.070879902,3.08118221519
8820,Torhout,Keibergstraat,97,51.0808343358,3.12447463923
8820,Torhout,Keibergstraat,80,51.0746169392,3.1147314856
8820,Torhout,Berg op Zoomstraat,7,51.0810876183,3.11618870732
8820,Torhout,Hans Memlinclaan,11,51.0634207553,3.10993977055
8820,Torhout,Landstraat,11,51.0653935695,3.08484716141
8820,Torhout,'s Gravenwinkelstraat,13,51.0678433144,3.10070438606
8820,Torhout,Langenhoekstraat,9,51.0283602758,3.08119043729
8820,Torhout,Parkstraat,58,51.0528765038,3.12304780908
8820,Torhout,Koolskampstraat,21,51.0536792771,3.11451488661
8820,Torhout,Bruggestraat,174,51.0837194158,3.11702118355
8820,Torhout,Ruitjesbosstraat,32,51.0788592299,3.13769431499
8820,Torhout,Rijselstraat,77,51.0595430941,3.10221772233
8820,Torhout,Nachtegaalstraat,12,51.0627490814,3.12603779554
8820,Torhout,Driekoningenstraat,1,51.0857924405,3.09913052171
8820,Torhout,Sparappelstraat,72,51.0989972409,3.07109572006
8820,Torhout,Paleputstraat,8,51.0247702561,3.09500911864
8820,Torhout,Aartrijkestraat,217,51.0859955261,3.09923891778
8820,Torhout,Oude Gentweg,36,51.0822330347,3.10892012323
8820,Torhout,Ambachtstraat,31,51.0801882749,3.11217730147
8820,Torhout,Oostendestraat,151,51.0685078713,3.09277992573
8820,Torhout,Jan Van Eycklaan,4,51.0713802825,3.11277851782
8820,Torhout,Doornstraat,47,51.068513585,3.07815668937
8820,Torhout,Rupelstraat,9,51.0655731059,3.11117883012
8820,Torhout,Smissestraat,114,51.0903535968,3.06821114864
8820,Torhout,Hazelaarstraat,6,51.0549932588,3.11677000432
8820,Torhout,Haverstraat,11,51.065032391,3.08724791073
8820,Torhout,Waterhoekweg,7,51.0717009988,3.0872657995
8820,Torhout,Rijksweg,32,51.0267463603,3.09665884129
8820,Torhout,Keibergstraat,62,51.0736258931,3.11281671615
8820,Torhout,Eugeen Van Oyestraat,22,51.0630159195,3.09995973054
8820,Torhout,Wijnendale-Stationsstraat,7,51.0828199657,3.06690630895
8820,Torhout,Beukenstraat,10,51.0692767804,3.08602527654
8820,Torhout,Zandbergstraat,10,51.0834019316,3.13082415692
8820,Torhout,Bollestraat,93,51.0531091587,3.11267840702
8820,Torhout,Roeselaarseweg,32,51.0447660902,3.107187622
8820,Torhout,Smissestraat,41,51.0870926637,3.06733041737
8820,Torhout,Vanhullestraat,20,51.0604210043,3.10769489514
8820,Torhout,Schrijversveld,6,51.0883029356,3.10629984223
8820,Torhout,Sparappelstraat,90,51.0984539107,3.06993885796
8820,Torhout,Langepijpestraat,16,51.0651773687,3.09640811607
8820,Torhout,Consciencestraat,61,51.0903245348,3.06971017001
8820,Torhout,Rozeveldstraat,16,51.0844307527,3.12844480674
8820,Torhout,Ambachtstraat,13,51.0775212177,3.10812190004
8820,Torhout,Driekoningenstraat,20,51.0860438228,3.10192470386
8820,Torhout,Ruddervoordestraat,158,51.0634664809,3.13172074145
8820,Torhout,Sterstraat,15,51.0245850972,3.0994353109
8820,Torhout,Hugo Verriestlaan,20,51.0684268002,3.10842849003
8820,Torhout,Aartrijkestraat,208B,51.0869206737,3.09886880285
8820,Torhout,Moertjes,1A,51.0597494389,3.11179449817
8820,Torhout,Bruggestraat,77,51.0736102834,3.1089263493
8820,Torhout,Kortemarkstraat,137,51.0587302489,3.08955102537
8820,Torhout,Koningsdreef,15,51.0836549105,3.10841481472
8820,Torhout,Binderstraat,1,51.0533084571,3.10560235944
8820,Torhout,Burg,19,51.0660380299,3.10169469464
8820,Torhout,Breidelstraat,8,51.0653717964,3.10208240736
8820,Torhout,Steenstraat,84,51.0952213281,3.06535932395
8820,Torhout,Breestraat,23,51.0865706862,3.06552238702
8820,Torhout,Postiljonstraat,12,51.073362359,3.07282672772
8820,Torhout,Korenbloemstraat,117,51.0821003519,3.14498648464
8820,Torhout,Populierenstraat,5,51.0694399861,3.08293326166
8820,Torhout,Sneppestraat,23,51.0366961603,3.11329894977
8820,Torhout,Kortemarkstraat,8,51.0621671217,3.10146962304
8820,Torhout,Sommestraat,8,51.0686071994,3.11434315763
8820,Torhout,Oostendestraat,223,51.0708399077,3.08592578465
8820,Torhout,Gavervijver,27D,51.0830959225,3.1026251165
8820,Torhout,Ruddervoordestraat,194,51.0635365577,3.14075396087
8820,Torhout,Ijzerstraat,5,51.0666913975,3.10999962764
8820,Torhout,Zonstraat,28,51.0252575125,3.09625492283
8820,Torhout,Voshoekstraat,2A,51.0587977716,3.07888447519
8820,Torhout,Sterstraat,28,51.0251041646,3.09785627666
8820,Torhout,Begoniastraat,10,51.0544185247,3.11613634363
8820,Torhout,Koningsdreef,28,51.0826043865,3.11023922685
8820,Torhout,Steenstraat,31,51.0906934742,3.06183848352
8820,Torhout,Onze Lieve Vrouwstraat,26,51.0637171642,3.09529957541
8820,Torhout,Oostendestraat,258,51.0698454148,3.08629821485
8820,Torhout,Kasteelstraat,2,51.0626501545,3.10745379515
8820,Torhout,Poperbosstraat,38,51.0654268203,3.10887024111
8820,Torhout,Doornstraat,20,51.0691756463,3.07879923089
8820,Torhout,Keurvorstenstraat,22,51.0723657572,3.08371578143
8820,Torhout,Nijlstraat,48,51.0648180372,3.11374516421
8820,Torhout,Keibergstraat,44,51.0726152266,3.11179656686
8820,Torhout,Oostendestraat,301,51.0773291823,3.07010275575
8820,Torhout,Maria Van Bourgondiëlaan,42,51.0688664497,3.09695306729
8820,Torhout,Robrecht de Friesstraat,6,51.0634496011,3.096347362
8820,Torhout,Langepijpestraat,34,51.0649225722,3.09491665263
8820,Torhout,Prosper Moncareystraat,9,51.0932710467,3.0655755598
8820,Torhout,Felix Timmermanslaan,1,51.0665265171,3.10772815653
8820,Torhout,Oostendestraat,205,51.0702294072,3.08832663364
8820,Torhout,Eugeen Van Oyestraat,75,51.062384712,3.09717254259
8820,Torhout,Groenhovestraat,28,51.073264104,3.12942528486
8820,Torhout,Ruddervoordestraat,176,51.0618338749,3.133976633
8820,Torhout,Steenstraat,13,51.0894840397,3.06053453549
8820,Torhout,Elisabethlaan,23,51.0618326313,3.1053676355
8820,Torhout,Revinzestraat,3,51.0666232273,3.09027986521
8820,Torhout,Hofstraat,14,51.0649975507,3.10285399978
8820,Torhout,Rozeveldstraat,34,51.0855735095,3.13042369991
8820,Torhout,Conscienceplein,1,51.0646095818,3.10318508374
8820,Torhout,Viaductstraat,5,51.0658292298,3.10530071086
8820,Torhout,Olmenstraat,19,51.0702711675,3.08308479729
8820,Torhout,Zandbergstraat,45,51.0849875618,3.13131703837
8820,Torhout,Molenstraat,22,51.0645876254,3.0912221936
8820,Torhout,Constant Permekelaan,10,51.0710147692,3.11450394352
8820,Torhout,Consciencestraat,43,51.089748641,3.07123106536
8820,Torhout,Hogestraat,58A,51.0749425766,3.08742905415
8820,Torhout,Moertjes,38,51.0613820765,3.11186350787
8820,Torhout,Hugo Vander Goeslaan,2,51.0721470212,3.11261510043
8820,Torhout,Korenbloemstraat,135,51.083247933,3.15071822744
8820,Torhout,Ruddervoordestraat,79,51.0617291765,3.1156879156
8820,Torhout,Kastanjestraat,9,51.0671089435,3.07692496386
8820,Torhout,Nachtegaalstraat,30,51.060300377,3.11977219121
8820,Torhout,Zuidstraat,21,51.0635627989,3.10185771399
8820,Torhout,Hogestraat,60,51.0750908849,3.08741800073
8820,Torhout,Ruddervoordestraat,26,51.0619520247,3.10976284076
8820,Torhout,Steenstraat,66,51.0936690736,3.06451271911
8820,Torhout,Jeroen Boschlaan,2,51.0695348966,3.11170121517
8820,Torhout,Parkstraat,76,51.0520012284,3.12710427804
8820,Torhout,Olmenstraat,5,51.0697700744,3.0846377783
8820,Torhout,Beerstraat,3,51.0659509204,3.10187925443
8820,Torhout,Rijselstraat,95,51.0584438723,3.1025202205
8820,Torhout,Brasemstraat,3,51.0924123017,3.07188112522
8820,Torhout,Bollestraat,92A,51.0482233868,3.11764516866
8820,Torhout,Smissestraat,13,51.0850910842,3.06821083994
8820,Torhout,Oostendestraat,394,51.0796842141,3.0615867897
8820,Torhout,Oude Gentweg,62,51.08268253,3.11288077446
8820,Torhout,Wijnendalestraat,40,51.0950393088,3.07010648171
8820,Torhout,Smissestraat,47,51.0874184583,3.06725611954
8820,Torhout,Vijfhuishoekstraat,9,51.0433441285,3.07170666006
8820,Torhout,Roeselaarseweg,75,51.0321030025,3.10874099922
8820,Torhout,Ernest Claeslaan,73,51.0701795353,3.1170120204
8820,Torhout,Schavelarestraat,53,51.0558217179,3.11579809844
8820,Torhout,Revinzestraat,35,51.0669383361,3.08674484877
8820,Torhout,Hogestraat,12,51.0715990372,3.08811692627
8820,Torhout,Oostendestraat,133,51.0677292271,3.09467518023
8820,Torhout,Ruddervoordestraat,2,51.0614509128,3.10846736166
8820,Torhout,Zeeweg,60,51.0992371095,3.08430695609
8820,Torhout,Rijselstraat,101,51.0581898551,3.10258315483
8820,Torhout,Gustaaf Van de Woestijnelaan,15,51.0716957642,3.11437624494
8820,Torhout,Rozenstraat,13,51.0551695208,3.11482145129
8820,Torhout,Kleine Oostwegel,3,51.0953969946,3.07070789416
8820,Torhout,Olmenstraat,24,51.0703365485,3.08125780823
8820,Torhout,Lichterveldestraat,56,51.0607684023,3.10545456408
8820,Torhout,Bruggestraat,101,51.075490204,3.11062605804
8820,Torhout,Pottebezemstraat,32,51.0817658738,3.11920107841
8820,Torhout,Heidestraat,26,51.0784344427,3.08570745135
8820,Torhout,Lijsterstraat,15,51.0581525862,3.11522943175
8820,Torhout,Oostendestraat,376,51.07623198,3.06710728288
8820,Torhout,Boeiaardstraat,3,51.0642539981,3.10376111458
8820,Torhout,Molenstraat,39,51.0637103615,3.08585794348
8820,Torhout,Bollestraat,49,51.0554380539,3.11056908133
8820,Torhout,Ravenhofstraat,14,51.0637909967,3.10026330251
8820,Torhout,Gavervijver,19,51.0825498007,3.10461413706
8820,Torhout,Oostendestraat,115,51.0674398946,3.09537165044
8820,Torhout,Boeiaardstraat,42,51.0635781643,3.10489735788
8820,Torhout,Camiel Meysmanstraat,1,51.094666208,3.06557309715
8820,Torhout,Karel de Goedelaan,15,51.0692331945,3.09869932588
8820,Torhout,Revinzestraat,17,51.0668754085,3.08897941535
8820,Torhout,Roeselaarseweg,57,51.0374631651,3.10736051983
8820,Torhout,Ernest Claeslaan,55,51.0696460196,3.1156287802
8820,Torhout,Nijlstraat,46,51.0647471016,3.11380399361
8820,Torhout,Rijselstraat,83,51.0592063713,3.10233125864
8820,Torhout,Paleputstraat,21,51.0243621439,3.0966775356
8820,Torhout,Aartrijkestraat,58,51.0717713839,3.09928243022
8820,Torhout,Heidestraat,41,51.0793200836,3.08266347902
8820,Torhout,Aartrijkestraat,219,51.0860883365,3.09921684391
8820,Torhout,Boudewijn Hapkenstraat,7,51.0670654494,3.0967538782
8820,Torhout,Edewallestraat,24,51.0592192578,3.05182006567
8820,Torhout,Smissestraat,31,51.0862226713,3.06774516135
8820,Torhout,Breugellaan,9,51.0703054118,3.11355464274
8820,Torhout,Essenstraat,6,51.0675870108,3.08001874078
8820,Torhout,Bollestraat,67,51.0544139005,3.11154761168
8820,Torhout,Moertjes,36,51.0612621983,3.11140463499
8820,Torhout,Warandestraat,2,51.0794582,3.09654887392
8820,Torhout,Roeselaarseweg,9,51.0504303181,3.10454565096
8820,Torhout,Wollemarkt,3,51.0636656989,3.10067516959
8820,Torhout,Processieweg,21,51.1014754485,3.06735556965
8820,Torhout,Maria Van Bourgondiëlaan,30,51.0681847852,3.09771755479
8820,Torhout,Koer Vanthuyne,3,51.0635208987,3.10161459338
8820,Torhout,Ambachtstraat,6,51.0773205904,3.10492494447
8820,Torhout,Korenbloemstraat,23,51.082061537,3.12973963442
8820,Torhout,Rijksweg,9,51.0262941976,3.09965573037
8820,Torhout,Zeeweg,3,51.0874571644,3.0970876256
8820,Torhout,Vinkenstraat,20,51.0583634816,3.11069645359
8820,Torhout,Reigerstraat,3,51.0583269599,3.11272614518
8820,Torhout,Camiel Meysmanstraat,38,51.0929759972,3.06903950361
8820,Torhout,Eugeen Van Oyestraat,73A,51.0624660906,3.09734082147
8820,Torhout,Ieperse Heerweg,26,51.049731319,3.09520955615
8820,Torhout,Aartrijkestraat,237,51.0874875383,3.09986619432
8820,Torhout,Burg,59,51.067745513,3.10144129276
8820,Torhout,Rozeveldstraat,64,51.0869549717,3.13398681881
8820,Torhout,Ruddervoordestraat,143,51.0643951444,3.11895869261
8820,Torhout,Wijnendale-Stationsstraat,75,51.0859454483,3.07440776611
8820,Torhout,Mosselstraat,24,51.0929275742,3.07543904983
8820,Torhout,Zwaluwstraat,40,51.0596799837,3.11684167597
8820,Torhout,Kortemarkstraat,198,51.0555449574,3.08397606298
8820,Torhout,Hugo Verriestlaan,8,51.067899163,3.10883194309
8820,Torhout,Aartrijkestraat,140,51.0781610652,3.0973378274
8820,Torhout,Revinzestraat,128,51.0658961052,3.07534586606
8820,Torhout,Aartrijkestraat,76,51.0731764068,3.09913543653
8820,Torhout,Waterhoekweg,22,51.0713262469,3.08680730317
8820,Torhout,Viereikenstraat,3,51.0489156147,3.12705345607
8820,Torhout,Vanhullestraat,8,51.0606271541,3.10806511631
8820,Torhout,Eugeen Van Oyestraat,67,51.0626217679,3.09848023171
8820,Torhout,Groenhovestraat,33,51.0712506583,3.13203526275
8820,Torhout,Oostendestraat,75,51.0665202086,3.09647206096
8820,Torhout,Waterhoekweg,57,51.0739712524,3.0830662004
8820,Torhout,Kortemarkstraat,21,51.0625880491,3.10117745423
8820,Torhout,Maria Van Bourgondiëlaan,12,51.0675177622,3.09848133714
8820,Torhout,Doornstraat,12,51.0695774169,3.07870853567
8820,Torhout,Driekoningenstraat,61,51.0847501757,3.1131684138
8820,Torhout,Wijnendale-Stationsstraat,57,51.0844717868,3.07303344012
8820,Torhout,Nijlstraat,7,51.065170369,3.11634113674
8820,Torhout,Sterstraat,33,51.0250521704,3.09872869826
8820,Torhout,Eikenstraat,3,51.0684751093,3.08369603847
8820,Torhout,Ambachtstraat,19A,51.07821305,3.110305666
8820,Torhout,Vijfhuishoekstraat,22,51.0446359999,3.07432751884
8820,Torhout,Korenbloemstraat,129,51.0831871874,3.14952015855
8820,Torhout,Poperbosstraat,23,51.0651063636,3.10893322636
8820,Torhout,Oostendestraat,57,51.0662846578,3.09732142117
8820,Torhout,Groenhovestraat,15,51.0685574871,3.12047617637
8820,Torhout,Keibergstraat,90,51.0750796784,3.1157816815
8820,Torhout,'s Gravenwinkelstraat,58,51.0681012139,3.10011666645
8820,Torhout,Mandelstraat,6,51.064702733,3.11142863981
8820,Torhout,Ruddervoordestraat,161,51.0650504966,3.12021144059
8820,Torhout,Meibosstraat,3,51.0539190769,3.10212608515
8820,Torhout,Oostendestraat,358,51.0751783272,3.0698960069
8820,Torhout,Hogestraat,30,51.0729519354,3.08780706009
8820,Torhout,Revinzestraat,50,51.066511535,3.08576647027
8820,Torhout,Leliestraat,14,51.0533243827,3.12024270903
8820,Torhout,Prosper Moncareystraat,11,51.0933229657,3.06550644316
8820,Torhout,Sint-Rembertlaan,32,51.0691608832,3.09592041345
8820,Torhout,Wijnendale-Stationsstraat,22,51.0841008434,3.06763502036
8820,Torhout,Rozeveldstraat,18,51.0845086305,3.12872064785
8820,Torhout,Driekoningenstraat,43,51.0849200446,3.11054905513
8820,Torhout,Kortemarkstraat,56,51.0610392319,3.09814782439
8820,Torhout,Berkenstraat,32,51.0695680597,3.07930781165
8820,Torhout,Bollestraat,85,51.05341581,3.112416422
8820,Torhout,Steenstraat,112,51.0970611208,3.0659001476
8820,Torhout,Oostendestraat,22,51.0654900427,3.09946006484
8820,Torhout,Eugeen Van Oyestraat,49,51.0632354047,3.09843518781
8820,Torhout,Aartrijkestraat,94,51.0737913868,3.09890640973
8820,Torhout,Processieweg,1,51.0987327826,3.06953032885
8820,Torhout,Oude Wijnendalestraat,34,51.0835907547,3.07554883678
8820,Torhout,Hogestraat,65,51.0737399532,3.08838056538
8820,Torhout,Bruggestraat,37,51.0712359765,3.10680759262
8820,Torhout,Ruddervoordestraat,54,51.0630445578,3.11178049053
8820,Torhout,Roeselaarseweg,29,51.0489397013,3.10487785478
8820,Torhout,Steenveldstraat,26,51.0796768327,3.08306085965
8820,Torhout,Brildam,12,51.0672668824,3.10730170498
8820,Torhout,Constant Permekelaan,5,51.0707189523,3.11423818467
8820,Torhout,Steenstraat,41,51.0910795343,3.06285498101
8820,Torhout,Werkenstraat,18,51.0660679691,3.09492058003
8820,Torhout,Rogier Vander Weijdenlaan,3,51.0717144415,3.11358848669
8820,Torhout,Sint-Rembertlaan,14,51.0698118936,3.09863253863
8820,Torhout,Aartrijkestraat,130,51.0761873712,3.09790592368
8820,Torhout,Berkenstraat,14,51.0684250372,3.08025321727
8820,Torhout,Wijngaardstraat,19,51.0700885983,3.08045128009
8820,Torhout,Rijselstraat,37,51.061363307,3.1018293586
8820,Torhout,Smissestraat,66,51.087285304,3.06609073591
8820,Torhout,Kersouwkensstraat,9,51.0672340847,3.13244187796
8820,Torhout,Komeetstraat,14,51.0251665737,3.09677501165
8820,Torhout,Oude Wijnendalestraat,16,51.0817161305,3.07758500196
8820,Torhout,Leliestraat,32,51.0525419794,3.12121197247
8820,Torhout,Ernest Claeslaan,27,51.0685868035,3.11240230259
8820,Torhout,Aartrijkestraat,112,51.0746010135,3.09856977406
8820,Torhout,Zwaluwstraat,30,51.0595506799,3.11628077283
8820,Torhout,Molenstraat,50,51.0638856908,3.08971531457
8820,Torhout,Aardenhuttestraat,17,51.0841302171,3.09609112123
8820,Torhout,Gitsstraat,24,51.0598950078,3.10028969525
8820,Torhout,Papebrugstraat,15,51.0661518912,3.10560304368
8820,Torhout,Keibergstraat,125,51.0826669806,3.1268211949
8820,Torhout,Nachtegaalstraat,3,51.0614057777,3.11851392382
8820,Torhout,Oostendestraat,186,51.0682628667,3.0921467971
8820,Torhout,Wijnendalestraat,12,51.0926698564,3.0695922187
8820,Torhout,Eugeen Van Oyestraat,46A,51.0626046315,3.09910102331
8820,Torhout,Hillestraat,2,51.0726033171,3.08074479932
8820,Torhout,Stijn Streuvelslaan,8,51.0649816511,3.10878848492
8820,Torhout,Korenbloemstraat,58,51.0812589625,3.13673943418
8820,Torhout,Hofstraat,9,51.0644726025,3.10282796229
8820,Torhout,Hooistraat,2,51.0871470258,3.09734814195
8820,Torhout,Paleputstraat,1,51.0251755882,3.08420150174
8820,Torhout,Rupelstraat,11,51.0657261907,3.11151429205
8820,Torhout,Keibergstraat,107,51.0819338146,3.12570968205
8820,Torhout,Oostendestraat,168,51.0679939605,3.09276054731
8820,Torhout,Isidoor Opsomerlaan,6,51.0705826556,3.11269233195
8820,Torhout,Driekoningenstraat,8,51.0860957312,3.10046405718
8820,Torhout,Ambachtstraat,2A,51.0745449032,3.10356942314
8820,Torhout,Aartrijkestraat,23,51.070974694,3.10077993328
8820,Torhout,Kortemarkstraat,110,51.0591789028,3.09390313837
8820,Torhout,Garnaalstraat,6,51.0913741136,3.0737303572
8820,Torhout,Parkstraat,38,51.0542599732,3.12009651321
8820,Torhout,Keibergstraat,2,51.0705399466,3.1096321382
8820,Torhout,Boudewijn Hapkenstraat,18,51.0666570711,3.09750007302
8820,Torhout,Alberic Deleustraat,22,51.0917881707,3.06611795551
8820,Torhout,Wijnendalestraat,30,51.093963916,3.069936179
8820,Torhout,Beukenstraat,5,51.0688038168,3.08569592861
8820,Torhout,Zwevezelestraat,24,51.0600957901,3.11040024201
8820,Torhout,Lessestraat,3,51.0672792457,3.11423192623
8820,Torhout,Felix Timmermanslaan,8,51.0663196333,3.1085671266
8820,Torhout,Kerselarenstraat,22,51.0685616918,3.08074715154
8820,Torhout,Nieuwstraat,52,51.0645335944,3.09907794947
8820,Torhout,Korenbloemstraat,76,51.0818946331,3.14218871048
8820,Torhout,Industrielaan,1A,51.0701297755,3.10445331909
8820,Torhout,Bruggestraat,189,51.0821319864,3.11624652991
8820,Torhout,Werkenstraat,7,51.0663919945,3.09529671521
8820,Torhout,Sint-Henricusstraat,16,51.025048237,3.09472642932
8820,Torhout,Sint-Henricusstraat,69,51.0196443359,3.09431290816
8820,Torhout,Burg,24,51.0667366893,3.101036852
8820,Torhout,Eugeen Van Oyestraat,39,51.0629654495,3.0992383299
8820,Torhout,Bollestraat,103,51.0525422472,3.11326174395
8820,Torhout,Keibergstraat,196,51.0831903265,3.12590253014
8820,Torhout,Kwaplasstraat,73,51.0616697951,3.13004239513
8820,Torhout,Ruddervoordestraat,90,51.0640949729,3.11514092112
8820,Torhout,Kwaplasstraat,10,51.0566719912,3.11707389227
8820,Torhout,Bollestraat,121,51.0508556206,3.1148352825
8820,Torhout,Rijselstraat,189,51.0533255815,3.10403027978
8820,Torhout,Zwaluwstraat,12,51.0591310462,3.11476983604
8820,Torhout,Kortemarkstraat,1,51.0625589471,3.10230076331
8820,Torhout,Beckhofstraat,82,51.0577570603,3.10038342962
8820,Torhout,Lichterveldestraat,28,51.062275736,3.10470296942
8820,Torhout,Bruggestraat,19,51.0681908074,3.10333381271
8820,Torhout,Karel de Ghelderelaan,19,51.0639186598,3.09620934421
8820,Torhout,Kievitsstraat,6,51.0584480164,3.11231732545
8820,Torhout,Loirestraat,4,51.0684592641,3.11608062345
8820,Torhout,Ruddervoordestraat,72,51.0636639582,3.11402307168
8820,Torhout,Violierstraat,10,51.0536766412,3.11657527309
8820,Torhout,Rijselstraat,136,51.0563193868,3.10425339136
8820,Torhout,Roggestraat,12,51.0651388159,3.08876879258
8820,Torhout,Groenhovestraat,26A,51.0730537446,3.12898149221
8820,Torhout,Brildam,30,51.0675686826,3.10905058485
8820,Torhout,Keibergstraat,178,51.0825897579,3.12421172289
8820,Torhout,Lichterveldestraat,4,51.062724729,3.10406794951
8820,Torhout,Oostendestraat,251,51.072408387,3.08057821075
8820,Torhout,Kwaplasstraat,55,51.0596362512,3.12504206528
8820,Torhout,Samberstraat,3,51.0679692937,3.11432130088
8820,Torhout,Consciencestraat,27,51.0886054666,3.07313022169
8820,Torhout,Nijlstraat,18,51.0645987159,3.11592113073
8820,Torhout,Korenbloemstraat,94,51.083502853,3.14581475697
8820,Torhout,Pieter de Coninckstraat,26,51.0644260607,3.09409494464
8820,Torhout,Kortemark-Ellestraat,6,51.0193153757,3.07053210907
8820,Torhout,Roeselaarseweg,49A,51.038434223,3.10735375957
8820,Torhout,Zeeweg,42,51.0938896542,3.08565116133
8820,Torhout,Langepijpestraat,7,51.0656380825,3.09659648423
8820,Torhout,Tulpenstraat,16,51.0539587422,3.11931045686
8820,Torhout,Ieperse Heerweg,53B,51.0353904774,3.07590481916
8820,Torhout,Oostendestraat,308,51.0731386932,3.07637450794
8820,Torhout,Wijnendale-Stationsstraat,2,51.0827986276,3.0654546036
8820,Torhout,Ruddervoordestraat,133,51.0641926955,3.11822205255
8820,Torhout,Rijselstraat,118,51.0575486734,3.1037220408
8820,Torhout,Wijnendalestraat,57,51.0955741693,3.07233285027
8820,Torhout,Molenstraat,32,51.0643107633,3.09073623761
8820,Torhout,Pottebezemstraat,39,51.0809344938,3.11855889656
8820,Torhout,Markt,22A,51.0641746781,3.10269505759
8820,Torhout,Berkenstraat,50,51.0710069344,3.07896137262
8820,Torhout,Noordlaan,7,51.0758908513,3.10736521838
8820,Torhout,Landstraat,34,51.0637340376,3.08562131298
8820,Torhout,Vredelaan,72,51.0611307695,3.09551645227
8820,Torhout,Oostendestraat,326,51.0738723928,3.07394125471
8820,Torhout,Hogestraat,19,51.0704540825,3.0895864651
8820,Torhout,Markiezenstraat,12,51.0717276667,3.08428011964
8820,Torhout,Biezenstraat,5,51.0876944375,3.09785714344
8820,Torhout,Sneppestraat,31,51.036484754,3.11234171059
8820,Torhout,Kortemarkstraat,155,51.0580272197,3.08751556425
8820,Torhout,Parkstraat,47,51.0537216634,3.12020059122
8820,Torhout,Ieperse Heerweg,6,51.0516745568,3.09646567201
8820,Torhout,Alberic Deleustraat,14A,51.092346727,3.06563728549
8820,Torhout,Weidestraat,9,51.0864104651,3.09392521766
8820,Torhout,Steenstraat,23,51.0902939349,3.06113958138
8820,Torhout,Moldaustraat,3,51.0694792201,3.11899687197
8820,Torhout,Ruddervoordestraat,115,51.0639050655,3.11715141602
8820,Torhout,Roeselaarseweg,35D,51.0478066975,3.1047137541
8820,Torhout,Hofstraat,22,51.0649946888,3.10315683683
8820,Torhout,Klaproosstraat,24,51.0846653794,3.13310276047
8820,Torhout,Marnestraat,14,51.0693524714,3.11641386894
8820,Torhout,Sparappelstraat,26,51.1004639052,3.07571469881
8820,Torhout,Molenstraat,14,51.0644815383,3.0919273372
8820,Torhout,Maria Van Bourgondiëlaan,37,51.0686114623,3.09815143888
8820,Torhout,Bollestraat,3,51.0585020323,3.1075006471
8820,Torhout,Berg op Zoomstraat,2,51.0814769819,3.1160279935
8820,Torhout,Aartrijkestraat,147,51.0797306583,3.09753780651
8820,Torhout,Oostendestraat,40,51.0654551947,3.09840319444
8820,Torhout,Spoorwegstraat,34,51.0899429906,3.06620473773
8820,Torhout,Groenhovestraat,16A,51.0717306871,3.12624181028
8820,Torhout,Breestraat,13,51.085638745,3.0652037702
8820,Torhout,Wijnendale-Stationsstraat,40,51.0842150909,3.06949269686
8820,Torhout,Wijnendalestraat,75,51.0972936992,3.07463185877
8820,Torhout,Bruggestraat,118,51.0778369284,3.11097384203
8820,Torhout,Vincent Van Goghlaan,1,51.069719204,3.11147438099
8820,Torhout,Sneppestraat,47,51.0368492255,3.11040468024
8820,Torhout,Ieperse Heerweg,44,51.0456621033,3.09182494481
8820,Torhout,Aartrijkestraat,212,51.0882002074,3.09920807027
8820,Torhout,Kruiskensstraat,8,51.0616884949,3.07497862573
8820,Torhout,Kortemarkstraat,28,51.0614652047,3.10067072207
8820,Torhout,Oostendestraat,286,51.0721390338,3.079878408
8820,Torhout,Keibergstraat,48,51.0728309779,3.11201466877
8820,Torhout,Waterhoekweg,40,51.0721426227,3.08515218004
8820,Torhout,Antoon Van Dycklaan,2,51.0700056384,3.11400688089
8820,Torhout,Makeveldstraat,69,51.0711342421,3.07859213407
8820,Torhout,Zwevezelestraat,42,51.0594930649,3.11159466827
8820,Torhout,Lindenstraat,15,51.0680480432,3.08380878605
8820,Torhout,Kortemarkstraat,173,51.0569056637,3.08445711983
8820,Torhout,Bollestraat,50,51.0540723712,3.11261091403
8820,Torhout,Revinzestraat,85,51.0663885,3.07998396642
8820,Torhout,Oostendestraat,29,51.0658533706,3.09901232947
8820,Torhout,Doornstraat,19,51.0692232807,3.07789440324
8820,Torhout,Beukenstraat,17,51.0681959642,3.08739672491
8820,Torhout,Papebrugstraat,4,51.0658319096,3.10322037771
8820,Torhout,Driekoningenstraat,25,51.0850930004,3.10752593042
8820,Torhout,Kortemarkstraat,210,51.0551203941,3.08257907387
8820,Torhout,Ambachtstraat,23,51.0787923424,3.11121276129
8820,Torhout,Oostendestraat,143,51.0681243865,3.09393030202
8820,Torhout,Sint-Henricusstraat,34,51.0218537873,3.09436926685
8820,Torhout,Brildam,9,51.0667236843,3.1077545199
8820,Torhout,Hillestraat,36,51.0796232311,3.07834266137
8820,Torhout,Langepijpestraat,11,51.0655486649,3.09639146001
8820,Torhout,Sterstraat,21,51.0248586002,3.09922832445
8820,Torhout,Wijnendale-Stationsstraat,29,51.08368344,3.06944651263
8820,Torhout,Koolskampstraat,33,51.0525242295,3.11559821232
8820,Torhout,Industrielaan,47,51.0758122692,3.09943882267
8820,Torhout,Zennestraat,13,51.0666423987,3.11229183655
8820,Torhout,Amandelenstraat,4,51.0682108833,3.077040233
8820,Torhout,Rijnstraat,9,51.069297216,3.11692503336
8820,Torhout,Revinzestraat,111,51.0662588208,3.07692459924
8820,Torhout,Hugo Verriestlaan,25,51.0692651148,3.10857799938
8820,Torhout,Revinzestraat,49,51.0672015059,3.08281782871
8820,Torhout,Koolskampstraat,51,51.0468464699,3.12315573816
8820,Torhout,Veldstraat,26,51.0682440483,3.07011598039
8820,Torhout,Ieperse Heerweg,62,51.0430523184,3.08706419087
8820,Torhout,Stationsstraat,15,51.0645520812,3.10462137997
8820,Torhout,Hogestraat,37,51.071470833,3.08885346778
8820,Torhout,Filips Van Kleefstraat,3,51.0755335116,3.09640497225
8820,Torhout,Eugeen Van Oyestraat,14,51.0631289313,3.10019407179
8820,Torhout,Eugeen Van Oyestraat,50,51.0621705929,3.09820071874
8820,Torhout,Roeselaarseweg,40,51.0368235393,3.10902737593
8820,Torhout,Hans Memlinclaan,16,51.0640686598,3.1104264122
8820,Torhout,Landstraat,16,51.0652150839,3.08625686287
8820,Torhout,Albrecht Rodenbachlaan,6,51.0673927826,3.10785149664
8820,Torhout,Ieperse Heerweg,80,51.0371929363,3.08120685062
8820,Torhout,Kortemarkstraat,191,51.0552945712,3.0816845953
8820,Torhout,Heidestraat,6,51.078149842,3.08816656568
8820,Torhout,Aartrijkestraat,230,51.0912053521,3.10036236091
8820,Torhout,Rijksweg,40,51.0270988158,3.09481521901
8820,Torhout,Hogestraat,83,51.07517906,3.08820247901
8820,Torhout,Roggestraat,9,51.0648145563,3.08859660322
8820,Torhout,Zandbergstraat,35,51.0843577777,3.1320943276
8820,Torhout,Nachtegaalstraat,24,51.060090931,3.12035170464
8820,Torhout,Zwaluwstraat,9,51.0587092974,3.11495403338
8820,Torhout,Ambachtstraat,41,51.0815370844,3.11128500434
8820,Torhout,Pottebezemstraat,3,51.0825566001,3.11746706351
8820,Torhout,Waterhoekweg,29,51.0733108458,3.08492406475
8820,Torhout,Kasteelstraat,7,51.062184513,3.10655983013
8820,Torhout,Camiel Meysmanstraat,13,51.0940501429,3.06624355954
8820,Torhout,Bollestraat,39,51.0558009292,3.10994879464
8820,Torhout,Guldensporenlaan,9,51.0920107257,3.0642593012
8820,Torhout,Ruitjesbosstraat,40,51.0799815119,3.13928467446
8820,Torhout,Spoorwegstraat,16,51.0907774579,3.06452838303
8820,Torhout,Zuidstraat,15,51.0637052771,3.10152157316
8820,Torhout,Leenstraat,7,51.05228605,3.10961495332
8820,Torhout,Vossebergstraat,1,51.0583181918,3.12660149757
8820,Torhout,Lichterveldestraat,21,51.0621884581,3.10379938469
8820,Torhout,Ruitjesbosstraat,22,51.0764970075,3.13645636334
8820,Torhout,Kerselarenstraat,2,51.0684633919,3.08278629748
8820,Torhout,Rubenslaan,7,51.0715549763,3.11302468969
8820,Torhout,Guldensporenlaan,37,51.0904114368,3.06715457913
8820,Torhout,Kortemarkstraat,92,51.0596163601,3.09542453949
8820,Torhout,Oude Gentweg,26,51.0819966802,3.10605322413
8820,Torhout,Rozenplein,10,51.0545209415,3.11569825341
8820,Torhout,Wijngaardstraat,12,51.0694887489,3.08092668596
8820,Torhout,Pieter de Coninckstraat,6,51.0631307582,3.0944118496
8820,Torhout,Hoedemakersstraat,2,51.0647189931,3.10092599397
8820,Torhout,Korenbloemstraat,92B,51.0831136037,3.14540929946
8820,Torhout,Schavelarestraat,17,51.0537644991,3.10658954978
8820,Torhout,Alberic Deleustraat,2,51.0929611033,3.06447278322
8820,Torhout,Rupelstraat,18,51.066276555,3.1120441194
8820,Torhout,Korenbloemstraat,41,51.0813180973,3.1317561919
8820,Torhout,Diederik van den Elzaslaan,2,51.0761950703,3.09576918938
8820,Torhout,Bruggestraat,164,51.0822900072,3.11555862854
8820,Torhout,Zonstraat,4,51.02666747,3.09588902114
8820,Torhout,Ruddervoordestraat,186,51.0624842313,3.13856080076
8820,Torhout,Leiestraat,2B,51.0634727895,3.11125209194
8820,Torhout,Boudewijn Hapkenstraat,11,51.0666860531,3.09665303947
8820,Torhout,Durmestraat,8,51.0654443167,3.11280182411
8820,Torhout,Rietstraat,4,51.0871782045,3.0933578717
8820,Torhout,Sparappelstraat,62,51.0995265929,3.07216789756
8820,Torhout,Driekoningenstraat,96,51.0857740934,3.11361069182
8820,Torhout,Karperstraat,16,51.0945180155,3.07214582847
8820,Torhout,Aartrijkestraat,247,51.0885433873,3.09996246216
8820,Torhout,Werkenstraat,11,51.0664513587,3.09514956521
8820,Torhout,Koningsdreef,4,51.0848126807,3.10891318116
8820,Torhout,Markt,26,51.0641056142,3.10204048314
8820,Torhout,Sterstraat,4,51.0242107009,3.09848935557
8820,Torhout,Oostendestraat,233,51.071373995,3.08410717466
8820,Torhout,Bruggestraat,30,51.0706100328,3.10530892164
8820,Torhout,Karel de Ghelderelaan,30,51.0623091918,3.09930777381
8820,Torhout,Aartrijkestraat,265,51.09030129,3.10075403545
8820,Torhout,Kortemarkstraat,127,51.0589797647,3.0902918812
8820,Torhout,Bruggestraat,182,51.0901391655,3.1148628661
8820,Torhout,Keurvorstenstraat,10,51.0730017708,3.08246665961
8820,Torhout,Roeselaarseweg,22,51.0494712968,3.10591796317
8820,Torhout,Rode Kruisstraat,10,51.0666319321,3.07997355389
8820,Torhout,Slingerstraat,10,51.0352748997,3.10619948716
8820,Torhout,Driekoningenstraat,78,51.0853891992,3.1103177632
8820,Torhout,Rijselstraat,164,51.0525837191,3.10487790867
8820,Torhout,Makeveldstraat,16,51.0663552751,3.07454643103
8820,Torhout,Schavelarestraat,35,51.0552897625,3.11387933094
8820,Torhout,Wijnendalestraat,19,51.0922643556,3.07007816022
8820,Torhout,Nieuwstraat,34,51.0647836315,3.09968923973
8820,Torhout,Alberic Deleustraat,40,51.0912653703,3.06722375492
8820,Torhout,Langepijpestraat,46,51.0647811626,3.09385271239
8820,Torhout,Rijselstraat,30,51.0618711458,3.10285694093
8820,Torhout,Putstraat,6,51.0650750074,3.10023250072
8820,Torhout,Elisabethlaan,1,51.0644943181,3.10483509764
8820,Torhout,Keibergstraat,72,51.0741856881,3.11377721924
8820,Torhout,Oostendestraat,93,51.0668513821,3.09577005032
8820,Torhout,Rozeveldstraat,46,51.0861869264,3.13195962239
8820,Torhout,August Vermeylenlaan,6,51.0638661175,3.10860065026
8820,Torhout,Karel de Goedelaan,4,51.0690875428,3.10211640209
8820,Torhout,Consciencestraat,55,51.090092256,3.07003110759
8820,Torhout,Hogestraat,9,51.0699770985,3.09020323228
8820,Torhout,Aardenhuttestraat,6,51.0851262105,3.095938705
8820,Torhout,Zwanestraat,12,51.0654220889,3.1006558367
8820,Torhout,Keibergstraat,54,51.0731312195,3.11231555407
8820,Torhout,Vinkenstraat,8,51.0587406012,3.11146137584
8820,Torhout,Industrielaan,13,51.0706845923,3.10459886201
8820,Torhout,Rijselstraat,12,51.0625548842,3.10309439891
8820,Torhout,Bosdreef,6,51.0698548075,3.1357136045
8820,Torhout,Zwevezelestraat,60,51.0585184858,3.11370847471
8820,Torhout,Nijlstraat,11,51.0651325836,3.11594094129
8820,Torhout,Breestraat,1,51.0799365143,3.06324546727
8820,Torhout,Gustaaf Van de Woestijnelaan,4,51.0715168512,3.11373334263
8820,Torhout,Werkenstraat,46,51.0658017246,3.09341970552
8820,Torhout,Moereveldstraat,3,51.0459224171,3.088953347
8820,Torhout,Nieuwstraat,16,51.0644810941,3.10044791307
8820,Torhout,Sint-Henricusstraat,52,51.0197184226,3.09483700404
8820,Torhout,Netestraat,3,51.0673331503,3.11196623923
8820,Torhout,Steenveldstraat,6,51.0855669665,3.09612740621
8820,Torhout,Makeveldstraat,34,51.0715466553,3.07914556104
8820,Torhout,Eugeen Van Oyestraat,85,51.0619401185,3.09659511777
8820,Torhout,Lijsterstraat,4,51.0589094699,3.11560133081
8820,Torhout,Wijnendale-Stationsstraat,58A,51.0851110363,3.07060944315
8820,Torhout,Parkstraat,31,51.0544478681,3.11895134968
8820,Torhout,Gwijde Van Dampierrestraat,26,51.0732961963,3.0968201283
8820,Torhout,Rijselstraat,65,51.0600532711,3.10188136164
8820,Torhout,Consciencestraat,20,51.0887306047,3.07202529718
8820,Torhout,Parkstraat,66,51.052580249,3.12415999484
8820,Torhout,Fraeysstraat,4,51.0660962389,3.1000601465
8820,Torhout,Bruggestraat,65,51.0732315248,3.10836245722
8820,Torhout,Parkstraat,13,51.0552116408,3.11720265912
8820,Torhout,Aartrijkestraat,41,51.0715967653,3.10062480645
8820,Torhout,Aartrijkestraat,129,51.0785674325,3.097839287
8820,Torhout,Oostendestraat,268,51.0705463702,3.08414986908
8820,Torhout,Ruddervoordestraat,36,51.0622111515,3.11027917711
8820,Torhout,Lindenstraat,33,51.0681234357,3.08221447472
8820,Torhout,Boeiaardstraat,24,51.0640336985,3.10472968678
8820,Torhout,Consciencestraat,73,51.0906013411,3.06894287984
8820,Torhout,Vredelaan,7,51.0675060578,3.09149824838
8820,Torhout,Wijnendalestraat,37,51.0941169337,3.07072071526
8820,Torhout,Steenstraat,76,51.0946275131,3.06491073119
8820,Torhout,Strepestraat,2,51.0456904446,3.06322501568
8820,Torhout,Karel de Ghelderelaan,12,51.0639923099,3.09715269793
8820,Torhout,Lichterveldestraat,74,51.0603723431,3.10531659805
8820,Torhout,Industrielaan,31,51.0760405766,3.1037768741
8820,Torhout,Sparappelstraat,44,51.1000936159,3.0742813835
8820,Torhout,Zwaluwstraat,19,51.0591928201,3.11672459932
8820,Torhout,Ebrostraat,12,51.0655223907,3.1179977654
8820,Torhout,Groenhovestraat,4,51.0670926198,3.11904104838
8820,Torhout,Zennestraat,1,51.0663491187,3.1112022116
8820,Torhout,Kreeftenstraat,2,51.0912635863,3.0756116793
8820,Torhout,Leliestraat,3,51.0534481109,3.11918443824
8820,Torhout,Oostendestraat,215,51.0704067716,3.08686102715
8820,Torhout,Geuzenbosstraat,1,51.0896350181,3.06360507249
8820,Torhout,Lichterveldestraat,53A,51.0598860625,3.10426019334
8820,Torhout,Ruddervoordestraat,89,51.0632684382,3.11487257852
8820,Torhout,Alberic Deleustraat,29,51.0912040508,3.06816866108
8820,Torhout,Snoekstraat,8,51.09307061,3.07131309314
8820,Torhout,Molenstraat,5,51.0649794376,3.0910828052
8820,Torhout,Marnestraat,5,51.068776251,3.1158177275
8820,Torhout,Schoolstraat,2A,51.0913991777,3.06111396917
8820,Torhout,Bollestraat,77,51.0540706784,3.11185338274
8820,Torhout,Gavervijver,29,51.0834434411,3.10247897446
8820,Torhout,Ruddervoordestraat,18,51.0617970991,3.10940705968
8820,Torhout,Pastoriestraat,31,51.0686500691,3.08532287558
8820,Torhout,Korenbloemstraat,15,51.0824174582,3.12894434463
8820,Torhout,Lichterveldestraat,84,51.0600852093,3.10582965456
8820,Torhout,Hans Memlinclaan,7,51.063807552,3.10946354223
8820,Torhout,Landstraat,7,51.0659174215,3.08546557769
8820,Torhout,Paleputstraat,13,51.0243649438,3.09526433174
8820,Torhout,Oostendestraat,261,51.0729707047,3.07944937439
8820,Torhout,Ernest Claeslaan,45,51.0695083568,3.11442602264
8820,Torhout,Rozeveldstraat,90,51.0875432443,3.13707869381
8820,Torhout,Ernest Claeslaan,63,51.0699705005,3.11615575561
8820,Torhout,Schavelarestraat,43,51.0555210641,3.11471403713
8820,Torhout,Edewallestraat,14,51.0612751898,3.07067510916
8820,Torhout,Roeselaarseweg,65,51.0364410634,3.10803283581
8820,Torhout,Karel de Goedelaan,23,51.0691085736,3.09814707563
8820,Torhout,Revinzestraat,25,51.0669691189,3.08797236437
8820,Torhout,Burg,14,51.0663834132,3.10100704031
8820,Torhout,Kwakkelstraat,8,51.0330614815,3.11643287095
8820,Torhout,Rozeveldstraat,72,51.0870675648,3.13516747123
8820,Torhout,Berg op Zoomstraat,12,51.0820095545,3.11765382259
8820,Torhout,Aartrijkestraat,68,51.0728806676,3.09876330479
8820,Torhout,Markiezenstraat,3,51.072087535,3.08440295261
8820,Torhout,Keibergstraat,46,51.072717223,3.1119106986
8820,Torhout,Ieperse Heerweg,34,51.0465151417,3.09284124428
8820,Torhout,James Ensorlaan,5,51.0704291771,3.1122773621
8820,Torhout,Lichterveldestraat,66,51.0606048484,3.1055699697
8820,Torhout,Onze Lieve Vrouwstraat,18,51.0639628206,3.09561990022
8820,Torhout,Lindenstraat,4,51.0675864171,3.08251646117
8820,Torhout,Hogestraat,22,51.0723445356,3.08789617636
8820,Torhout,Garonnestraat,4,51.0670988465,3.1166030091
8820,Torhout,Zwevezelestraat,32,51.0599661159,3.11073384519
8820,Torhout,Aartrijkestraat,86,51.0734925495,3.09902297237
8820,Torhout,Oude Gentweg,52,51.0825443197,3.11142649923
8820,Torhout,Waterhoekweg,30,51.0717291897,3.08609647666
8820,Torhout,Dijlestraat,6,51.0657168303,3.10951690162
8820,Torhout,Camiel Meysmanstraat,28,51.0934182865,3.06824572225
8820,Torhout,Karel de Stoutelaan,4,51.0741392541,3.09634955031
8820,Torhout,Bruggestraat,93,51.0750976745,3.11026200472
8820,Torhout,Consciencestraat,8,51.0878601353,3.07281526384
8820,Torhout,Korenbloemstraat,137,51.0828270703,3.15392218185
8820,Torhout,Maanstraat,6,51.0258060711,3.09666812233
8820,Torhout,Alberic Deleustraat,48,51.0908183744,3.06753312482
8820,Torhout,Veldstraat,6,51.0650726602,3.07328010332
8820,Torhout,Schoolstraat,4,51.0925487805,3.05902548872
8820,Torhout,Vijfhuishoekstraat,30,51.0343090724,3.06459538064
8820,Torhout,Olmenstraat,14,51.0700063702,3.08243868234
8820,Torhout,Vinkenstraat,10,51.0586855246,3.11129594628
8820,Torhout,Rozenstraat,21,51.0549078915,3.11387401788
8820,Torhout,Rijselstraat,93,51.0585685352,3.10249216897
8820,Torhout,Steenstraat,120,51.0969793933,3.06732489506
8820,Torhout,Oostendestraat,243,51.0718731214,3.08250638467
8820,Torhout,Oostendestraat,30,51.0654714357,3.09898445248
8820,Torhout,Parkstraat,74,51.0516901875,3.12670516019
8820,Torhout,Paleputstraat,31,51.0239686007,3.09813184275
8820,Torhout,Smissestraat,21,51.0855482077,3.06802070662
8820,Torhout,Kortemarkstraat,31,51.0618254643,3.09871855164
8820,Torhout,Oostendestraat,12,51.0655471161,3.09993477748
8820,Torhout,Koddaardstraat,3,51.0524182543,3.11467875259
8820,Torhout,Vredelaan,11,51.0667002539,3.09167989879
8820,Torhout,Heidestraat,34,51.0784529542,3.08456691081
8820,Torhout,Bassinstraat,1,51.0627722149,3.10458926581
8820,Torhout,Keibergstraat,9,51.0707520138,3.11077654562
8820,Torhout,Oostendestraat,368,51.0754363654,3.06741069365
8820,Torhout,Groenhovestraat,23,51.0698430141,3.1234030085
8820,Torhout,Ruddervoordestraat,171,51.0652611974,3.12132126758
8820,Torhout,Revinzestraat,60,51.0666157214,3.08318235236
8820,Torhout,Vijfhuishoekstraat,12,51.0514422258,3.07917554745
8820,Torhout,Oostendestraat,107,51.0672101445,3.09532539345
8820,Torhout,Guldenvlieslaan,3,51.0915593283,3.06537355909
8820,Torhout,Poperbosstraat,15,51.0652082101,3.10814989917
8820,Torhout,Leliestraat,24,51.0530027532,3.12086620413
8820,Torhout,Warandestraat,18,51.0788873596,3.0939797492
8820,Torhout,Wijnendale-Stationsstraat,65,51.0848505747,3.07374834502
8820,Torhout,Ruddervoordestraat,153,51.0645220887,3.1196715296
8820,Torhout,Breidelstraat,13,51.0652281223,3.10246638766
8820,Torhout,Rijselstraat,3,51.0629338027,3.102782834
8820,Torhout,Hooistraat,9,51.0871395112,3.09872011871
8820,Torhout,Kortemarkstraat,117,51.0592837642,3.09119103641
8820,Torhout,Oostendestraat,125,51.0677308227,3.09508079073
8820,Torhout,Aartrijkestraat,255,51.0891856762,3.10016616332
8820,Torhout,Oostendestraat,65,51.0662719413,3.09695093961
8820,Torhout,Klaverstraat,3,51.0860604709,3.09479819525
8820,Torhout,Molenstraat,42,51.0640627343,3.09022324774
8820,Torhout,Denderstraat,8,51.0650905681,3.11144533059
8820,Torhout,Hillestraat,9,51.0729616398,3.08140905981
8820,Torhout,Aartrijkestraat,209,51.0854969415,3.09908943816
8820,Torhout,Kortemarkstraat,84,51.0598261151,3.09570872131
8820,Torhout,Sint-Henricusstraat,7,51.0271438543,3.09365995879
8820,Torhout,Maria Van Bourgondiëlaan,22,51.0679719299,3.09816266471
8820,Torhout,Kersouwkensstraat,2,51.0679952325,3.13118626574
8820,Torhout,Sneppestraat,28,51.0360030028,3.11144349676
8820,Torhout,Driekoningenstraat,53,51.084805796,3.11193339077
8820,Torhout,Ernest Claeslaan,81,51.0705659998,3.11850966468
8820,Torhout,Breestraat,28,51.087868455,3.065329927
8820,Torhout,Zonstraat,23,51.0250138956,3.09535845422
8820,Torhout,Hofstraat,2,51.0647169913,3.10230386795
8820,Torhout,Zomerstraat,13,51.0677983774,3.08829511401
8820,Torhout,Waterhoekweg,65,51.0743916535,3.08277109402
8820,Torhout,Bollestraat,95,51.0530287192,3.11273961788
8820,Torhout,Aartrijkestraat,227,51.0866749867,3.10001455911
8820,Torhout,Ieperse Heerweg,16,51.0508261346,3.09554891331
8820,Torhout,Steenstraat,102,51.0962807245,3.06574927157
8820,Torhout,Gavervijver,3,51.0826286203,3.10270941227
8820,Torhout,Poperbosstraat,33,51.0656863091,3.10908355216
8820,Torhout,Waterhoekweg,12,51.0713391289,3.08684276712
8820,Torhout,Koningsdreef,23,51.0827079529,3.10898455308
8820,Torhout,Rozeveldstraat,54,51.0865077514,3.13325194233
8820,Torhout,Voshoekstraat,1,51.0586784326,3.07624644794
8820,Torhout,Wijnendale-Stationsstraat,12,51.0835757173,3.06699076138
8820,Torhout,Aartrijkestraat,273,51.0909560281,3.10122123049
8820,Torhout,Rubenslaan,11,51.0711891431,3.11308159467
8820,Torhout,Kortemarkstraat,135,51.0587793036,3.08969719335
8820,Torhout,Korenbloemstraat,119,51.0823505328,3.14499392884
8820,Torhout,Olmenstraat,49,51.0711579823,3.07994081431
8820,Torhout,Aartrijkestraat,102,51.0741599514,3.09891167835
8820,Torhout,Tuinstraat,9,51.0607118713,3.10706790063
8820,Torhout,Rembrandtlaan,5,51.0705335409,3.11167738946
8820,Torhout,Aartrijkestraat,15,51.0707858888,3.10083741727
8820,Torhout,Karperstraat,7,51.0938375065,3.07110365716
8820,Torhout,Ruddervoordestraat,48,51.063144638,3.11124278822
8820,Torhout,Ruddervoordestraat,82,51.0639190338,3.1147604162
8820,Torhout,Stationsstraat,4,51.0648602431,3.10433426843
8820,Torhout,Eugeen Van Oyestraat,59,51.0628999521,3.09858282415
8820,Torhout,Wijnendalestraat,108,51.0995741586,3.07693010635
8820,Torhout,Leiestraat,14,51.0644039562,3.1103470601
8820,Torhout,Beckhofstraat,72,51.0575846273,3.10094331088
8820,Torhout,Koolskampstraat,4,51.0547885004,3.1135193214
8820,Torhout,Wijngaardstraat,3,51.0696141301,3.08211770527
8820,Torhout,Oostendestraat,196,51.0689547266,3.08997075332
8820,Torhout,Sint-Rembertlaan,5,51.0709004362,3.09925111673
8820,Torhout,Tuinstraat,18,51.0599529694,3.10734157758
8820,Torhout,Hogestraat,75,51.0744856669,3.08815480897
8820,Torhout,Vesderstraat,4,51.0664113267,3.1151186907
8820,Torhout,Bollestraat,111,51.0518009158,3.11384446392
8820,Torhout,Komeetstraat,5,51.025509046,3.09740237014
8820,Torhout,Aartrijkestraat,120,51.075184791,3.09825681144
8820,Torhout,Roeselaarseweg,19,51.0495486181,3.10476115026
8820,Torhout,Wijnendalestraat,22,51.0933970136,3.06964397669
8820,Torhout,Nieuwstraat,44,51.0650501847,3.0994464534
8820,Torhout,Alberic Deleustraat,30,51.0915096755,3.06671430453
8820,Torhout,Wollesteeg,5,51.0640120799,3.10087466012
8820,Torhout,Berkenstraat,5,51.0672897997,3.08170646099
8820,Torhout,Revinzestraat,42,51.0664719812,3.0869403973
8820,Torhout,Brildam,22,51.0672681982,3.10864374889
8820,Torhout,Molenstraat,60,51.0636514435,3.08867520949
8820,Torhout,Rijksweg,19,51.0267399583,3.09864829973
8820,Torhout,Lindenstraat,41,51.0681612499,3.08166765787
8820,Torhout,Steenstraat,51,51.092393727,3.06383832427
8820,Torhout,Elzenstraat,4,51.0256089789,3.07724280161
8820,Torhout,Gitsstraat,14,51.0605886649,3.10000297782
8820,Torhout,Rijselstraat,40,51.0617019484,3.10247175152
8820,Torhout,Parkstraat,28,51.0549052553,3.11921943787
8820,Torhout,Oostendestraat,178,51.068182275,3.09235075417
8820,Torhout,Driekoningenstraat,104,51.0849142451,3.11366673055
8820,Torhout,Doornstraat,29,51.068859538,3.07790286588
8820,Torhout,Korenbloemstraat,86,51.0826849507,3.14369376885
8820,Torhout,Mezenstraat,14,51.0587876651,3.11680391041
8820,Torhout,Steenveldstraat,16,51.0805128977,3.08457688566
8820,Torhout,Berkenstraat,24,51.0690395562,3.07952456342
8820,Torhout,Hogestraat,57,51.0733375539,3.0885629603
8820,Torhout,Gwijde Van Dampierrestraat,6,51.0735622975,3.09828701664
8820,Torhout,Ruddervoordestraat,64,51.0632864984,3.11297970673
8820,Torhout,Kleistraat,2,51.0866425582,3.09722025006
8820,Torhout,Bruggestraat,40,51.0709889718,3.1057623072
8820,Torhout,Kortemarkstraat,100,51.0594861405,3.09512949408
8820,Torhout,Aartrijkestraat,33,51.0712305972,3.10066683463
8820,Torhout,Guido Gezellelaan,4,51.0651747309,3.10705404307
8820,Torhout,Rozenstraat,1,51.0554980159,3.11601288664
8820,Torhout,August Vermeylenlaan,16,51.0631674661,3.10951557363
8820,Torhout,Burg,49,51.0670689444,3.1019129152
8820,Torhout,Bruggestraat,3,51.0671091844,3.10253720579
8820,Torhout,Markt,6,51.0646543184,3.10114846485
8820,Torhout,Mandelstraat,15,51.0644788348,3.11264753146
8820,Torhout,Ebrostraat,3,51.0650127671,3.11767010168
8820,Torhout,Doornstraat,3,51.069938234,3.07798098986
8820,Torhout,Bruggestraat,126,51.0783259516,3.11188065112
8820,Torhout,Beckhofstraat,11,51.0574719599,3.1020536398
8820,Torhout,Rijksweg,2,51.0255651739,3.09985624115
8820,Torhout,Keibergstraat,186,51.0822346191,3.12482248381
8820,Torhout,Pieter de Coninckstraat,16,51.0639467695,3.09393493319
8820,Torhout,Leopoldstraat,5,51.0667359631,3.0948226411
8820,Torhout,Pottebezemstraat,24,51.0824920616,3.1190027027
8820,Torhout,Rijksweg,37,51.0274986235,3.09650454741
8820,Torhout,Bruggestraat,179,51.0816877952,3.11596825591
8820,Torhout,Roeselaarseweg,2,51.0517609965,3.10525285609
8820,Torhout,Gangesstraat,4,51.0650204506,3.11483078255
8820,Torhout,Roeselaarseweg,37,51.0473570505,3.10496949172
8820,Torhout,Kasteelstraat,11,51.0620693094,3.10665695433
8820,Torhout,Kwaplasstraat,63,51.0600261845,3.12605073098
8820,Torhout,Oude Gentweg,70,51.0828148182,3.11400822086
8820,Torhout,Oude Wijnendalestraat,26,51.0827463146,3.07665707919
8820,Torhout,Keibergstraat,18,51.0710295649,3.11028178294
8820,Torhout,Gerstestraat,1,51.0660770042,3.088567069
8820,Torhout,Haverstraat,7,51.0653136004,3.08714818431
8820,Torhout,Onze Lieve Vrouwstraat,9,51.0644735756,3.09570502482
8820,Torhout,Ruitjesbosstraat,2,51.0733510684,3.13245124278
8820,Torhout,Klaproosstraat,4,51.084958723,3.13193599302
8820,Torhout,Breugellaan,2,51.0693436802,3.11275611764
8820,Torhout,Boeiaardstraat,50,51.0633290411,3.10504789697
8820,Torhout,Moertjes,11,51.0596531654,3.11327190179
8820,Torhout,Oude Gentweg,6,51.0807444037,3.09891596167
8820,Torhout,Hillestraat,18,51.0740329354,3.08068647263
8820,Torhout,Zwaluwstraat,22,51.0593595111,3.11583736768
8820,Torhout,Wijnendale-Molenstraat,9,51.0825097959,3.06923703209
8820,Torhout,Rijselstraat,29,51.0619013616,3.10156912346
8820,Torhout,Maria Van Bourgondiëlaan,3,51.0679347661,3.09899396148
8820,Torhout,Sint-Henricusstraat,79,51.0188586685,3.0943295746
8820,Torhout,Nieuwstraat,62,51.0651404547,3.09924682572
8820,Torhout,Kwaplasstraat,20,51.0571246456,3.11840357556
8820,Torhout,Rijselstraat,201,51.0520958284,3.10431724931
8820,Torhout,Bollestraat,59,51.0548413386,3.11127352372
8820,Torhout,Olmenstraat,32,51.070536861,3.08032050463
8820,Torhout,Beckhofstraat,54,51.0570194805,3.10082437967
8820,Torhout,Sint-Henricusstraat,26,51.0241992898,3.09463604403
8820,Torhout,Zwevezelestraat,67,51.0561039597,3.11553962524
8820,Torhout,Keibergstraat,115,51.0821709742,3.1262984156
8820,Torhout,Alberic Deleustraat,12,51.0921899307,3.06525420055
8820,Torhout,Vijfhuishoekstraat,2,51.0522815724,3.07986704838
8820,Torhout,Kerselarenstraat,12,51.0686327816,3.08177412102
8820,Torhout,Bruggestraat,29,51.0708941475,3.10644437707
8820,Torhout,Ruddervoordestraat,9,51.0611978765,3.10911017363
8820,Torhout,Karel de Ghelderelaan,29,51.0623389772,3.09828388956
8820,Torhout,Zwevezelestraat,14,51.0604430757,3.10963351182
8820,Torhout,Rijselstraat,126,51.0568233131,3.10402936925
8820,Torhout,Gitsstraat,49,51.0590918583,3.0993995832
8820,Torhout,Rijselstraat,179,51.0535701778,3.10399414573
8820,Torhout,Oostendestraat,2,51.0655884272,3.10052391842
8820,Torhout,Noordlaan,11,51.0751308743,3.10497708789
8820,Torhout,Processieweg,13,51.0998926964,3.0697591181
8820,Torhout,Lichterveldestraat,38,51.0614179732,3.10497907766
8820,Torhout,Keibergstraat,168,51.0814898819,3.12363010874
8820,Torhout,Makeveldstraat,7,51.0650221405,3.07414812535
8820,Torhout,Berg op Zoomstraat,19,51.0815075615,3.11800279465
8820,Torhout,Postiljonstraat,14,51.0732706444,3.07276819064
8820,Torhout,Oostendestraat,278,51.0712779637,3.08239060475
8820,Torhout,Breestraat,21,51.0863514191,3.06545769434
8820,Torhout,Aartrijkestraat,51,51.0720655315,3.10045927478
8820,Torhout,Sneppestraat,21,51.0367558617,3.1135779669
8820,Torhout,Onze Lieve Vrouwstraat,11,51.0644187249,3.09561249374
8820,Torhout,Strepestraat,9,51.0491025066,3.06130721781
8820,Torhout,Ourthestraat,5,51.0668843226,3.1144277123
8820,Torhout,Moertjes,8,51.0602262569,3.11170808183
8820,Torhout,Gitsstraat,3,51.061217503,3.09939073522
8820,Torhout,Paleputstraat,1A,51.0254129736,3.08451845352
8820,Torhout,Kanariestraat,5,51.0589402431,3.11705076483
8820,Torhout,Maria Van Bourgondiëlaan,40,51.0686964031,3.0971408994
8820,Torhout,Beckhofstraat,8,51.0564768835,3.10205017872
8820,Torhout,Violierstraat,8,51.0537795799,3.11678691083
8820,Torhout,Eugeen Van Oyestraat,24,51.0629930546,3.09990684884
8820,Torhout,Burg,39,51.0667650846,3.10180499626
8820,Torhout,Oostendestraat,37,51.0657708543,3.09842944106
8820,Torhout,Steenstraat,33,51.0908894925,3.06180888139
8820,Torhout,Hogestraat,29,51.0709774281,3.0889591423
