PKANCODE,COMMUNE_NL,STREET_NL,HUISNR,LAT,LON
8870,Izegem,Hondekensmolenstraat,65,50.9081847642,3.22809409338
8870,Izegem,Vlasgaardstraat,37,50.9102301548,3.21518064159
8870,Izegem,Klijtstraat,27,50.911861162,3.20062485973
8870,Izegem,Kapucijnenlaan,61,50.9201015522,3.19598646536
8870,Izegem,Werkhuizenstraat,6,50.9150189354,3.21219264341
8870,Izegem,Blekerijstraat,29,50.9072276589,3.20366743866
8870,Izegem,Manegemstraat,39,50.9067741112,3.20831188812
8870,Izegem,Prinsessestraat,152,50.9233405965,3.22108477955
8870,Izegem,Meensestraat,75,50.9140259961,3.21345023559
8870,Izegem,Heyestraat,21,50.9118515582,3.20809357327
8870,Izegem,Brugstraat,42,50.9221305735,3.21693908175
8870,Izegem,Mentenhoekstraat,17,50.9197125141,3.19865421189
8870,Izegem,Ardooisestraat,135,50.9372995057,3.20558874455
8870,Izegem,Krekelstraat,29,50.9160538111,3.213279036
8870,Izegem,Veldstraat,36,50.9400794704,3.20619389803
8870,Izegem,Oude Iepersestraat,115,50.9006174405,3.18426835172
8870,Izegem,Gentseheerweg,56,50.916468397,3.22684998565
8870,Izegem,Molstraat,83,50.9121225359,3.18495929112
8870,Izegem,Vlasbloemstraat,12,50.907697201,3.21829037152
8870,Izegem,Slagmeersenstraat,26,50.9123657428,3.21803252398
8870,Izegem,Krommestraat,30,50.9391604698,3.2022266864
8870,Izegem,Kachtemsestraat,148,50.9320429621,3.19588391462
8870,Izegem,Schardouwstraat,27,50.9225288625,3.18315219803
8870,Izegem,Roeselaarsestraat,551,50.9301903514,3.17379433486
8870,Izegem,Lendeleedsestraat,5,50.9159279903,3.22407818097
8870,Izegem,Kortrijksestraat,37,50.9153413743,3.21657184899
8870,Izegem,Vuurkruiserslaan,49,50.9204361145,3.19343325519
8870,Izegem,Pater Ver Eeckestraat,79,50.9422133121,3.1934222631
8870,Izegem,Vlasbloemstraat,30,50.9075752921,3.21920909016
8870,Izegem,Veldstraat,18,50.9405625214,3.21609261939
8870,Izegem,Oekensestraat,24,50.9241416458,3.18614031267
8870,Izegem,Prinsessestraat,170,50.9235137941,3.22016877019
8870,Izegem,Bellevuestraat,131,50.9149066669,3.20357605926
8870,Izegem,Kortrijksestraat,297,50.9075936303,3.22044089928
8870,Izegem,Kortrijksestraat,154,50.9106631121,3.21722243735
8870,Izegem,Nederweg,137,50.9229794971,3.2021130544
8870,Izegem,Oude Iepersestraat,133,50.9015732045,3.18218182689
8870,Izegem,Leenstraat,100,50.9034029569,3.19272410437
8870,Izegem,Kapucijnenlaan,43,50.9207195695,3.19602394159
8870,Izegem,Nachtegaalstraat,6,50.9273475201,3.23390081094
8870,Izegem,Molenweg,48,50.9206226015,3.206790391
8870,Izegem,Ten Broelestraat,1,50.9122210929,3.22080913523
8870,Izegem,Meensesteenweg,68,50.9086395719,3.20506975504
8870,Izegem,Molenhoekstraat,46,50.9084287243,3.21756232148
8870,Izegem,Zaligmakersstraat,9,50.9146501709,3.2256931829
8870,Izegem,Rozemondlaan,3,50.9065771455,3.22419756206
8870,Izegem,Baronstraat,110,50.9265925936,3.22155409769
8870,Izegem,Molstraat,65,50.9131835067,3.18553097829
8870,Izegem,Korenmarkt,5,50.9204800574,3.21415679648
8870,Izegem,Graaf de Montblanclaan,34,50.9248797456,3.23231765066
8870,Izegem,Lendeleedsestraat,29,50.9157159441,3.22508855335
8870,Izegem,Tulpenlaan,51,50.9084315468,3.2158054062
8870,Izegem,Nederweg,119,50.9220314868,3.20325787664
8870,Izegem,Ardooisestraat,117,50.9358886433,3.20663403936
8870,Izegem,Haaipanderstraat,52,50.9289391157,3.23208979438
8870,Izegem,Mentenhoekstraat,35,50.9192108439,3.19730912324
8870,Izegem,Stuivenbergstraat,74,50.9237959128,3.19779998077
8870,Izegem,Dam,29,50.9240431687,3.21690937629
8870,Izegem,Bellevuestraat,95,50.9158376123,3.20404618054
8870,Izegem,Slagmeersenstraat,2,50.911921643,3.21679652746
8870,Izegem,Meensesteenweg,229,50.8961248467,3.1897525949
8870,Izegem,Krekelmotestraat,22,50.920567807,3.20009421623
8870,Izegem,Grote Markt,5,50.9194546372,3.21631205462
8870,Izegem,Slabbaardstraat-Noord,18,50.9137378939,3.21350012897
8870,Izegem,Leenstraat,82,50.9055279405,3.19326226632
8870,Izegem,Wallemotestraat,57,50.9123314751,3.19626695428
8870,Izegem,Azalealaan,26,50.9081787346,3.21676774055
8870,Izegem,Molstraat,101,50.910934677,3.18445610191
8870,Izegem,Vlasgaardstraat,19,50.9106211217,3.21519620916
8870,Izegem,Baronstraat,74,50.9252540649,3.22627600491
8870,Izegem,Lindestraat,11,50.9225956984,3.19454756485
8870,Izegem,Noordkaai,31,50.9314786049,3.18473312082
8870,Izegem,Meensesteenweg,86,50.9072809986,3.20072710525
8870,Izegem,Pieter De Coninckstraat,7,50.9011682294,3.19686675143
8870,Izegem,Ingelmunstersestraat,20,50.9236172682,3.23257280713
8870,Izegem,Mezegemstraat,27,50.9430394837,3.17835858075
8870,Izegem,Blauwhuisstraat,22,50.9149104072,3.22416541622
8870,Izegem,Mezegemstraat,3,50.9400608664,3.18188902531
8870,Izegem,Kortrijksestraat,19,50.9152141669,3.21570175294
8870,Izegem,Pieter Baesstraat,11,50.9137925148,3.20980720565
8870,Izegem,Zevekotestraat,20,50.9153406387,3.22764566735
8870,Izegem,Hogestraat,46,50.9357238672,3.18888976962
8870,Izegem,Lendeleedsestraat,146,50.9101922119,3.23175610569
8870,Izegem,Hildersstraat,4,50.9317326038,3.19777686681
8870,Izegem,Roeselaarsestraat,304,50.9218598597,3.20019747
8870,Izegem,Baron de Pélichystraat,21,50.9168808644,3.21276958205
8870,Izegem,Sint-Crispijnstraat,50,50.9178766467,3.20722599018
8870,Izegem,Burgemeester Vandenbogaerdelaan,22,50.9152901857,3.2113443166
8870,Izegem,Kokelarestraat,71,50.9083717233,3.19616885682
8870,Izegem,Vijfwegenstraat,64,50.9274304642,3.21519361787
8870,Izegem,Stuivenbergstraat,4,50.9233193904,3.20049840428
8870,Izegem,Eigenhaardstraat,21,50.9107371986,3.21588432842
8870,Izegem,Roeselaarsestraat,142,50.9200739436,3.20696597049
8870,Izegem,Bellevuestraat,77,50.9163985227,3.20429082828
8870,Izegem,Hondstraat,3,50.9199859978,3.21261662117
8870,Izegem,Jan Breydelstraat,64,50.8989050703,3.19578756014
8870,Izegem,Anjelierenlaan,28,50.9086810024,3.21376101697
8870,Izegem,Koningin Elisabethlaan,12,50.9254525592,3.23617791716
8870,Izegem,Leenstraat,18,50.9127258434,3.19574913186
8870,Izegem,Camiel Ameyestraat,48,50.9213097817,3.20620372927
8870,Izegem,Prinsessestraat,17,50.9223844867,3.22725373628
8870,Izegem,Prinsessestraat,47,50.9223973081,3.2254926455
8870,Izegem,Hottonstraat,10,50.9211904309,3.19151267183
8870,Izegem,Jan Breydelstraat,18,50.899923183,3.19676331489
8870,Izegem,Smallestraat,9,50.952830859,3.17851156614
8870,Izegem,Prins Albertlaan,84,50.9274688016,3.18858851545
8870,Izegem,Baronstraat,4,50.9238569484,3.23025896483
8870,Izegem,Sint-Sebastiaanslaan,38,50.9212221236,3.19253199866
8870,Izegem,Roeselaarsestraat,357,50.9234627216,3.19262181244
8870,Izegem,Beukendreef,9,50.9190944378,3.20320689057
8870,Izegem,Odiel Spruyttestraat,30,50.909999141,3.20405672318
8870,Izegem,Molenweg,36,50.9207736027,3.20717765808
8870,Izegem,Monseigneur Bouckaertstraat,7,50.911616164,3.22753237477
8870,Izegem,Burgemeester Vandenbogaerdelaan,57,50.9117614987,3.21005470703
8870,Izegem,Negenhoekstraat,68,50.9045717303,3.19930919821
8870,Izegem,Burgemeester Vandenbogaerdelaan,75,50.9110616008,3.20938099799
8870,Izegem,Karel de Goedelaan,45,50.9012659215,3.19553013398
8870,Izegem,Katteboomstraat,48,50.9020921949,3.23072388121
8870,Izegem,Sint-Jansstraat,22,50.9328712231,3.19602555347
8870,Izegem,Stationsstraat,11,50.9206705506,3.21358815346
8870,Izegem,Willem Elsschotstraat,17,50.9300946371,3.22555259921
8870,Izegem,Krommestraat,12,50.9392402122,3.20375888581
8870,Izegem,Ardooisestraat,11,50.9288637079,3.2135362214
8870,Izegem,Roeselaarsestraat,114,50.9196881094,3.2083891557
8870,Izegem,Kortrijksestraat,172,50.9102383082,3.21763471699
8870,Izegem,Dweersstraat,3,50.915002066,3.21385060019
8870,Izegem,Priester Pattynstraat,15,50.9395785901,3.18279481784
8870,Izegem,Kachtemsestraat,166,50.9318988906,3.19474452543
8870,Izegem,Roeselaarsestraat,322,50.9219854183,3.19968740643
8870,Izegem,Blekerijstraat,201,50.9011019917,3.20226211537
8870,Izegem,Ter Beemden,43,50.9068487086,3.19575171755
8870,Izegem,Manestraat,22,50.9427567422,3.18900141969
8870,Izegem,Beatrijslaan,23,50.9074599915,3.22120049684
8870,Izegem,Neerhofstraat,38,50.9106735762,3.22398895103
8870,Izegem,Bellevuestraat,7,50.9193809383,3.20640893077
8870,Izegem,Heer Halewijnlaan,7,50.9071308655,3.22273099895
8870,Izegem,President Kennedylaan,19,50.9292055568,3.21107225561
8870,Izegem,Krekelstraat,5,50.9161872948,3.21427371477
8870,Izegem,Anjelierenlaan,4,50.9078833457,3.21357558507
8870,Izegem,Gentseheerweg,110,50.9164972928,3.2377873694
8870,Izegem,Henri Dunantstraat,49,50.9114503344,3.22855559442
8870,Izegem,Ommegangstraat,114,50.9153089982,3.20858396637
8870,Izegem,Kachtemsestraat,113,50.9320127184,3.19880360777
8870,Izegem,Nieuwstraat,20,50.9190426063,3.21403127795
8870,Izegem,Graaf de Montblanclaan,16,50.9246204222,3.23314127119
8870,Izegem,Hondstraat,27,50.9202311904,3.2115958937
8870,Izegem,Bellevuestraat,59,50.9172159516,3.20470107142
8870,Izegem,Tinnenpotstraat,10,50.9341353599,3.21131134961
8870,Izegem,Kardinaal Cardijnlaan,39,50.9155626933,3.20045129726
8870,Izegem,Mandelstraat,68,50.9241620392,3.20158197311
8870,Izegem,Prinsessestraat,88,50.9227475763,3.22496622039
8870,Izegem,Zuidkaai,19,50.9228491357,3.21298764083
8870,Izegem,Roeselaarsestraat,160,50.9201772843,3.2064426985
8870,Izegem,Hazelaarstraat,9,50.9143686744,3.19312247291
8870,Izegem,Meensestraat,111,50.9133604844,3.21252288642
8870,Izegem,Sint-Crispijnstraat,39,50.9182580885,3.20781518978
8870,Izegem,Abelestraat,11,50.9233651925,3.18951894425
8870,Izegem,Jacob van Arteveldestraat,7,50.8985281086,3.19678845018
8870,Izegem,Reperstraat,114,50.9346883527,3.22489680737
8870,Izegem,Baronstraat,92,50.9260203939,3.22411250932
8870,Izegem,Roeselaarsestraat,375,50.9240203677,3.19022225033
8870,Izegem,Kokelarestraat,53,50.9079591868,3.19821028798
8870,Izegem,Marelputstraat,10,50.9221589175,3.18378639833
8870,Izegem,Prinsessestraat,35,50.9223931512,3.22621162365
8870,Izegem,Ambachtenstraat,5,50.9182639259,3.18567305863
8870,Izegem,Esdoornstraat,22,50.9130974174,3.18871784721
8870,Izegem,Robert Schumanstraat,10,50.9158072435,3.19849153682
8870,Izegem,Ter Wallenstraat,19,50.9131714777,3.21655667854
8870,Izegem,Merelstraat,71,50.9289356183,3.21980951013
8870,Izegem,Potaardestraat,6,50.9283526534,3.17509924591
8870,Izegem,Wolvenhofstraat,1,50.9061585036,3.19184931722
8870,Izegem,Wallemotestraat,22,50.9133820259,3.19860458716
8870,Izegem,Baronstraat,145,50.9269206287,3.21872705293
8870,Izegem,Roeselaarsestraat,393,50.9247951628,3.18834960116
8870,Izegem,Krekelstraat,75,50.9157153033,3.21078359252
8870,Izegem,Ter Beursplein,13,50.9016587584,3.19291748243
8870,Izegem,Beatrijslaan,6,50.9056160257,3.22208161336
8870,Izegem,Ommegangstraat,8,50.9186319699,3.2096702754
8870,Izegem,Prinsdomlaan,52,50.9100907161,3.2285834808
8870,Izegem,Kachtemsestraat,95,50.9314288811,3.20111847871
8870,Izegem,Kortrijksestraat,101,50.9138415197,3.21596854161
8870,Izegem,Slabbaardstraat-Zuid,48,50.9039035561,3.20897741372
8870,Izegem,Slabbaardstraat-Noord,46,50.9130166357,3.21314797924
8870,Izegem,Dweersstraat,20,50.9154334989,3.21312633812
8870,Izegem,Hugo Verrieststraat,38,50.925109075,3.21915990168
8870,Izegem,Prinsessestraat,106,50.9227271583,3.22412479766
8870,Izegem,Gentsestraat,28,50.9171672571,3.21617959904
8870,Izegem,Jasmijnenstraat,10,50.9088803001,3.2185891605
8870,Izegem,Rozenlaan,63,50.9067635208,3.21626055457
8870,Izegem,Boterstraat,13,50.901882572,3.1949353579
8870,Izegem,Roeselaarsestraat,8,50.9179537968,3.21409730544
8870,Izegem,Hondekensmolenstraat,12,50.9080116566,3.22159768032
8870,Izegem,Nederweg,41,50.9209285673,3.20919584164
8870,Izegem,Blekerijstraat,75,50.9061265022,3.20328623801
8870,Izegem,Lodewijk de Raetlaan,1,50.9244674779,3.21581434335
8870,Izegem,Heilig Hartstraat,27,50.9174203957,3.20484647749
8870,Izegem,Hondekensmolenstraat,30,50.9072360545,3.22310908418
8870,Izegem,Kasteelstraat,28,50.9188257176,3.21767482111
8870,Izegem,Meensestraat,22,50.914906758,3.21402346199
8870,Izegem,Krekelstraat,218,50.9141678617,3.20321638175
8870,Izegem,Roeselaarsestraat,267,50.9215117078,3.20030171759
8870,Izegem,Kapucijnenlaan,15,50.9216836563,3.19587497854
8870,Izegem,Schoolstraat,63,50.9115376664,3.21446991717
8870,Izegem,Ter Beemden,78,50.905589807,3.19727813205
8870,Izegem,Slabbaardstraat-Zuid,54,50.9033127374,3.20899001002
8870,Izegem,Reperstraat,8,50.9252304989,3.21746602643
8870,Izegem,Sint-Jorisstraat,5,50.9146403969,3.20897735623
8870,Izegem,Baronielaan,38,50.911065045,3.22104230791
8870,Izegem,Ter Elststraat,12,50.9106259001,3.21939963625
8870,Izegem,Sint-Jorisstraat,29,50.91364769,3.20833247324
8870,Izegem,Mariastraat,26,50.9309518034,3.21042869132
8870,Izegem,Hogestraat,82,50.940537642,3.19020267395
8870,Izegem,Lendeleedsestraat,182,50.9095309562,3.23355885626
8870,Izegem,Ingelmunstersestraat,55,50.9238228631,3.23359482912
8870,Izegem,Boterstraat,31,50.9007756847,3.19433488808
8870,Izegem,Maria van Bourgondiëstraat,8,50.8998337061,3.19722987998
8870,Izegem,Lendeleedsestraat,57,50.9151980328,3.22632053768
8870,Izegem,Brielstraat,7,50.932845051,3.17558213437
8870,Izegem,Hondsmertjesstraat,37,50.9344849557,3.19579572666
8870,Izegem,Molenhoekstraat,100,50.9045575729,3.21680521666
8870,Izegem,Kokelarestraat,1,50.9074911407,3.20140910705
8870,Izegem,Kasteelstraat,4,50.9199567406,3.21641181101
8870,Izegem,Leenstraat,36,50.9108056641,3.19491228892
8870,Izegem,Wezestraat,131,50.9473905886,3.21710143588
8870,Izegem,Jan Breydelstraat,46,50.8991672512,3.19605952454
8870,Izegem,Vijfwegenstraat,36,50.9265839952,3.21575013672
8870,Izegem,Burgemeester Vandenbogaerdelaan,93,50.9102987993,3.20892017633
8870,Izegem,Leenstraat,46,50.909824174,3.19502925001
8870,Izegem,Reigerstraat,1,50.9274294961,3.22086220707
8870,Izegem,Ingelmunstersestraat,73,50.9236532612,3.23558421163
8870,Izegem,Vijfwegenstraat,46,50.926783716,3.21553469793
8870,Izegem,Marktstraat,30,50.9187647015,3.21583417348
8870,Izegem,Gentsestraat,4,50.9174983258,3.2147271819
8870,Izegem,Hondsmertjesstraat,19,50.9330913778,3.19870331287
8870,Izegem,Stuivenbergstraat,21,50.9232019466,3.19986251562
8870,Izegem,Rode Poortstraat,1,50.9121742397,3.21859197121
8870,Izegem,Lendeleedsestraat,75,50.9147472536,3.22713459703
8870,Izegem,Gerard Walschapstraat,8,50.9293587014,3.22666407411
8870,Izegem,Krekelstraat,182,50.9141927667,3.20461331057
8870,Izegem,Slagmeersenstraat,79,50.9141106644,3.22587881954
8870,Izegem,Molenhoekstraat,82,50.9069536411,3.21701875363
8870,Izegem,Vlasbloemstraat,40,50.9072561553,3.2193861108
8870,Izegem,Winkelhoekstraat,10,50.90013275,3.22773200132
8870,Izegem,Ter Wallenstraat,37,50.9143769191,3.21952286679
8870,Izegem,Kachtemsestraat,131,50.930767484,3.1930839845
8870,Izegem,Stuivenbergstraat,145,50.9237928225,3.19428235534
8870,Izegem,Roeselaarsestraat,505,50.92785778,3.18200347752
8870,Izegem,Kouterweg,91,50.9247917656,3.22170506606
8870,Izegem,Wezestraat,95,50.9342795468,3.21678327064
8870,Izegem,Blekerijstraat,57,50.9065759693,3.20340746646
8870,Izegem,Kapucijnenlaan,33,50.9210692096,3.19597908145
8870,Izegem,Ghistelstraat,63,50.9283894099,3.23778129546
8870,Izegem,Vlietmanstraat,18,50.9148883056,3.2286989619
8870,Izegem,Baronstraat,21,50.9238043044,3.22855645008
8870,Izegem,Roeselaarsestraat,249,50.9212202444,3.2012794492
8870,Izegem,Trienhoekstraat,5,50.9039052823,3.21840755326
8870,Izegem,Molstraat,154,50.9050341651,3.18164508572
8870,Izegem,Molenweg,18,50.9209638451,3.20771501125
8870,Izegem,Jan Breydelstraat,36,50.8996651769,3.19665729404
8870,Izegem,Zwingelaarsstraat,3,50.9098696341,3.21742604203
8870,Izegem,Marktstraat,12,50.9180678505,3.21536643203
8870,Izegem,Ardooisestraat,82,50.9335920985,3.20956211626
8870,Izegem,Kruisstraat,20,50.9195180539,3.21184075184
8870,Izegem,Slabbaardstraat-Noord,36,50.9133653672,3.21333010505
8870,Izegem,Edward Dierickstraat,7,50.9131161626,3.22564945765
8870,Izegem,Bremstraat,8,50.9344208019,3.19287454124
8870,Izegem,Wantje Pietersstraat,22,50.922119955,3.20225218415
8870,Izegem,Krekelstraat,164,50.9142999311,3.20535756894
8870,Izegem,Oude Iepersestraat,62,50.8998500419,3.18992937306
8870,Izegem,Stuivenbergstraat,56,50.923659013,3.19842528502
8870,Izegem,Kardinaal Cardijnlaan,67,50.9152566182,3.20023022448
8870,Izegem,Kouterweg,55,50.924565709,3.22378510241
8870,Izegem,Rotselaan,2,50.9302687625,3.21132814665
8870,Izegem,Gentseheerweg,92,50.9155332344,3.23506065633
8870,Izegem,Egaalstraat,13,50.9323792137,3.20444999912
8870,Izegem,Roeselaarsestraat,350,50.9224096566,3.19800538104
8870,Izegem,Boomforeeststraat,19,50.9149332064,3.22341424102
8870,Izegem,Molenhoekstraat,64,50.9078099501,3.21733675024
8870,Izegem,Kachtemsestraat,59,50.9300695183,3.20448906988
8870,Izegem,Karel de Goedelaan,17,50.9037452413,3.19817225797
8870,Izegem,Roeselaarsestraat,676,50.9305266334,3.17507242362
8870,Izegem,Kouterweg,73,50.9246875326,3.22314885152
8870,Izegem,Oosthoekstraat,2,50.9417302804,3.19596357718
8870,Izegem,Nachtegaalstraat,23,50.927586408,3.23622346135
8870,Izegem,Blekerijstraat,164,50.9005292891,3.20030708805
8870,Izegem,Pater Ver Eeckestraat,9,50.933428177,3.19423322029
8870,Izegem,Slabbaardstraat-Noord,89,50.9104925554,3.21276242546
8870,Izegem,Guido Gezellestraat,26,50.9245743395,3.2209367019
8870,Izegem,Geitestraat,3,50.8976963324,3.19928984056
8870,Izegem,Ghistelstraat,45,50.9266653623,3.23827049024
8870,Izegem,Grote Markt,22,50.9202420998,3.21534901293
8870,Izegem,Henri Dunantstraat,32,50.9109407094,3.22614409111
8870,Izegem,Roeselaarsestraat,285,50.9215833187,3.19944764837
8870,Izegem,Oude Iepersestraat,44,50.8992962399,3.19238817177
8870,Izegem,Wezestraat,59,50.9301520461,3.21506671087
8870,Izegem,Ferdinand Snellaertstraat,18,50.9265543424,3.22594307608
8870,Izegem,Moerbeziestraat,4,50.934789657,3.19095038473
8870,Izegem,Lodewijk de Raetlaan,25,50.9288724898,3.19990029809
8870,Izegem,Vuurdoornstraat,12,50.9351583506,3.19357343614
8870,Izegem,Baronstraat,56,50.9244555328,3.22766355111
8870,Izegem,Kachtemsestraat,69A,50.9303784821,3.20342381673
8870,Izegem,Baronstraat,181,50.9275159085,3.21548129206
8870,Izegem,Zomerlandstraat,10,50.9328465725,3.1977465194
8870,Izegem,Lendeleedsestraat,111,50.9138245968,3.22801698805
8870,Izegem,Prinsessestraat,124,50.9229660213,3.22301632263
8870,Izegem,Guido Gezellestraat,2,50.9239454384,3.22048323915
8870,Izegem,Hogestraat,11,50.9324545475,3.1909564725
8870,Izegem,16de Linie-Regimentsstraat,4,50.9308829743,3.21376765011
8870,Izegem,Manegemstraat,67,50.902792393,3.20724508094
8870,Izegem,Gentseheerweg,74,50.9165543388,3.22889602708
8870,Izegem,Rozenlaan,45,50.9074343172,3.21497088901
8870,Izegem,Filip de Pillecynstraat,1,50.9361323778,3.19084299245
8870,Izegem,Wezestraat,14,50.9282644208,3.21498378305
8870,Izegem,Kachtemsestraat,77,50.9309073198,3.20253760518
8870,Izegem,Kortrijksestraat,262,50.9068142905,3.22018751148
8870,Izegem,Schardouwstraat,3,50.9255495315,3.18299725732
8870,Izegem,Olmenstraat,14,50.9142655648,3.1838588481
8870,Izegem,Schoolstraat,10,50.9119237246,3.2118561766
8870,Izegem,Sint-Sebastiaanslaan,13,50.9209955819,3.19440380885
8870,Izegem,Molstraat,12,50.9164035867,3.18601830809
8870,Izegem,Schoolstraat,45,50.91177937,3.21386101756
8870,Izegem,Kerselaarstraat,9,50.9127652789,3.18731901302
8870,Izegem,Bellevuestraat,141,50.9146930661,3.20351380592
8870,Izegem,Baronstraat,163,50.9271818093,3.21668983798
8870,Izegem,Italianenlaan,3,50.9178000353,3.2297293823
8870,Izegem,Meensestraat,93,50.9137463232,3.21296761694
8870,Izegem,Klijtstraat,3,50.9123158818,3.20094873755
8870,Izegem,Emiel Neirynckstraat,38,50.9107814893,3.22542315061
8870,Izegem,Lendeleedsestraat,164,50.9098852102,3.23221360396
8870,Izegem,Zwingelaarsstraat,27,50.9097852075,3.21584825536
8870,Izegem,Wezestraat,77,50.9307998033,3.21531412537
8870,Izegem,Gravenstraat,21,50.9235766985,3.2250154381
8870,Izegem,Kardinaal Cardijnlaan,49,50.9150448643,3.20126756706
8870,Izegem,Europalaan,29,50.9140453958,3.20028155128
8870,Izegem,Kachtemsestraat,14,50.9287616708,3.21140698236
8870,Izegem,Vlierstraat,11,50.9350929236,3.19420551083
8870,Izegem,Mandelmeersenstraat,10,50.9311331302,3.19666791359
8870,Izegem,Krekelmotestraat,50,50.9196400071,3.19974295294
8870,Izegem,Dennenstraat,13,50.9138317058,3.18793385705
8870,Izegem,Krekelstraat,111,50.9149794987,3.2090393795
8870,Izegem,Hendrik Consciencestraat,16,50.9252080288,3.23496631957
8870,Izegem,Sint-Pietersstraat,12,50.9161739217,3.2145872135
8870,Izegem,Zoetemondstraat,3,50.899396941,3.22412440689
8870,Izegem,Elegastlaan,33,50.9059251288,3.22290303198
8870,Izegem,Blekerijstraat,111,50.905190119,3.20235951455
8870,Izegem,Louis De Costerestraat,7,50.9313152142,3.19608476715
8870,Izegem,Meensesteenweg,61,50.9065457831,3.2009647898
8870,Izegem,Haaipanderstraat,87,50.9378327503,3.23089408695
8870,Izegem,Haaipanderstraat,24,50.9277021184,3.23143762824
8870,Izegem,Ter Elststraat,30,50.9114294548,3.21894837633
8870,Izegem,9de Liniestraat,11,50.9326825817,3.18885324299
8870,Izegem,Karel de Goedelaan,35,50.9021832548,3.19647915828
8870,Izegem,Beiaardstraat,52,50.9061036965,3.21324738189
8870,Izegem,Slabbaardstraat-Zuid,72,50.9022446494,3.20833235776
8870,Izegem,Molenhoekstraat,11,50.9084880543,3.21807562163
8870,Izegem,Blauwhuisstraat,50,50.9141125076,3.22420221222
8870,Izegem,Rozenlaan,10,50.9080725954,3.21202212965
8870,Izegem,Boomforeeststraat,37,50.9143887947,3.22346520484
8870,Izegem,Europalaan,5,50.9139733557,3.20122864304
8870,Izegem,Stuivenbergstraat,109,50.9237630071,3.19584323636
8870,Izegem,Kapucijnenlaan,78,50.9194405883,3.19542935445
8870,Izegem,Zaligmakersstraat,2,50.9149917725,3.22526461797
8870,Izegem,Rozenlaan,17,50.9083512641,3.21251181902
8870,Izegem,Ferdinand Vervaeckestraat,6,50.9300523324,3.21442456867
8870,Izegem,Abelestraat,4,50.9237788582,3.18892023183
8870,Izegem,Roeselaarsestraat,53,50.9186056501,3.21044763322
8870,Izegem,Baronstraat,99,50.9251781571,3.22423986962
8870,Izegem,Lendeleedsestraat,264,50.8997570557,3.23518175979
8870,Izegem,Pieter Boncquetstraat,23,50.9328419739,3.20227585214
8870,Izegem,Korenmarkt,22,50.919956659,3.21464429436
8870,Izegem,Lindestraat,18,50.9227700023,3.19251342245
8870,Izegem,Kachtemsestraat,141,50.9315274872,3.19326811022
8870,Izegem,Kapelstraat,53,50.9256346707,3.22332432201
8870,Izegem,Ardooisestraat,4,50.9285003214,3.21429628531
8870,Izegem,Ommegangstraat,53,50.9164949558,3.20935224779
8870,Izegem,Meensesteenweg,175,50.8986722475,3.19105504529
8870,Izegem,Zonnebloemlaan,5,50.90715867,3.21695016592
8870,Izegem,Baronstraat,127,50.9260254056,3.22197023989
8870,Izegem,Vageweenstraat,7,50.9341771301,3.19962323806
8870,Izegem,Neerhofstraat,13,50.9128580542,3.22485552223
8870,Izegem,Arenbergstraat,11,50.9108844793,3.22309290002
8870,Izegem,Beiaardstraat,70,50.9052729048,3.21313928108
8870,Izegem,Vijverhof,24,50.9085703291,3.20137019886
8870,Izegem,Esdoornstraat,40,50.9143769415,3.18932680666
8870,Izegem,Gudrunlaan,5,50.9055397766,3.22272559681
8870,Izegem,Manderlynckstraat,6,50.9398544957,3.18001611177
8870,Izegem,Maria van Bourgondiëstraat,53,50.9007179578,3.19981487966
8870,Izegem,Krekelstraat,22,50.9162782524,3.21338373505
8870,Izegem,Neerhofstraat,31,50.9121812556,3.22497553371
8870,Izegem,Prins Albertlaan,13,50.9228284807,3.20762637524
8870,Izegem,Leenstraat,135,50.9029356986,3.19307220313
8870,Izegem,Roeselaarsestraat,71,50.9191118518,3.20918452101
8870,Izegem,Leenstraat,117,50.9038243432,3.19346101557
8870,Izegem,Sint-Crispijnstraat,49,50.9178127703,3.20759451287
8870,Izegem,Meensesteenweg,43,50.9073891572,3.2027731535
8870,Izegem,Hogestraat,36,50.9350104455,3.18965722443
8870,Izegem,Abelestraat,100,50.9188457493,3.18692011924
8870,Izegem,Stuivenbergstraat,127,50.9236677594,3.19522685436
8870,Izegem,Schoolstraat,17,50.9122514941,3.21247510173
8870,Izegem,Klaregrachtstraat,49,50.9127196153,3.18250972831
8870,Izegem,Melkmarktstraat,3,50.9196861111,3.21349773187
8870,Izegem,President Kennedylaan,12,50.9297544301,3.21177643266
8870,Izegem,Ommegangstraat,71,50.9158296429,3.20930453183
8870,Izegem,Reperstraat,53,50.9261672308,3.21733992544
8870,Izegem,Beukendreef,16,50.9191600164,3.20407229736
8870,Izegem,Wallemotestraat,40,50.9129977239,3.19853637248
8870,Izegem,Klijtstraat,20,50.9119761414,3.19973803253
8870,Izegem,Zevekotestraat,27,50.9158373195,3.22797506746
8870,Izegem,Ter Beemden,15,50.9057890661,3.19494807515
8870,Izegem,Blekerijstraat,22,50.9065902945,3.20286678144
8870,Izegem,Baron de Pélichystraat,28,50.916703974,3.21219807796
8870,Izegem,Ardooisestraat,100,50.9366438856,3.20681197695
8870,Izegem,Mezegemstraat,20,50.9409464955,3.18233279477
8870,Izegem,Vuurkruiserslaan,50,50.9207772309,3.19285990079
8870,Izegem,Middenweg,13,50.919666611,3.20162373148
8870,Izegem,Hondsmertjesstraat,65,50.9366197128,3.18996041592
8870,Izegem,Rozenlaan,35,50.9076585562,3.21447836334
8870,Izegem,Kortrijksestraat,30,50.9144670887,3.21525547709
8870,Izegem,Ter Beemden,33,50.9056218754,3.19575249454
8870,Izegem,Ingelmunstersestraat,27,50.9238888263,3.23223381299
8870,Izegem,Oude Iepersestraat,80,50.9002684614,3.18863106796
8870,Izegem,Blauwhuisstraat,29,50.9144433116,3.22463174633
8870,Izegem,Reperstraat,71,50.926768342,3.21725875209
8870,Izegem,Kardinaal Cardijnlaan,32,50.916487604,3.2000056034
8870,Izegem,Leenstraat,89,50.905729175,3.19437981786
8870,Izegem,Veldstraat,11,50.9391642467,3.21493712433
8870,Izegem,Krekelmotestraat,111,50.9164903915,3.19833442419
8870,Izegem,Schoolstraat,35,50.9118481848,3.21342587661
8870,Izegem,Elckerliclaan,39,50.9047619223,3.2251243387
8870,Izegem,Koningin Elisabethlaan,19,50.9257590356,3.23607479087
8870,Izegem,Roeselaarsestraat,558,50.9251306504,3.18853405596
8870,Izegem,Krekelmotestraat,29,50.9207391231,3.20048792595
8870,Izegem,Meensesteenweg,222,50.9012587233,3.19184425508
8870,Izegem,Vlietmanstraat,64,50.9135668693,3.22915028109
8870,Izegem,Kokelarestraat,25,50.9078918803,3.19936019865
8870,Izegem,Baronstraat,109,50.9256639142,3.223253053
8870,Izegem,Odiel Spruyttestraat,5,50.9096467133,3.20470977622
8870,Izegem,Sint-Sebastiaanslaan,31,50.9208839495,3.19337240572
8870,Izegem,Hottonstraat,3,50.9207186036,3.19064150493
8870,Izegem,Dam,22,50.9238764183,3.21750804661
8870,Izegem,Slagmeersenstraat,9,50.912406694,3.21728449576
8870,Izegem,Manegemstraat,32,50.906191707,3.20642888409
8870,Izegem,Reperstraat,185,50.9439150439,3.2238620851
8870,Izegem,Lodewijk de Raetlaan,47,50.9305134643,3.18756435086
8870,Izegem,Rode Poortstraat,25,50.9117060471,3.22072786716
8870,Izegem,Bessenstraat,9,50.9349389959,3.19178607957
8870,Izegem,Lendeleedsestraat,22,50.9152658506,3.22515896111
8870,Izegem,Molenhoekstraat,36,50.9086419641,3.2176252079
8870,Izegem,Vlasgaardstraat,30,50.9104584891,3.21421715158
8870,Izegem,Trienhoekstraat,75,50.8969931406,3.21836042569
8870,Izegem,Pieter De Coninckstraat,14,50.900831515,3.1953695202
8870,Izegem,Meensesteenweg,157,50.9005027488,3.19208128905
8870,Izegem,Lindestraat,4,50.9228338541,3.19353098344
8870,Izegem,Marelputstraat,3,50.9229582278,3.18383677859
8870,Izegem,Sint-Jansstraat,29,50.9330853488,3.19526615999
8870,Izegem,Pater Ver Eeckestraat,54,50.9379395343,3.19522989321
8870,Izegem,Hooghoutstraat,29,50.9023309856,3.239903658
8870,Izegem,Abelestraat,18,50.9229358715,3.18904140978
8870,Izegem,Roeselaarsestraat,594,50.9271978022,3.1865548229
8870,Izegem,Bellevuestraat,60,50.9161853764,3.20378454435
8870,Izegem,Tinnenpotstraat,55,50.9434917043,3.21266231872
8870,Izegem,Prinsessestraat,63,50.9223334107,3.22434035803
8870,Izegem,Gentseheerweg,109,50.9170592415,3.23856829212
8870,Izegem,Wezestraat,79A,50.9311801529,3.21540237514
8870,Izegem,Kruidenstraat,12,50.9338552399,3.19308376682
8870,Izegem,Beukendreef,2,50.9189076545,3.20496165804
8870,Izegem,Masteneikstraat,36,50.9026374931,3.22555951541
8870,Izegem,Koningin Astridlaan,31,50.9255071159,3.2329990567
8870,Izegem,Sint-Crispijnstraat,32,50.9186133896,3.20750573537
8870,Izegem,Karel de Goedelaan,10,50.9036459692,3.19744888632
8870,Izegem,Roger Vandoornestraat,4,50.9361789722,3.18757459942
8870,Izegem,Winkelhoekstraat,17,50.9005445021,3.22733301536
8870,Izegem,Peter Benoitstraat,29,50.9243558785,3.22162794908
8870,Izegem,Meulebeeksestraat,8,50.9452554411,3.22437314829
8870,Izegem,Vuurkruiserslaan,39,50.9218270788,3.19308793228
8870,Izegem,Krommestraat,5,50.9389462598,3.2041342859
8870,Izegem,Blekerijstraat,199,50.9013219497,3.20159738304
8870,Izegem,Emiel Moysonstraat,9,50.9269352127,3.22873391229
8870,Izegem,Tinnenpotstraat,73,50.9440098488,3.21155949809
8870,Izegem,Burgemeester Vandenbogaerdelaan,40,50.914745764,3.21102878711
8870,Izegem,Lavendelstraat,4,50.9333589712,3.19227513537
8870,Izegem,Vlasgaardstraat,12,50.91089538,3.21484420019
8870,Izegem,Bellevuestraat,14,50.9193387749,3.20543683305
8870,Izegem,Roeselaarsestraat,149,50.9201622121,3.20509214214
8870,Izegem,Anjelierenlaan,21,50.9088368596,3.21341889418
8870,Izegem,Negenhoekstraat,51,50.9051136655,3.20030211018
8870,Izegem,Eigenhaardstraat,28,50.9103514281,3.21578444334
8870,Izegem,Burgemeester Vandenbogaerdelaan,29,50.9150037829,3.21165799536
8870,Izegem,Azalealaan,9,50.909232617,3.21631173883
8870,Izegem,Zonnebloemlaan,19,50.9069875021,3.21600693251
8870,Izegem,Bellevuestraat,42,50.9167979185,3.20401368793
8870,Izegem,Ardooisestraat,18,50.929164431,3.21412133513
8870,Izegem,Reperstraat,149,50.9361781618,3.22159529629
8870,Izegem,Roeselaarsestraat,443,50.9256627454,3.18668607913
8870,Izegem,Prinsdomlaan,24,50.9099117029,3.22495571919
8870,Izegem,Oekensestraat,52,50.9236858275,3.18337333425
8870,Izegem,Stationsstraat,4,50.9209815001,3.21427148298
8870,Izegem,Koningin Astridlaan,13,50.9252694456,3.23348659867
8870,Izegem,Kokelarestraat,47,50.9078033438,3.19884736972
8870,Izegem,Prinsessestraat,214,50.9239050283,3.21782227342
8870,Izegem,Heilig Hartstraat,3,50.9173828537,3.20914301704
8870,Izegem,Haverhuisstraat,20,50.9337421133,3.18740400711
8870,Izegem,Kortrijksestraat,189,50.9107314817,3.21777734802
8870,Izegem,Stationsstraat,18,50.9208871448,3.21208139222
8870,Izegem,President Kennedylaan,30,50.9294954781,3.21013955529
8870,Izegem,Roeselaarsestraat,576,50.9255993861,3.18743064648
8870,Izegem,Ambachtenstraat,22,50.9178422381,3.19044827178
8870,Izegem,Sint-Jansstraat,40,50.9333041054,3.19814485298
8870,Izegem,Prinsessestraat,81,50.9226644647,3.22298669828
8870,Izegem,Slabbaardstraat-Noord,11,50.9140747914,3.21390525891
8870,Izegem,Ardooisestraat,74,50.9315080918,3.21267175141
8870,Izegem,Roeselaarsestraat,167,50.9200146862,3.20421239111
8870,Izegem,Mariastraat,48,50.93109535,3.2095591761
8870,Izegem,Tulpenlaan,6,50.9091734263,3.21287594519
8870,Izegem,Heer Halewijnlaan,14,50.9067403202,3.22325639957
8870,Izegem,Hazelaarstraat,69,50.9102806188,3.19012504756
8870,Izegem,Nieuwstraat,27,50.9194218557,3.21370534696
8870,Izegem,Voetbalstraat,7,50.9280970689,3.2171984238
8870,Izegem,Vlasbloemstraat,19,50.90785592,3.21905661412
8870,Izegem,Kouterweg,108,50.9252928993,3.21973620028
8870,Izegem,Lendeleedsestraat,282,50.8982132621,3.23443169528
8870,Izegem,Vlasbloemstraat,5,50.9079845807,3.21800121623
8870,Izegem,Lodewijk Dosfelstraat,7,50.9266337487,3.2280278383
8870,Izegem,Stuivenbergstraat,99,50.9237659697,3.19629336543
8870,Izegem,Pieter Pruimstraat,13,50.9355713489,3.18697907948
8870,Izegem,Merelstraat,25,50.927929724,3.2255861082
8870,Izegem,Leenstraat,11,50.9135902463,3.19671023675
8870,Izegem,Manestraat,29,50.9450277561,3.18963296522
8870,Izegem,Hondstraat,20,50.9202987123,3.21212604001
8870,Izegem,Jan Breydelstraat,11,50.9002567495,3.19519819837
8870,Izegem,Ghistelstraat,35,50.9260657782,3.23848364962
8870,Izegem,Hogestraat,100,50.9399591607,3.18750209539
8870,Izegem,August Vermeylenstraat,11,50.9232471755,3.22951190313
8870,Izegem,Roeselaarsestraat,339,50.9231393778,3.19378563154
8870,Izegem,Wijngaardstraat,32,50.9192685121,3.21262973442
8870,Izegem,Winkelhoekstraat,35,50.9010889811,3.22877010928
8870,Izegem,Mandelstraat,51,50.9233572978,3.20078464949
8870,Izegem,Priester Daensstraat,29,50.9157972039,3.20251902999
8870,Izegem,Ten Broelestraat,8,50.9125868002,3.22023633534
8870,Izegem,Jacob van Arteveldestraat,14,50.8988914306,3.19798924359
8870,Izegem,Mgr. De Keyzerstraat,7,50.9285804952,3.22371592981
8870,Izegem,Droge Janstraat,6,50.9138748908,3.21405637017
8870,Izegem,Ter Wallenstraat,30,50.9134901457,3.21836932253
8870,Izegem,Vlierstraat,4,50.9345135149,3.19382092137
8870,Izegem,Reperstraat,132,50.9458556172,3.22669254606
8870,Izegem,Sint-Jorisstraat,22,50.9142103685,3.20814705895
8870,Izegem,Kouterweg,98,50.9252194011,3.2201085548
8870,Izegem,Dam,40,50.9248441193,3.21727607024
8870,Izegem,Molenhoekstraat,4,50.9096540293,3.21787428271
8870,Izegem,Monseigneur Bouckaertstraat,14,50.9122828601,3.22766791147
8870,Izegem,Emiel Neirynckstraat,13,50.9124562471,3.22612812541
8870,Izegem,Onze-Lieve-Vrouwestraat,26,50.9181420472,3.20832751512
8870,Izegem,Slagmeersenstraat,72,50.9136674362,3.22226986247
8870,Izegem,Kortrijksestraat,118,50.9115893224,3.21652709073
8870,Izegem,Ardooisestraat,171,50.940904187,3.20161402299
8870,Izegem,Meensesteenweg,240,50.900741741,3.19161707399
8870,Izegem,Hogestraat,89,50.9375619214,3.18820555695
8870,Izegem,Mariastraat,9,50.9307953656,3.21146881022
8870,Izegem,Mentenhoekstraat,63,50.919298469,3.19492713298
8870,Izegem,Kouterweg,126,50.9257982159,3.21811527427
8870,Izegem,Kokelarestraat,124,50.9110610217,3.18384356279
8870,Izegem,Meensestraat,29,50.9149279637,3.2144615376
8870,Izegem,Heilig Hartstraat,20,50.917624333,3.20845949297
8870,Izegem,Molstraat,37,50.9150620697,3.18649595676
8870,Izegem,Roeselaarsestraat,132,50.9198718368,3.20745697795
8870,Izegem,Kasteelstraat,21,50.918714475,3.21900339992
8870,Izegem,Hogestraat,117,50.9398117494,3.18686107484
8870,Izegem,Vuurkruiserslaan,121,50.919905974,3.19425426333
8870,Izegem,Henri Dewaelestraat,7,50.9007349065,3.19322410251
8870,Izegem,Klijtstraat,73,50.9110798724,3.2007586248
8870,Izegem,Dweersstraat,27,50.9151411653,3.2130841821
8870,Izegem,Lendeleedsestraat,40,50.9148242044,3.22644923522
8870,Izegem,Kapelstraat,1,50.9233210614,3.22207696925
8870,Izegem,Roeselaarsestraat,250,50.9212653965,3.20226843491
8870,Izegem,Gentsestraat,21,50.9174036047,3.21625187949
8870,Izegem,Marktstraat,37,50.9188006613,3.21511020028
8870,Izegem,Molstraat,19,50.9165219189,3.18823755557
8870,Izegem,Krekelstraat,93,50.9152056299,3.20993474584
8870,Izegem,Masteneikstraat,4,50.9071325299,3.22531958234
8870,Izegem,Lodewijk de Raetlaan,8,50.9268211058,3.2132083703
8870,Izegem,Tinnenpotstraat,17,50.9377994483,3.21253302338
8870,Izegem,Slagmeersenstraat,90,50.9137517452,3.22336483629
8870,Izegem,Emiel Neirynckstraat,31,50.9117776344,3.22622811041
8870,Izegem,Tinnenpotstraat,35,50.9396930783,3.21320879468
8870,Izegem,Papestraat,21,50.9162070845,3.21562091241
8870,Izegem,Wallemotestraat,29,50.9125635185,3.1989641518
8870,Izegem,Wolvenhofstraat,8,50.9014856306,3.18636333525
8870,Izegem,Pieter Boncquetstraat,41,50.933239594,3.20290776458
8870,Izegem,Blekerijstraat,93,50.9055640914,3.20295424678
8870,Izegem,Vlietmanstraat,11,50.9156984903,3.2297529041
8870,Izegem,Stationsstraat,36,50.9206465642,3.2112141417
8870,Izegem,Meensesteenweg,122,50.9058728538,3.19885080363
8870,Izegem,Pater Ver Eeckestraat,16,50.9344522651,3.19497944855
8870,Izegem,Ardooisestraat,56,50.930480577,3.21338461632
8870,Izegem,Klijtstraat,91,50.9117415113,3.19949614677
8870,Izegem,Kortrijksestraat,234,50.907859916,3.2197868317
8870,Izegem,Nachtegaalstraat,41,50.9277832397,3.23772092858
8870,Izegem,Oekensestraat,87,50.9228639725,3.18133000947
8870,Izegem,Herman Roelstraeteplein,10,50.9211253935,3.2068497784
8870,Izegem,Zomerlandstraat,3,50.9325037028,3.19736994522
8870,Izegem,Krekelmotestraat,49,50.9199725732,3.20028639415
8870,Izegem,Klijtstraat,55,50.9103888307,3.20104457445
8870,Izegem,Guido Gezellestraat,48,50.9256474074,3.22103550652
8870,Izegem,Krekelstraat,40,50.9161863102,3.21279250974
8870,Izegem,Camiel Ameyestraat,46,50.9212390392,3.20623222112
8870,Izegem,Krekelstraat,211,50.9135113172,3.20242177709
8870,Izegem,Hugo Verrieststraat,13,50.9244351913,3.21859376269
8870,Izegem,Stuivenbergstraat,28,50.9235220802,3.19944516961
8870,Izegem,Meensesteenweg,104,50.9064134726,3.19992794807
8870,Izegem,Katteboomstraat,46,50.9024713223,3.2305755037
8870,Izegem,Knobbaardstraat,10,50.9098756743,3.23419455331
8870,Izegem,Rode Poortstraat,8,50.911592609,3.21769722935
8870,Izegem,Mentenhoekstraat,81,50.9193352854,3.19379803734
8870,Izegem,Prinsessestraat,10,50.9225329526,3.22946266338
8870,Izegem,Krekelstraat,199,50.9138077393,3.20272145537
8870,Izegem,Gerard Walschapstraat,1,50.928857246,3.22619501096
8870,Izegem,Koningin Elisabethlaan,5,50.9257368541,3.23496763256
8870,Izegem,Kortrijksestraat,65,50.9147532034,3.21579086287
8870,Izegem,Ghistelstraat,3,50.9235278129,3.23711122346
8870,Izegem,Abelestraat,36,50.9224137991,3.18814632162
8870,Izegem,Boomforeeststraat,12,50.9155291255,3.22301202012
8870,Izegem,Beiaardstraat,24,50.9067295059,3.21295329038
8870,Izegem,Camiel Ameyestraat,26,50.9208011367,3.20610708567
8870,Izegem,Nederweg,155,50.9231572541,3.2014898841
8870,Izegem,Marktstraat,19,50.9183130869,3.21469563901
8870,Izegem,Willem Elsschotstraat,10,50.9295748482,3.22530648328
8870,Izegem,Ardooisestraat,153,50.9393142024,3.20508434121
8870,Izegem,Maria van Bourgondiëstraat,1,50.9013314628,3.19783715541
8870,Izegem,Kachtemsestraat,42,50.9302793074,3.20890442662
8870,Izegem,Hondsmertjesstraat,30,50.933384892,3.19892690687
8870,Izegem,Winkelhoekstraat,3,50.9005699939,3.22669972587
8870,Izegem,Graaf de Montblanclaan,44,50.9251427502,3.23115965038
8870,Izegem,Reperstraat,15,50.9253857949,3.21710218754
8870,Izegem,Guido Gezellestraat,9,50.9243124418,3.22011680187
8870,Izegem,Moerbeziestraat,21,50.9340031335,3.19108977216
8870,Izegem,Grote Markt,29,50.91979704,3.21496994538
8870,Izegem,Molenhoekstraat,18,50.9093160028,3.21786649674
8870,Izegem,Zaligmakersstraat,16,50.9145575905,3.22527945596
8870,Izegem,Rozenlaan,3,50.9086119686,3.21179754039
8870,Izegem,Pater Ver Eeckestraat,2,50.9332517599,3.19473473623
8870,Izegem,Pieter Baesstraat,4,50.9139372222,3.21024094289
8870,Izegem,Haaipanderstraat,70,50.9300030255,3.23385696511
8870,Izegem,Emiel Allewaertstraat,9,50.8996728043,3.19221282835
8870,Izegem,Europalaan,57,50.9145461385,3.19895060607
8870,Izegem,Krekelstraat,246,50.9130874,3.20147834848
8870,Izegem,Geitestraat,55,50.8938507663,3.19308758396
8870,Izegem,Schoonveldestraat,10,50.9118365421,3.2203367357
8870,Izegem,Kapelstraat,15,50.923822473,3.22225390836
8870,Izegem,Oude Iepersestraat,16,50.8984108892,3.19881953443
8870,Izegem,Slabbaardstraat-Noord,82,50.9116590823,3.21238047136
8870,Izegem,Hottonstraat,17,50.9219125641,3.19094936572
8870,Izegem,Lendeleedsestraat,128,50.9103484644,3.23111511358
8870,Izegem,Ardooisestraat,36,50.9299266429,3.21379259972
8870,Izegem,Wantje Pietersstraat,40,50.9225122741,3.20243104845
8870,Izegem,Kruidenstraat,30,50.9337361419,3.19183729407
8870,Izegem,Rotselaan,9,50.9299212704,3.21096156736
8870,Izegem,Sint-Rafaëlsstraat,23,50.9125432735,3.22385577755
8870,Izegem,Molstraat,136,50.9085425918,3.18285312114
8870,Izegem,Ciepenstraat,22,50.9001398152,3.21813238442
8870,Izegem,Molstraat,5,50.9166471265,3.1890224652
8870,Izegem,Kapelstraat,33,50.924612231,3.2227745903
8870,Izegem,Kloosterstraat,3,50.917492718,3.21416538994
8870,Izegem,Maria van Bourgondiëstraat,15,50.9006412061,3.19836377008
8870,Izegem,Masteneikstraat,18,50.9052212043,3.2252311723
8870,Izegem,Koning Leopold III-straat,24,50.9249337038,3.23697833634
8870,Izegem,Roeselaarsestraat,33,50.9182097077,3.21212685952
8870,Izegem,Kruisstraat,27,50.9198602374,3.21060926881
8870,Izegem,Hondsmertjesstraat,12,50.9330065,3.20056478326
8870,Izegem,Rumbeeksestraat,28,50.9319257509,3.18974764715
8870,Izegem,Ardooisestraat,89,50.934558531,3.20650818665
8870,Izegem,Prinsessestraat,45,50.9223631695,3.22557839344
8870,Izegem,Wantje Pietersstraat,29,50.9223224072,3.20190677509
8870,Izegem,Oude Iepersestraat,69,50.8989747426,3.19111428171
8870,Izegem,Boomforeeststraat,30,50.9150095921,3.22300506892
8870,Izegem,Kardinaal Cardijnlaan,50,50.9159575636,3.19946697911
8870,Izegem,9de Liniestraat,18,50.9336080172,3.18901067113
8870,Izegem,Bremstraat,1,50.9346347311,3.19331081121
8870,Izegem,Slagmeersenstraat,48,50.9128656936,3.21929035692
8870,Izegem,Vijverhof,7,50.9083044908,3.20010499363
8870,Izegem,Baronielaan,13,50.9144418928,3.22215240138
8870,Izegem,Ommegangstraat,33,50.9172829494,3.20962392623
8870,Izegem,Rijksweg,3,50.9033089881,3.22201693178
8870,Izegem,Kouterweg,27,50.9238514639,3.22634868028
8870,Izegem,Ter Elststraat,37,50.9108370886,3.21856385236
8870,Izegem,Mentenhoekstraat,45,50.9191459411,3.1964533785
8870,Izegem,Roeselaarsestraat,405,50.9247479168,3.18781693416
8870,Izegem,Kokelarestraat,106,50.9107967081,3.18668281819
8870,Izegem,Lendeleedsestraat,246,50.9021032869,3.23547077791
8870,Izegem,Manegemstraat,50,50.9049501961,3.20695427283
8870,Izegem,Maria van Bourgondiëstraat,33,50.9007401041,3.19880631209
8870,Izegem,Vredestraat,22,50.9223936524,3.21354249174
8870,Izegem,Ferdinand Snellaertstraat,11,50.9269504789,3.22683332654
8870,Izegem,Kachtemsestraat,60,50.9300759339,3.20638200588
8870,Izegem,Manestraat,49,50.9450757315,3.20141607463
8870,Izegem,Vuurkruiserslaan,103,50.9202026656,3.19411100948
8870,Izegem,Europalaan,22,50.9144244498,3.20105203176
8870,Izegem,Kortrijksestraat,216,50.9086252265,3.21901019724
8870,Izegem,Zwingelaarsstraat,20,50.9100921494,3.21673830143
8870,Izegem,Henri Dunantstraat,39,50.9114059233,3.22540979863
8870,Izegem,Baronielaan,31,50.9118283925,3.22207997022
8870,Izegem,Pater Ver Eeckestraat,34,50.9366610336,3.19554756085
8870,Izegem,Reperstraat,33,50.925749857,3.21718899183
8870,Izegem,Ommegangstraat,15,50.9179627205,3.20984324286
8870,Izegem,Haaipanderstraat,7,50.9244546926,3.23008928174
8870,Izegem,Mentenhoekstraat,10,50.91974877,3.19706841698
8870,Izegem,Gentseheerweg,28,50.9163893283,3.22483948091
8870,Izegem,Wezestraat,60,50.9300428019,3.21546872682
8870,Izegem,Hondekensmolenstraat,19,50.9084019631,3.22168384639
8870,Izegem,Filip de Pillecynstraat,8,50.9361556309,3.18982623096
8870,Izegem,Kortrijksestraat,269,50.9086744764,3.21952303686
8870,Izegem,Molenweg,46,50.9206655575,3.20686129872
8870,Izegem,Hondekensmolenstraat,5,50.9084897001,3.22064266867
8870,Izegem,Kerselaarstraat,2,50.9136712287,3.18643198858
8870,Izegem,Roeselaarsestraat,496,50.9240761397,3.19169678822
8870,Izegem,Krekelmotestraat,67,50.9188938323,3.19980035707
8870,Izegem,Nederweg,23,50.9207314768,3.20991387312
8870,Izegem,Ter Wallenstraat,12,50.9131259993,3.21753037793
8870,Izegem,Oude Iepersestraat,2,50.8983545361,3.20494890853
8870,Izegem,Mandelmeersenstraat,3,50.9316557895,3.19711453289
8870,Izegem,Slagmeersenstraat,54,50.9131202087,3.21975882905
8870,Izegem,Sint-Pietersstraat,5,50.916116605,3.21494858226
8870,Izegem,Leenstraat,90,50.9043187913,3.19306275309
8870,Izegem,Dweersstraat,45,50.9153445958,3.21224108398
8870,Izegem,Prinsessestraat,180,50.9237409629,3.21964260219
8870,Izegem,Ambachtenstraat,19,50.9189427873,3.18105495616
8870,Izegem,Sint-Crispijnstraat,42,50.9182969022,3.20738498813
8870,Izegem,Meulebeeksestraat,15,50.9453520899,3.21631823765
8870,Izegem,Roeselaarsestraat,423,50.925253444,3.18735115604
8870,Izegem,Priester Daensstraat,12,50.9162636733,3.20221560764
8870,Izegem,August Vermeylenstraat,4,50.9231616282,3.22992434519
8870,Izegem,Tulpenlaan,41,50.9088617638,3.21533156305
8870,Izegem,Henri Dunantstraat,7,50.9117259784,3.22307407988
8870,Izegem,Kachtemsestraat,176,50.931859846,3.19375203848
8870,Izegem,Wezestraat,39,50.9294293862,3.21488217409
8870,Izegem,Krekelstraat,156,50.9143110777,3.20561171602
8870,Izegem,Bellevuestraat,85,50.9162139605,3.20420125429
8870,Izegem,Geitestraat,17,50.8963632688,3.19896051205
8870,Izegem,Eigenhaardstraat,13,50.9108968867,3.21574872717
8870,Izegem,Manegemstraat,5,50.9085606823,3.20900276924
8870,Izegem,Vageweenstraat,34,50.9382124472,3.20347008018
8870,Izegem,Slagmeersenstraat,36,50.9125953364,3.21848026331
8870,Izegem,Vageweenstraat,16,50.935795095,3.20237121359
8870,Izegem,Haverhuisstraat,40,50.934456992,3.18702434869
8870,Izegem,Kerelsstraat,2,50.9229550854,3.22927149083
8870,Izegem,Vlasgaardstraat,3,50.910964798,3.21527579303
8870,Izegem,Slabbaardstraat-Noord,4,50.914154814,3.21372310526
8870,Izegem,Roeselaarsestraat,330,50.9220196672,3.1994067699
8870,Izegem,Kachtemsestraat,158,50.931969435,3.19514666341
8870,Izegem,Dahlialaan,14,50.9095362943,3.2125757883
8870,Izegem,Vlasbloemstraat,22,50.907603881,3.21885987153
8870,Izegem,Bellevuestraat,123,50.9151137295,3.20369522028
8870,Izegem,Koning Boudewijnstraat,11,50.924437574,3.23594735388
8870,Izegem,Veldstraat,26,50.9403150353,3.21050455394
8870,Izegem,Vuurkruiserslaan,59,50.9201083944,3.19366519074
8870,Izegem,Oude Iepersestraat,125,50.9012088953,3.18328479142
8870,Izegem,Peter Benoitstraat,30,50.924589695,3.22217841851
8870,Izegem,Kerkestukstraat,9,50.9345341945,3.18870454797
8870,Izegem,Odiel Spruyttestraat,22,50.9105752602,3.20432997319
8870,Izegem,President Kennedylaan,3,50.930455219,3.21210415275
8870,Izegem,Kachtemsestraat,39,50.9294341569,3.20705073156
8870,Izegem,Lendeleedsestraat,156,50.9100618139,3.23207750962
8870,Izegem,Zwingelaarsstraat,35,50.9097753539,3.21559537896
8870,Izegem,Ferdinand Snellaertstraat,26,50.9262170206,3.22574857904
8870,Izegem,Lieven Gevaertlaan,4,50.9258497339,3.2066283133
8870,Izegem,Graaf de Montblanclaan,24,50.9246417741,3.23258770306
8870,Izegem,Gerard Walschapstraat,15,50.9298512784,3.22618248532
8870,Izegem,Lodewijk de Raetlaan,43,50.9304257346,3.18847008119
8870,Izegem,Oekensestraat,34,50.9239627461,3.18484640466
8870,Izegem,Guido Gezellestraat,18,50.9244251748,3.22058544575
8870,Izegem,Zevekotestraat,10,50.9152901585,3.22729860292
8870,Izegem,Blekerijstraat,37,50.9070323268,3.20373399564
8870,Izegem,Heyestraat,13,50.9117533984,3.20851394686
8870,Izegem,Sasstraat,10,50.9297890456,3.18101814135
8870,Izegem,Roeselaarsestraat,541,50.9301340354,3.17474637786
8870,Izegem,Slabbaardstraat-Zuid,11,50.9074513538,3.21125507533
8870,Izegem,Tinnenpotstraat,47,50.9432232316,3.21260532239
8870,Izegem,Klijtstraat,35,50.9113246012,3.20130230871
8870,Izegem,Blekerijstraat,192,50.8987164878,3.19958830503
8870,Izegem,Arenbergstraat,4,50.9112046063,3.22256518836
8870,Izegem,Hondekensmolenstraat,57,50.9079686382,3.22724275649
8870,Izegem,Berkenstraat,11,50.9148847258,3.1838129339
8870,Izegem,Stuivenbergstraat,84,50.9238546803,3.19748116777
8870,Izegem,Krekelmotestraat,12,50.9209941043,3.2002178771
8870,Izegem,Meensesteenweg,239,50.8955713501,3.18958736427
8870,Izegem,Karel de Goedelaan,27,50.903300254,3.19743674806
8870,Izegem,Eigenhaardstraat,31,50.9105354224,3.21604613173
8870,Izegem,Mandelstraat,6,50.9219720351,3.20081000293
8870,Izegem,Leenstraat,72,50.9068228424,3.19358605371
8870,Izegem,Ingelmunstersestraat,10,50.9236335719,3.23190657418
8870,Izegem,Lodewijk Dosfelstraat,16,50.9264269943,3.22732644115
8870,Izegem,Vijfwegenstraat,72,50.9275796846,3.21485266438
8870,Izegem,Molstraat,93,50.9117323093,3.18485720917
8870,Izegem,Blauwhuisstraat,12,50.915292416,3.22418454947
8870,Izegem,Burgemeester Vandenbogaerdelaan,30,50.9150388701,3.21114927272
8870,Izegem,Meensestraat,103,50.9135792718,3.21274731609
8870,Izegem,Jan Breydelstraat,72,50.8987977403,3.19615845666
8870,Izegem,Lendeleedsestraat,83,50.9147005786,3.2277995952
8870,Izegem,Meensesteenweg,114,50.9062327065,3.1995155421
8870,Izegem,Katteboomstraat,11,50.9100462828,3.2305566124
8870,Izegem,Heilig Hartstraat,35,50.9174517632,3.20357534746
8870,Izegem,Hooghoutstraat,12,50.9058565978,3.23798028929
8870,Izegem,Sint-Jansstraat,12,50.9325756162,3.19303699508
8870,Izegem,Mandelstraat,58,50.9232347513,3.20105539815
8870,Izegem,Noordkaai,21,50.9300767964,3.18802944293
8870,Izegem,Kokelarestraat,43,50.9075723806,3.19875728288
8870,Izegem,Sint-Crispijnstraat,5,50.9191722139,3.20807705033
8870,Izegem,Kortrijksestraat,29,50.9155569704,3.21654494233
8870,Izegem,Onze-Lieve-Vrouwestraat,11,50.918819932,3.20892021448
8870,Izegem,Molenweg,26,50.9208582201,3.20748876661
8870,Izegem,Oekensestraat,69,50.9235854096,3.18464041921
8870,Izegem,Rozemarijnstraat,10,50.9332239418,3.19327343466
8870,Izegem,Vlietmanstraat,26,50.9145016814,3.22869512117
8870,Izegem,Herman Roelstraeteplein,1,50.9214384058,3.20724655482
8870,Izegem,Baron de Pélichystraat,31,50.9166159654,3.21256433398
8870,Izegem,Blauwhuisstraat,30,50.914714903,3.22419691758
8870,Izegem,Slabbaardstraat-Noord,54,50.9129114054,3.21275977305
8870,Izegem,Roeselaarsestraat,648,50.9288044397,3.18167952181
8870,Izegem,Baronstraat,38,50.924098413,3.22858771421
8870,Izegem,Nederweg,129,50.9228268578,3.20271283757
8870,Izegem,Lendeleedsestraat,37,50.9156236706,3.22537168239
8870,Izegem,Kortrijksestraat,162,50.9103759894,3.21684040927
8870,Izegem,Prinsdomlaan,9,50.9102152859,3.22263739553
8870,Izegem,Jan Breydelstraat,54,50.8991079896,3.19644543031
8870,Izegem,Meensesteenweg,160,50.9039436105,3.19579639358
8870,Izegem,Warandestraat,6,50.9223635908,3.23199933747
8870,Izegem,Prins Albertlaan,28,50.923474941,3.20253700433
8870,Izegem,Vlasgaardstraat,29,50.9104026636,3.21515137687
8870,Izegem,Krekelstraat,37,50.916036018,3.21300555745
8870,Izegem,Krekelstraat,83,50.9153846085,3.21037035333
8870,Izegem,Lendeleedsestraat,65,50.9150188355,3.22660534843
8870,Izegem,Graaf de Montblanclaan,2,50.9245698066,3.23437960509
8870,Izegem,Ter Beemden,53,50.9065392722,3.19647396012
8870,Izegem,Kortrijksestraat,201,50.9103430789,3.21832652611
8870,Izegem,Krekelmotestraat,30,50.9202844137,3.1999661473
8870,Izegem,Lendeleedsestraat,19,50.9157861126,3.22478818422
8870,Izegem,Wijngaardstraat,5,50.9188705762,3.21195157012
8870,Izegem,Negenhoekstraat,6,50.9062039242,3.20144920183
8870,Izegem,Katteboomstraat,115,50.8981132749,3.2310183
8870,Izegem,Oekensestraat,16,50.9241873875,3.18687129983
8870,Izegem,Roterijstraat,11,50.9064489809,3.20208951495
8870,Izegem,Dam,19,50.9236777009,3.21687182801
8870,Izegem,Slabbaardstraat-Zuid,46,50.9039900163,3.20925694546
8870,Izegem,Meensesteenweg,304,50.8972637868,3.18945020444
8870,Izegem,Groeningestraat,7,50.9114561227,3.21606349503
8870,Izegem,Krekelstraat,19,50.9160460236,3.21361173876
8870,Izegem,Vuurdoornstraat,3,50.9349222758,3.19314312131
8870,Izegem,Heilig Hartstraat,17,50.9160396959,3.20875250819
8870,Izegem,Heilig Hartstraat,47,50.9175390361,3.20190559177
8870,Izegem,Baron de Pélichystraat,13,50.917209544,3.21291480868
8870,Izegem,Marktstraat,3,50.9178494668,3.21462397267
8870,Izegem,Meensesteenweg,142,50.9048558402,3.19718055431
8870,Izegem,Korenmarkt,19,50.9197698635,3.21452784619
8870,Izegem,Marelputstraat,20,50.9223674264,3.18430571887
8870,Izegem,Negenhoekstraat,58,50.9049204628,3.19950711395
8870,Izegem,Vijfwegenstraat,54,50.9270957936,3.21533527456
8870,Izegem,Meensestraat,121,50.91313993,3.21229252945
8870,Izegem,Kardinaal Cardijnlaan,5,50.9163736905,3.20179644972
8870,Izegem,Kouterweg,101,50.9247910952,3.22115743301
8870,Izegem,Burgemeester Vandenbogaerdelaan,12,50.9157001238,3.21157911524
8870,Izegem,Monseigneur Bouckaertstraat,32,50.9129913502,3.22720984485
8870,Izegem,Mariastraat,18,50.9310252969,3.21082536459
8870,Izegem,Krekelstraat,65,50.9158157664,3.2110157779
8870,Izegem,Brugstraat,39,50.9219634348,3.21606713662
8870,Izegem,Roeselaarsestraat,312,50.9219069079,3.19997426485
8870,Izegem,Dam,37,50.9243336244,3.21696199407
8870,Izegem,Merelstraat,8,50.9279756233,3.22900752977
8870,Izegem,Kruidenstraat,40,50.9335446194,3.19128694238
8870,Izegem,Blekerijstraat,19,50.9074826099,3.20387412235
8870,Izegem,Hogestraat,110,50.9403270817,3.18739806769
8870,Izegem,Camiel Ameyestraat,11,50.9206948162,3.20565641628
8870,Izegem,Wilgenstraat,9,50.9157335477,3.18446706268
8870,Izegem,Schoonveldestraat,1,50.9120955103,3.22071848952
8870,Izegem,Vuurkruiserslaan,95,50.92026556,3.19396321992
8870,Izegem,Vijfwegenstraat,4,50.925215532,3.21680095719
8870,Izegem,Prinsessestraat,98,50.9226983396,3.22435976974
8870,Izegem,Leenstraat,4,50.9139142072,3.19593874503
8870,Izegem,Krommestraat,22,50.9392094594,3.20315960853
8870,Izegem,Blekerijstraat,65,50.9063826809,3.2033718795
8870,Izegem,Tinnenpotstraat,20,50.9345614187,3.21143970654
8870,Izegem,Jan Breydelstraat,4,50.900046244,3.19609473585
8870,Izegem,Hoveniersstraat,6,50.918418165,3.20671010542
8870,Izegem,Nieuwstraat,10,50.9185184106,3.21376952581
8870,Izegem,Prinsessestraat,1,50.9222630758,3.23036417717
8870,Izegem,Neerhofstraat,28,50.9119249549,3.22446925947
8870,Izegem,Boomforeeststraat,40,50.914690589,3.22302109995
8870,Izegem,Hogestraat,72,50.9400192929,3.19000011424
8870,Izegem,Rozenlaan,47,50.9074320018,3.21505555143
8870,Izegem,Guido Gezellestraat,46,50.9255765929,3.22104776393
8870,Izegem,Slagmeersenstraat,89,50.9142204637,3.22640859842
8870,Izegem,Mariastraat,36,50.9310126663,3.21005445325
8870,Izegem,Kouterweg,81,50.9247786642,3.22266611928
8870,Izegem,Wezestraat,85,50.934729241,3.21472942357
8870,Izegem,Hondstraat,17,50.9200553953,3.21204925382
8870,Izegem,Tijmstraat,10,50.9329729845,3.19347676565
8870,Izegem,Europalaan,19,50.9136617449,3.20029678507
8870,Izegem,Roeselaarsestraat,365,50.9237018696,3.19216391236
8870,Izegem,Blekerijstraat,103,50.9053671911,3.20267248194
8870,Izegem,Ter Wallenstraat,3,50.9125439108,3.21721343982
8870,Izegem,Haverhuisstraat,5,50.934590696,3.18649839811
8870,Izegem,Baronielaan,28,50.9122292373,3.22153263546
8870,Izegem,Oude Iepersestraat,48,50.8994608011,3.19159287085
8870,Izegem,Vredestraat,19,50.9219265185,3.21282999182
8870,Izegem,Ardooisestraat,217,50.9434476221,3.20279806621
8870,Izegem,Kapucijnenlaan,25,50.9213499234,3.19595528643
8870,Izegem,Burgemeester Vandenbogaerdelaan,83,50.9107004095,3.2092488472
8870,Izegem,Molenhoekstraat,90,50.906590831,3.21691318537
8870,Izegem,Ter Elststraat,22,50.9111202883,3.2198322137
8870,Izegem,Walbeekstraat,14,50.9325254949,3.1893794681
8870,Izegem,Ferdinand Snellaertstraat,4,50.9275884598,3.22613271009
8870,Izegem,Slabbaardstraat-Zuid,64,50.9027381367,3.20861462247
8870,Izegem,Negenhoekstraat,23,50.9057044419,3.20134345503
8870,Izegem,Wallemotestraat,12,50.9129306178,3.19950806805
8870,Izegem,Wijngaardstraat,14,50.9188839023,3.21239215167
8870,Izegem,Wezestraat,123,50.936217393,3.21745978516
8870,Izegem,Prinsessestraat,134,50.9231088808,3.22235269412
8870,Izegem,Prinsessestraat,116,50.9227718993,3.22371547704
8870,Izegem,Henri Dewaelestraat,16,50.9001255544,3.19248100102
8870,Izegem,Kasteelstraat,38,50.9179062313,3.22051087016
8870,Izegem,Prinsdomlaan,62,50.9102837293,3.22944438151
8870,Izegem,Pieter De Coninckstraat,49,50.9004561395,3.19688949107
8870,Izegem,Hugo Verrieststraat,28,50.9248900379,3.2190555921
8870,Izegem,Dweersstraat,10,50.9153704933,3.21360360871
8870,Izegem,Kachtemsplein,7,50.9323140147,3.19253564189
8870,Izegem,Gentseheerweg,100,50.9164319166,3.23633857596
8870,Izegem,Robert Schumanstraat,20,50.9152343984,3.19824142768
8870,Izegem,Kouterweg,63,50.9246419273,3.22352464044
8870,Izegem,Meensestraat,12,50.9152598004,3.21421445535
8870,Izegem,Sint-Antoniusstraat,7,50.9226671345,3.19859139443
8870,Izegem,Emelgemseplein,3,50.9218554915,3.23097174005
8870,Izegem,Ardooisestraat,235,50.9442837536,3.20431605179
8870,Izegem,Winkelhoekstraat,20,50.9000736642,3.22835970198
8870,Izegem,Ciepenstraat,19,50.9021768476,3.21857982953
8870,Izegem,Burgemeester Vandenbogaerdelaan,65,50.9113711871,3.20959519771
8870,Izegem,Molenhoekstraat,72,50.9075143301,3.21725270808
8870,Izegem,Gravenstraat,13,50.9233412747,3.22490809009
8870,Izegem,Hogestraat,109,50.9388999869,3.1872591103
8870,Izegem,Egaalstraat,21,50.9333815517,3.20418668957
8870,Izegem,Lendeleedsestraat,103,50.9140908878,3.22800724912
8870,Izegem,Hondstraat,35,50.9202839333,3.21130059788
8870,Izegem,Kachtemsestraat,49,50.9296812718,3.20609274268
8870,Izegem,Ingelmunstersestraat,45,50.9238588174,3.23305428834
8870,Izegem,Robert Schumanstraat,1,50.9160417319,3.19922481481
8870,Izegem,Vlietmanstraat,4,50.9162401208,3.22926645807
8870,Izegem,Dirk Martenslaan,41,50.9178460771,3.21856086337
8870,Izegem,Mariastraat,11,50.9306918035,3.21126863577
8870,Izegem,Molenweg,4,50.9211086834,3.2081795282
8870,Izegem,Hogestraat,90,50.9405263273,3.18959421892
8870,Izegem,Esdoornstraat,12,50.9124584186,3.18839999296
8870,Izegem,Grote Markt,30,50.919753174,3.21493404298
8870,Izegem,Kortrijksestraat,197,50.9104494321,3.21802316125
8870,Izegem,Kachtemsestraat,85,50.9311785548,3.20189379777
8870,Izegem,Boomforeeststraat,29,50.9146604281,3.22344094587
8870,Izegem,Mandelstraat,23,50.9223905833,3.20047969454
8870,Izegem,Vuurkruiserslaan,7,50.9228410974,3.19138907094
8870,Izegem,Kortrijksestraat,254,50.9071338978,3.22007689067
8870,Izegem,Odiel Spruyttestraat,19,50.910251616,3.20472137638
8870,Izegem,Prinsdomlaan,44,50.9101287672,3.22765028093
8870,Izegem,Roeselaarsestraat,139,50.9200342538,3.20568003156
8870,Izegem,Walbeekstraat,5,50.9330345413,3.19017820201
8870,Izegem,Jan Breydelstraat,26,50.8997440548,3.19617393345
8870,Izegem,Heibrugstraat,10,50.9185251426,3.19550655906
8870,Izegem,Prinsessestraat,27,50.9223713001,3.22671070346
8870,Izegem,Leenstraat,26,50.9120665078,3.19550848571
8870,Izegem,Schoolstraat,47,50.9118014262,3.21386403039
8870,Izegem,Vijfwegenstraat,26,50.9263101117,3.21592059384
8870,Izegem,Pater Ver Eeckestraat,48,50.9374421847,3.19534690722
8870,Izegem,Europalaan,37,50.9138774192,3.19936517819
8870,Izegem,Rumbeeksestraat,31,50.93174354,3.1890600863
8870,Izegem,Roeselaarsestraat,340,50.9223449347,3.19827710831
8870,Izegem,Wantje Pietersstraat,30,50.9223408129,3.20232094659
8870,Izegem,Sint-Sebastiaanslaan,21,50.9209672544,3.19398022781
8870,Izegem,Sint-Crispijnstraat,14,50.9190747251,3.20771876547
8870,Izegem,Krekelmotestraat,42,50.9199759481,3.19983017007
8870,Izegem,Hendrik Consciencestraat,24,50.9254333071,3.23489900181
8870,Izegem,Elf-Julistraat,6,50.9345551864,3.18601597656
8870,Izegem,Bellevuestraat,151,50.9144696014,3.20343601194
8870,Izegem,Stuivenbergstraat,31,50.9232576182,3.19947593675
8870,Izegem,Laurierstraat,13,50.9341910996,3.19258720656
8870,Izegem,Azalealaan,18,50.9084080119,3.21644899928
8870,Izegem,Schoolstraat,55,50.9116573858,3.21412795335
8870,Izegem,Roeselaarsestraat,275,50.9215759122,3.19995035793
8870,Izegem,Kardinaal Cardijnlaan,14,50.9174697475,3.20055091341
8870,Izegem,'t Groentje,7,50.9353379457,3.19199717907
8870,Izegem,Grote Markt,12,50.9198549957,3.2159836299
8870,Izegem,Emiel Neirynckstraat,28,50.9118951727,3.22576933425
8870,Izegem,Lodewijk de Raetlaan,15,50.9283261972,3.20326506827
8870,Izegem,Blauwhuisstraat,42,50.9143443177,3.22418760332
8870,Izegem,Krekelstraat,192,50.9141673522,3.20423508
8870,Izegem,Lendeleedsestraat,174,50.9097894958,3.23300740978
8870,Izegem,Elegastlaan,25,50.9059352559,3.22348988507
8870,Izegem,Baronstraat,171,50.9272195941,3.21635304887
8870,Izegem,Sint-Jorisstraat,37,50.9132133983,3.20806304635
8870,Izegem,Mariastraat,46,50.9313458366,3.20987067296
8870,Izegem,Ter Wallenstraat,40,50.9136981405,3.21889766901
8870,Izegem,Manegemstraat,77,50.9022893719,3.20733557461
8870,Izegem,Beiaardstraat,44,50.906404112,3.21331592177
8870,Izegem,Mezegemstraat,17,50.9423225195,3.17924907046
8870,Izegem,Ardooisestraat,127,50.9370437789,3.20585731114
8870,Izegem,Roeselaarsestraat,222,50.9209043418,3.20367344428
8870,Izegem,Rijksweg,20,50.9017687056,3.22345980667
8870,Izegem,Stuivenbergstraat,153,50.923684262,3.19399887573
8870,Izegem,Prins Albertlaan,56,50.924482857,3.19871939931
8870,Izegem,Hondsmertjesstraat,29,50.9341394198,3.1971988045
8870,Izegem,Koning Leopold III-straat,9,50.9251578958,3.23592087156
8870,Izegem,Elckerliclaan,7,50.9052089869,3.22234450071
8870,Izegem,Wezestraat,49,50.9298754138,3.21505771761
8870,Izegem,Veldstraat,4,50.9408703702,3.22521928457
8870,Izegem,Wallemotestraat,83,50.9099861273,3.19398015627
8870,Izegem,Ingelmunstersestraat,63,50.9236586935,3.23479577111
8870,Izegem,Sint-Jorisstraat,19,50.9143203185,3.20858378694
8870,Izegem,Lendeleedsestraat,121,50.9134070032,3.22827742389
8870,Izegem,Molstraat,75,50.9124444577,3.18506366514
8870,Izegem,Kruisstraat,10,50.9191501722,3.21115658715
8870,Izegem,Sint-Jansstraat,30,50.9330179732,3.19686670036
8870,Izegem,Binnenstraat,10,50.9419829532,3.19001582892
8870,Izegem,Molenhoekstraat,54,50.908269933,3.21754189766
8870,Izegem,Emiel Moysonstraat,18,50.9276397914,3.22732611905
8870,Izegem,Molstraat,57,50.9134254163,3.18556427664
8870,Izegem,Reperstraat,61,50.9264005179,3.21731101746
8870,Izegem,Meensestraat,83,50.9137991446,3.21325586379
8870,Izegem,Slabbaardstraat-Noord,26,50.9135626124,3.2134302055
8870,Izegem,Rozenlaan,55,50.9071474761,3.21543323789
8870,Izegem,Meensesteenweg,249,50.8948003789,3.18900197917
8870,Izegem,Marktstraat,22,50.918463942,3.21539126489
8870,Izegem,Stuivenbergstraat,100,50.9239631735,3.19616255445
8870,Izegem,Sint-Sebastiaanslaan,56,50.9206651823,3.19177034212
8870,Izegem,Roeselaarsestraat,61,50.9189740827,3.2095910009
8870,Izegem,Guido Gezellestraat,36,50.9252278266,3.22090664421
8870,Izegem,Hondsmertjesstraat,40,50.9347159205,3.19716634751
8870,Izegem,Baronstraat,100,50.9261545101,3.22267108536
8870,Izegem,Boterstraat,21,50.9011634688,3.19450817377
8870,Izegem,Hondekensmolenstraat,22,50.9078902615,3.22247955475
8870,Izegem,Rozenlaan,73,50.9063936835,3.2181532328
8870,Izegem,Krekelmotestraat,60,50.9183537701,3.19778577493
8870,Izegem,Schardouwstraat,17,50.9242643791,3.18317878669
8870,Izegem,Meensestraat,30,50.9146716695,3.21387820872
8870,Izegem,Blekerijstraat,174,50.8995454853,3.20009271025
8870,Izegem,Emelgemsestraat,14,50.9179299967,3.22921521363
8870,Izegem,Wallemotestraat,65,50.9119508182,3.19500610901
8870,Izegem,Roeselaarsestraat,204,50.920589299,3.2045244264
8870,Izegem,Ommegangstraat,61,50.9162480403,3.20937569464
8870,Izegem,Leon Defauwstraat,16,50.9171941179,3.21928937191
8870,Izegem,Baronstraat,13,50.9237584356,3.22887903367
8870,Izegem,Haaipanderstraat,97,50.9430298889,3.22802821593
8870,Izegem,Wezestraat,67,50.9304072726,3.21516642551
8870,Izegem,Kortrijksestraat,3,50.915627831,3.21537345254
8870,Izegem,Roeselaarsestraat,257,50.9213308725,3.2008949353
8870,Izegem,Schoolstraat,73,50.9115063649,3.21481624838
8870,Izegem,Ghistelstraat,55,50.927153715,3.23845717522
8870,Izegem,Mgr. De Keyzerstraat,16,50.928575549,3.22626602458
8870,Izegem,Krekelstraat,121,50.9146808313,3.20803716091
8870,Izegem,Wantje Pietersstraat,12,50.9218948797,3.20215707078
8870,Izegem,Oude Iepersestraat,52,50.8997245852,3.19071418061
8870,Izegem,Meensestraat,65,50.9142643617,3.21368187081
8870,Izegem,Ter Wallenstraat,29,50.9132412287,3.21710546899
8870,Izegem,Kruidenstraat,3,50.9333645985,3.19177746399
8870,Izegem,Haaipanderstraat,34,50.9280909195,3.23165738497
8870,Izegem,Mentenhoekstraat,27,50.9194497577,3.19736702497
8870,Izegem,Kouterweg,45,50.9240878661,3.22487425569
8870,Izegem,Beiaardstraat,9,50.9071269682,3.21227662342
8870,Izegem,Stuivenbergstraat,66,50.9237662514,3.19802631978
8870,Izegem,Hendrik Consciencestraat,2,50.9245351919,3.23484529945
8870,Izegem,Ardooisestraat,90,50.9360073815,3.20728658857
8870,Izegem,Karel de Goedelaan,1,50.9043310563,3.19894806757
8870,Izegem,Prinsessestraat,159,50.9233125997,3.21801900694
8870,Izegem,Gapaardstraat,41,50.9019880064,3.20734416284
8870,Izegem,Rozenlaan,20,50.9078385915,3.2126359204
8870,Izegem,Klijtstraat,17,50.9120201706,3.20077534335
8870,Izegem,Blekerijstraat,121,50.9048774725,3.2020558887
8870,Izegem,Gentseheerweg,84,50.9165539937,3.23250902709
8870,Izegem,Ingelmunstersestraat,81,50.9232495073,3.23685350378
8870,Izegem,Kachtemsestraat,67,50.9304510908,3.20371066869
8870,Izegem,Wallemotestraat,30,50.9138477841,3.19786072181
8870,Izegem,Krekelstraat,174,50.9142701448,3.20500063556
8870,Izegem,Kruisstraat,45,50.920327634,3.21089059973
8870,Izegem,Manestraat,42,50.944524002,3.19226962673
8870,Izegem,Ardooisestraat,109,50.9357224714,3.20674927402
8870,Izegem,Stuivenbergstraat,13,50.9231529528,3.20011607308
8870,Izegem,Baronstraat,153,50.9269946699,3.21837387354
8870,Izegem,Esdoornstraat,30,50.9137758022,3.18903656951
8870,Izegem,Kardinaal Cardijnlaan,59,50.914810828,3.20089508798
8870,Izegem,Schoolstraat,20,50.9117264843,3.21284382964
8870,Izegem,Mezegemstraat,35,50.9437880339,3.17598173417
8870,Izegem,Slagmeersenstraat,18,50.9122610223,3.21770388558
8870,Izegem,Boomforeeststraat,3,50.9154619762,3.22359405112
8870,Izegem,Marktstraat,57,50.9192924122,3.2154374805
8870,Izegem,Heilig Hartstraat,45,50.91753013,3.20216764962
8870,Izegem,Leenstraat,79,50.9068520001,3.19465006591
8870,Izegem,Roeselaarsestraat,157,50.9202276961,3.2046870036
8870,Izegem,Ketelstraat,9,50.9202895731,3.21525781329
8870,Izegem,Meensesteenweg,232,50.9009955144,3.19155142784
8870,Izegem,Burgemeester Vandenbogaerdelaan,37,50.9147991382,3.21163743845
8870,Izegem,Blekerijstraat,12,50.9068783991,3.20306211297
8870,Izegem,Vijfwegenstraat,79,50.927682564,3.21423303124
8870,Izegem,Blauwhuisstraat,5,50.9152174438,3.22461928674
8870,Izegem,Manestraat,19,50.9423539613,3.18793446885
8870,Izegem,Berkenstraat,18,50.9154356764,3.18482230072
8870,Izegem,Vuurkruiserslaan,42,50.9215444605,3.19221157046
8870,Izegem,Reperstraat,157,50.9407723661,3.22099223758
8870,Izegem,Kokelarestraat,33,50.9073034805,3.19910993965
8870,Izegem,Kerkestukstraat,16,50.9351936281,3.18677901144
8870,Izegem,Kerelsstraat,9,50.9233145345,3.22900402994
8870,Izegem,Hogestraat,26,50.9340719618,3.19051168677
8870,Izegem,President Kennedylaan,22,50.9296226799,3.21100520758
8870,Izegem,Prinsessestraat,55,50.9222899205,3.22514634805
8870,Izegem,Guido Gezellestraat,11,50.9242193469,3.22005706046
8870,Izegem,Roeselaarsestraat,453,50.9257857829,3.18638695785
8870,Izegem,Zevekotestraat,3,50.915676495,3.226782345
8870,Izegem,Brugstraat,49,50.9222886228,3.21625103448
8870,Izegem,Kouterweg,17,50.9237454221,3.22676035194
8870,Izegem,Blekerijstraat,30,50.9063901249,3.20271761437
8870,Izegem,Ter Beemden,25,50.9050979124,3.19613100129
8870,Izegem,Prinsdomlaan,34,50.9099784137,3.22622196407
8870,Izegem,Prinsdomlaan,16,50.9098697522,3.2238883824
8870,Izegem,Kouterweg,35,50.9237032543,3.22599226874
8870,Izegem,Korenmarkt,12,50.9199014157,3.21389864964
8870,Izegem,Peter Benoitstraat,37,50.9245321622,3.22176432342
8870,Izegem,Zwaluwstraat,3,50.9436100851,3.22239412013
8870,Izegem,Beiaardstraat,80,50.9052765266,3.21231037965
8870,Izegem,Prins Albertlaan,99,50.9284389914,3.18522944139
8870,Izegem,Negenhoekstraat,41,50.9053106538,3.20057405052
8870,Izegem,Tulpenlaan,58,50.9082584481,3.21544477846
8870,Izegem,Gentsestraat,84,50.9160276777,3.22032597802
8870,Izegem,Tinnenpotstraat,63,50.9430154242,3.20966976693
8870,Izegem,Schardouwstraat,10,50.9251668305,3.18238472555
8870,Izegem,Kachtemsestraat,32,50.9294230442,3.20885701053
8870,Izegem,Kruisstraat,35,50.9201120169,3.21068711862
8870,Izegem,Mentenhoekstraat,8,50.9198322159,3.19754793342
8870,Izegem,Krekelstraat,12,50.9163051636,3.213853256
8870,Izegem,Anjelierenlaan,13,50.9085472384,3.21329604947
8870,Izegem,Manestraat,37,50.9448367506,3.19231187938
8870,Izegem,Reperstraat,175,50.9428732008,3.22181872107
8870,Izegem,Koning Boudewijnstraat,18,50.9241643245,3.23671850909
8870,Izegem,Peter Benoitstraat,19,50.9241616404,3.22145744899
8870,Izegem,Visschersdreef,12,50.9201173491,3.20247986538
8870,Izegem,Karel de Goedelaan,20,50.9030264667,3.1963614323
8870,Izegem,Rode Poortstraat,15,50.9117105236,3.21961299703
8870,Izegem,Koning Boudewijnstraat,4,50.9241873299,3.23513164548
8870,Izegem,Lendeleedsestraat,12,50.9155365372,3.22416935563
8870,Izegem,Roeselaarsestraat,175,50.9205476428,3.20352341881
8870,Izegem,9de Liniestraat,26,50.9332091136,3.18834802864
8870,Izegem,Roeselaarsestraat,548,50.9249285864,3.18874411451
8870,Izegem,Reperstraat,43,50.9259376731,3.21729064631
8870,Izegem,Binnenstraat,17,50.9432848153,3.19152883461
8870,Izegem,Meensesteenweg,53,50.9069695588,3.20179376263
8870,Izegem,Burgemeester Vandenbogaerdelaan,19,50.9153412823,3.2119318409
8870,Izegem,Liesterstraat,1,50.9422677528,3.21504169417
8870,Izegem,Molenhoekstraat,26,50.9089614546,3.21764055624
8870,Izegem,Pieter Pruimstraat,21,50.9356336008,3.18603518833
8870,Izegem,Vuurkruiserslaan,60,50.9204154737,3.19305045069
8870,Izegem,Prinsessestraat,206,50.9238425433,3.21815267277
8870,Izegem,Priester Pattynstraat,6,50.9396419143,3.18562683572
8870,Izegem,Baronstraat,31,50.9239847751,3.22807811086
8870,Izegem,Hazelaarstraat,24,50.9105407988,3.18978405374
8870,Izegem,Mezegemstraat,10,50.9411223166,3.18364018909
8870,Izegem,Hondekensmolenstraat,40,50.9074463644,3.22438469585
8870,Izegem,Rozemarijnstraat,3,50.9335108654,3.19369107987
8870,Izegem,Prinsessestraat,73,50.9226355289,3.22326477238
8870,Izegem,Roeselaarsestraat,471,50.9258498194,3.18548703093
8870,Izegem,Slagmeersenstraat,46,50.9127750627,3.21914254324
8870,Izegem,Kortrijksestraat,244,50.9075757637,3.21996512676
8870,Izegem,Sint-Jansstraat,19,50.9327474613,3.1941200728
8870,Izegem,Koningin Astridlaan,21,50.9255901143,3.23354996965
8870,Izegem,Lendeleedsestraat,274,50.8986410968,3.23484871942
8870,Izegem,Oude Iepersestraat,70,50.8999467883,3.18923158069
8870,Izegem,Vlietmanstraat,54,50.9137985063,3.22907142071
8870,Izegem,Berkenstraat,4,50.9146820484,3.18413078315
8870,Izegem,Sasstraat,3,50.9299137256,3.18041150584
8870,Izegem,Kerkestukstraat,2,50.9353035876,3.18840833077
8870,Izegem,Odiel Spruyttestraat,29,50.9102706203,3.20415323057
8870,Izegem,Graaf de Montblanclaan,9,50.9242351271,3.23374958156
8870,Izegem,Prinsessestraat,91,50.922716007,3.22269441699
8870,Izegem,Nieuwstraat,3,50.9183502142,3.21316734755
8870,Izegem,Prins Albertlaan,21,50.9222908184,3.20633120985
8870,Izegem,Vlietmanstraat,72,50.9133278454,3.22907928665
8870,Izegem,Dweersstraat,35,50.9152365689,3.21273837816
8870,Izegem,Vijverhof,16,50.9085071542,3.20095683563
8870,Izegem,Merelstraat,33,50.9278693121,3.22441297274
8870,Izegem,Brugstraat,32,50.9219487437,3.21643930776
8870,Izegem,Haverhuisstraat,30,50.9341876792,3.18776200069
8870,Izegem,Lendeleedsestraat,30,50.9150694183,3.22611176301
8870,Izegem,Krekelmotestraat,19,50.9209367402,3.20055199357
8870,Izegem,Henri Dunantstraat,14,50.9113566649,3.22389636376
8870,Izegem,Heibrugstraat,17,50.917899363,3.19564621508
8870,Izegem,Kortrijksestraat,75,50.914454441,3.21589973931
8870,Izegem,Herman Roelstraeteplein,8,50.9211033162,3.20701745181
8870,Izegem,Ghistelstraat,47,50.9268744075,3.23826318094
8870,Izegem,Dam,30,50.9242215475,3.21752518864
8870,Izegem,Camiel Ameyestraat,18,50.9206350801,3.20598859105
8870,Izegem,Oekensestraat,62,50.9238883392,3.1822463351
8870,Izegem,Groeningestraat,14,50.9115732443,3.21559375591
8870,Izegem,Prinsdomlaan,2,50.9098727204,3.22174974381
8870,Izegem,Monseigneur Bouckaertstraat,39,50.9128987503,3.22694161138
8870,Izegem,Krekelmotestraat,103,50.9166551315,3.19860879027
8870,Izegem,Beukendreef,24,50.9194577682,3.20355416102
8870,Izegem,Burgemeester Vandenbogaerdelaan,5,50.9158573104,3.21219446716
8870,Izegem,Kortrijksestraat,22,50.9145788341,3.21549307722
8870,Izegem,Blauwhuisstraat,19,50.914745694,3.2246538185
8870,Izegem,Eigenhaardstraat,38,50.9101802312,3.21589245367
8870,Izegem,Knobbaardstraat,8,50.9097258167,3.23422376927
8870,Izegem,Maria van Bourgondiëstraat,43,50.9007747473,3.19936917126
8870,Izegem,Tinnenpotstraat,27,50.9384739881,3.21246831455
8870,Izegem,Haverhuisstraat,12,50.933565564,3.18822965679
8870,Izegem,Wilgenstraat,16,50.9161680181,3.18465052294
8870,Izegem,Merelstraat,15,50.9278503174,3.22790666761
8870,Izegem,Prinsessestraat,8,50.922594127,3.22962447029
8870,Izegem,Krekelstraat,30,50.9162134584,3.21310302073
8870,Izegem,Zuidkaai,22,50.9230068446,3.21193842644
8870,Izegem,Neerhofstraat,21,50.9125421592,3.22487686821
8870,Izegem,Oekensestraat,44,50.9239514778,3.18384414479
8870,Izegem,Wezestraat,105,50.9347616015,3.21676404282
8870,Izegem,Rotselaan,11,50.9299285214,3.21073021199
8870,Izegem,Schoonveldestraat,8,50.9118984055,3.22031929578
8870,Izegem,Onze-Lieve-Vrouwestraat,4,50.9187588102,3.20854808931
8870,Izegem,Katteboomstraat,4,50.9103235616,3.2299735463
8870,Izegem,Kortrijksestraat,126,50.911403439,3.21657687251
8870,Izegem,Camiel Ameyestraat,54,50.9214738363,3.20629254836
8870,Izegem,Henri Dunantstraat,42,50.9107223135,3.22804839374
8870,Izegem,Blauwhuisstraat,37,50.9142192128,3.22458885278
8870,Izegem,Tinnenpotstraat,45,50.9431517424,3.21263113252
8870,Izegem,Priester Daensstraat,19,50.9168101663,3.20288242723
8870,Izegem,Priester Daensstraat,5,50.9171002226,3.20279430079
8870,Izegem,Merelstraat,61,50.9286672826,3.22088898955
8870,Izegem,Roeselaarsestraat,329,50.921895778,3.19707757007
8870,Izegem,Onze-Lieve-Vrouwestraat,18,50.9183637978,3.20841419885
8870,Izegem,Camiel Ameyestraat,4,50.9203479695,3.2058294294
8870,Izegem,Nederweg,147,50.9230860908,3.20176561132
8870,Izegem,Manestraat,5,50.9420364562,3.18639024922
8870,Izegem,Roeselaarsestraat,400,50.9230642486,3.19548972362
8870,Izegem,Abelestraat,84,50.9196611859,3.18798468486
8870,Izegem,Krekelmotestraat,37,50.9204953927,3.20047891296
8870,Izegem,Vlasbloemstraat,29,50.9070428649,3.21970401205
8870,Izegem,Roeselaarsestraat,566,50.9258757059,3.1883746414
8870,Izegem,Kortrijksestraat,57,50.9150063431,3.21570529108
8870,Izegem,Tulpenlaan,23,50.9089552019,3.21435478002
8870,Izegem,Hondstraat,10,50.9202229452,3.21237496501
8870,Izegem,Kerselaarstraat,24,50.9119915965,3.18717081104
8870,Izegem,Reperstraat,104,50.9314782994,3.22038250409
8870,Izegem,Bellevuestraat,39,50.9178059772,3.20502622357
8870,Izegem,Nieuwstraat,17,50.919030295,3.2134646544
8870,Izegem,Wantje Pietersstraat,37,50.9224924645,3.20202032405
8870,Izegem,Mentenhoekstraat,47,50.9191441629,3.19636524015
8870,Izegem,Europalaan,30,50.9145930171,3.1998850798
8870,Izegem,Roeselaarsestraat,638,50.9283580803,3.18246483682
8870,Izegem,Roeselaarsestraat,104,50.9196344164,3.20883339093
8870,Izegem,Kachtemsestraat,50,50.9296552407,3.20812573907
8870,Izegem,Mentenhoekstraat,91,50.9194814437,3.19319302612
8870,Izegem,Albrecht Rodenbachstraat,6,50.9253025439,3.2342609066
8870,Izegem,Zaligmakersstraat,24,50.9143463082,3.225324847
8870,Izegem,Klijtstraat,45,50.9106096436,3.20287422995
8870,Izegem,Stationsstraat,26,50.9206854972,3.21173504019
8870,Izegem,Moerbeziestraat,13,50.9342708554,3.19093594216
8870,Izegem,Heilig Hartstraat,10,50.9176167546,3.2089486506
8870,Izegem,Ommegangstraat,104,50.9157819273,3.20876029743
8870,Izegem,Pater Ver Eeckestraat,46,50.9372970958,3.19541157454
8870,Izegem,Kachtemsestraat,105,50.9317350252,3.20039667759
8870,Izegem,Rijksweg,98,50.8975225825,3.22950406005
8870,Izegem,Esdoornstraat,5,50.9129745318,3.18815535857
8870,Izegem,Kouterweg,88,50.9249899295,3.22109880382
8870,Izegem,Baronielaan,21,50.912804349,3.22210321378
8870,Izegem,Slagmeersenstraat,82,50.9137092538,3.22298090207
8870,Izegem,Vredestraat,30,50.9225562574,3.2136673608
8870,Izegem,16de Linie-Regimentsstraat,13,50.9312345721,3.21378432352
8870,Izegem,Wallemotestraat,5,50.9124316394,3.20041115047
8870,Izegem,Kortrijksestraat,108,50.9119858343,3.21621886863
8870,Izegem,Ardooisestraat,181,50.9406021999,3.2036899339
8870,Izegem,Koning Leopold III-straat,16,50.9248599808,3.23628737354
8870,Izegem,Vuurkruiserslaan,111,50.9201069196,3.19419220177
8870,Izegem,Ciepenstraat,30,50.901479444,3.22032448557
8870,Izegem,Klijtstraat,81,50.9117339852,3.19981502157
8870,Izegem,Sint-Sebastiaanslaan,28,50.9211724997,3.19360186442
8870,Izegem,Prinsessestraat,20,50.922632055,3.22885360598
8870,Izegem,Kapucijnenlaan,6,50.9220386532,3.19542104533
8870,Izegem,Kruidenstraat,22,50.9338081995,3.19231779917
8870,Izegem,Camiel Ameyestraat,36,50.9210308929,3.20613041302
8870,Izegem,Peter Benoitstraat,5,50.923802925,3.22142069594
8870,Izegem,Nederweg,68,50.9214710998,3.20815350233
8870,Izegem,Ardooisestraat,26,50.9294646895,3.21386300233
8870,Izegem,Woestijnstraat,1,50.8928957967,3.18651325908
8870,Izegem,Roeselaarsestraat,347,50.9232525301,3.19324241974
8870,Izegem,Hollebeekstraat,12,50.9076601886,3.18599418089
8870,Izegem,Ardooisestraat,66,50.9308092851,3.21310309333
8870,Izegem,Jasmijnenstraat,8,50.9088854354,3.2184708678
8870,Izegem,Boomforeeststraat,22,50.9152211736,3.22301811089
8870,Izegem,Kokelarestraat,61,50.9081382546,3.19687315642
8870,Izegem,Abelestraat,26,50.9225237286,3.18894977802
8870,Izegem,Katteboomstraat,36,50.9036628771,3.23080384103
8870,Izegem,Roeselaarsestraat,584,50.9261095603,3.1872663122
8870,Izegem,Robert Schumanstraat,8,50.9159351731,3.19863554706
8870,Izegem,Meensesteenweg,132,50.9051239995,3.19774602945
8870,Izegem,Wantje Pietersstraat,19,50.9220944252,3.20182681254
8870,Izegem,Rhodesstraat,6,50.9490424991,3.17954355722
8870,Izegem,Reperstraat,122,50.9374287391,3.22231628306
8870,Izegem,Gentseheerweg,117,50.9169111857,3.23957068176
8870,Izegem,Sint-Jorisstraat,12,50.9145118633,3.20827912189
8870,Izegem,Ardooisestraat,163,50.9402654681,3.2006048184
8870,Izegem,Nederweg,165,50.9232729358,3.20115245371
8870,Izegem,Sint-Jansstraat,5,50.9324690371,3.19334739589
8870,Izegem,Abelestraat,66,50.9206245048,3.18837763659
8870,Izegem,Winkelhoekstraat,27,50.9008452639,3.22759541164
8870,Izegem,Jacob van Arteveldestraat,39,50.8994206034,3.19744732405
8870,Izegem,Ghistelstraat,27,50.9255200546,3.23837046986
8870,Izegem,Hogestraat,79,50.9369915452,3.18808672354
8870,Izegem,Heibrugstraat,3,50.9187630904,3.19614320513
8870,Izegem,Stuivenbergstraat,38,50.9235805062,3.19908255812
8870,Izegem,Krysantenweg,10,50.907957696,3.21856098835
8870,Izegem,Koningin Elisabethlaan,29,50.9256501838,3.23692635739
8870,Izegem,Ommegangstraat,122,50.9151259486,3.20856530692
8870,Izegem,Grote Markt,19,50.9207116446,3.21554812882
8870,Izegem,Zandstraat,14,50.9268774913,3.17881388091
8870,Izegem,Wallemotestraat,37,50.912536392,3.19733310802
8870,Izegem,Roeselaarsestraat,96,50.9194546774,3.20926864773
8870,Izegem,Kachtemsestraat,7,50.9279090152,3.21325229591
8870,Izegem,Ardooisestraat,145,50.9384058415,3.20505976287
8870,Izegem,Marktstraat,29,50.9185590547,3.21499680653
8870,Izegem,Baronstraat,135,50.9265415889,3.22017934103
8870,Izegem,Leenstraat,109,50.9043499018,3.19376408649
8870,Izegem,Reperstraat,193,50.945316774,3.22555822308
8870,Izegem,Hondsmertjesstraat,22,50.9329748379,3.19929721576
8870,Izegem,Oekensestraat,97,50.9224358921,3.17986707919
8870,Izegem,Koning Leopold III-straat,2,50.9248388538,3.23529870214
8870,Izegem,Reperstraat,96,50.9289661255,3.21906773476
8870,Izegem,Kokelarestraat,116,50.9108556895,3.18532554704
8870,Izegem,Karel de Goedelaan,47,50.9012720666,3.19523624462
8870,Izegem,Maria van Bourgondiëstraat,25,50.9012310946,3.1983028663
8870,Izegem,Roeselaarsestraat,229,50.9210744008,3.20179356004
8870,Izegem,Lendeleedsestraat,256,50.900207555,3.23515269156
8870,Izegem,Wielewaalstraat,14,50.9305662237,3.2357254997
8870,Izegem,Baron de Pélichystraat,38,50.9164793578,3.2120848546
8870,Izegem,Kardinaal Cardijnlaan,60,50.9152112986,3.19947020021
8870,Izegem,Manegemstraat,42,50.9056226756,3.20770844632
8870,Izegem,Zevekotestraat,17,50.915571563,3.2274287197
8870,Izegem,Kapucijnenlaan,53,50.9203721718,3.19599620573
8870,Izegem,Kerkstraat,7,50.9170467877,3.21538254965
8870,Izegem,Kortrijksestraat,93,50.9140149529,3.21591436738
8870,Izegem,Molstraat,40,50.9150352607,3.18590457772
8870,Izegem,Rijksweg,27,50.9023197074,3.22387262418
8870,Izegem,Mentenhoekstraat,55,50.9192010827,3.19537531759
8870,Izegem,Lendeleedsestraat,138,50.9102741819,3.23151223526
8870,Izegem,Kortrijksestraat,226,50.908326044,3.21933376631
8870,Izegem,Krekelstraat,203,50.9136872399,3.20260996525
8870,Izegem,Sint-Antoniusstraat,14,50.9230395221,3.19902534011
8870,Izegem,Reperstraat,25,50.9255939851,3.21718200382
8870,Izegem,Meensestraat,37,50.9146374283,3.21439188182
8870,Izegem,Wantje Pietersstraat,5,50.9217682269,3.20168841387
8870,Izegem,Kachtemsplein,14,50.9313777723,3.19236689582
8870,Izegem,Pater Ver Eeckestraat,24,50.936029592,3.19540782882
8870,Izegem,Slagmeersenstraat,11,50.9125641004,3.21754898626
8870,Izegem,Krekelstraat,234,50.9134621207,3.20191273915
8870,Izegem,Kruisstraat,3,50.9191789099,3.21035953344
8870,Izegem,Jozef Demeulenaerestraat,1,50.9296752544,3.21466046269
8870,Izegem,Kasteelstraat,13,50.9198631754,3.2178089743
8870,Izegem,Bessenstraat,11,50.9349542176,3.19191460206
8870,Izegem,Gentsestraat,13,50.9175207369,3.21581977062
8870,Izegem,Ingelmunstersestraat,17,50.9238818018,3.23173058314
8870,Izegem,Emiel Neirynckstraat,21,50.9121612241,3.22611397164
8870,Izegem,Binnenstraat,3,49.2933351651,2.30668956214
8870,Izegem,Ardooisestraat,110,50.9369476362,3.2066083909
8870,Izegem,Roeselaarsestraat,25,50.918043798,3.21253430001
8870,Izegem,Papestraat,13,50.9164307411,3.21600325846
8870,Izegem,Leenstraat,127,50.9033729163,3.19330680969
8870,Izegem,Meensesteenweg,185,50.8983035781,3.19093264031
8870,Izegem,Krekelmotestraat,77,50.9171793533,3.19907729912
8870,Izegem,Meensestraat,19,50.9151313706,3.21480468665
8870,Izegem,Mentenhoekstraat,73,50.9194317697,3.19415048998
8870,Izegem,Zwingelaarsstraat,45,50.9097588003,3.21514543407
8870,Izegem,Baronstraat,117,50.9257372689,3.22293874139
8870,Izegem,Baronielaan,56,50.9090322236,3.21988343201
8870,Izegem,Karel de Goedelaan,8,50.903844478,3.19757503
8870,Izegem,Schoolstraat,27,50.9118834304,3.21310617987
8870,Izegem,Haaipanderstraat,80,50.9405707414,3.22988060305
8870,Izegem,Wezestraat,50,50.9297045192,3.21538883446
8870,Izegem,Meensestraat,5,50.9155105882,3.21485979376
8870,Izegem,Elegastlaan,6,50.906057303,3.22444512623
8870,Izegem,Ommegangstraat,78,50.9169030493,3.20913538025
8870,Izegem,Slabbaardstraat-Noord,90,50.9102978489,3.21197031226
8870,Izegem,Ommegangstraat,25,50.9174754946,3.20969384165
8870,Izegem,Roger Vandoornestraat,13,50.936714711,3.18703779871
8870,Izegem,Beiaardstraat,2,50.9069517554,3.21140119022
8870,Izegem,Wallemotestraat,19,50.9125071332,3.19957691719
8870,Izegem,Mentenhoekstraat,20,50.9194006184,3.19629796246
8870,Izegem,Ingelmunstersestraat,35,50.923856442,3.23258522694
8870,Izegem,Pieter Baesstraat,26,50.9142696025,3.20896532297
8870,Izegem,Kardinaal Cardijnlaan,42,50.9161598158,3.19984323806
8870,Izegem,Esdoornstraat,19,50.9146539896,3.18897369305
8870,Izegem,Emiel Moysonstraat,11,50.9270019838,3.22846229467
8870,Izegem,Rozenlaan,27,50.9077100912,3.21408691365
8870,Izegem,Marktstraat,40,50.9190690925,3.21565758943
8870,Izegem,Sint-Jansstraat,37,50.9333435737,3.19682741442
8870,Izegem,Gentsestraat,31,50.9177336317,3.21735143106
8870,Izegem,Hondsmertjesstraat,57,50.9358732198,3.19170830432
8870,Izegem,Roeselaarsestraat,78,50.9192044393,3.21014029616
8870,Izegem,Stuivenbergstraat,117,50.9235568885,3.19567527469
8870,Izegem,Hendrik Consciencestraat,9,50.9248731604,3.23435364199
8870,Izegem,Olmenstraat,7,50.9138764024,3.18428151584
8870,Izegem,Slagmeersenstraat,64,50.9135536845,3.22082164468
8870,Izegem,Wezestraat,7,50.9281206858,3.21463793232
8870,Izegem,Roeselaarsestraat,193,50.9207312572,3.20290995511
8870,Izegem,Vredestraat,12,50.9221420011,3.21334940627
8870,Izegem,Sint-Jorisstraat,30,50.913970332,3.20798404039
8870,Izegem,Ter Wallenstraat,22,50.9132934478,3.21794821601
8870,Izegem,Zoetemondstraat,10,50.9009198553,3.22361016403
8870,Izegem,Europalaan,12,50.914293243,3.2017633845
8870,Izegem,Pieter De Coninckstraat,39,50.9005415821,3.19641520023
8870,Izegem,Gentseheerweg,38,50.9164359616,3.22515080493
8870,Izegem,Hondekensmolenstraat,29,50.9082719431,3.22263092219
8870,Izegem,Manegemstraat,60,50.9043653887,3.20696560872
8870,Izegem,Boterstraat,28,50.8991812423,3.1931955907
8870,Izegem,Klijtstraat,63,50.9106875731,3.20003972476
8870,Izegem,Zwingelaarsstraat,10,50.9101000801,3.21718049803
8870,Izegem,Meensesteenweg,250,50.9002410632,3.19134825905
8870,Izegem,Azalealaan,11,50.9091662053,3.21628706142
8870,Izegem,Krekelstraat,138,50.9151041351,3.20821357272
8870,Izegem,Kapucijnenlaan,71,50.9197553265,3.19604916049
8870,Izegem,Stijn Streuvelsstraat,28,50.9234889173,3.23073600796
8870,Izegem,Meensestraat,179,50.910477736,3.20965180343
8870,Izegem,Vijfwegenstraat,62,50.9273890935,3.21507300659
8870,Izegem,Roeselaarsestraat,98,50.9194365687,3.2091554525
8870,Izegem,Krekelmotestraat,108,50.9154601855,3.19720755642
8870,Izegem,Jan Breydelstraat,62,50.8989399385,3.19571404116
8870,Izegem,Hondstraat,5,50.9200011824,3.21246946353
8870,Izegem,Nederweg,99,50.9218945219,3.20595868388
8870,Izegem,Roeselaarsestraat,447,50.9257233732,3.18659095193
8870,Izegem,Kokelarestraat,73,50.9084486538,3.19544556655
8870,Izegem,Kerselaarstraat,11,50.9126966793,3.18733666633
8870,Izegem,Wielewaalstraat,12,50.9304842252,3.23553826823
8870,Izegem,Slabbaardstraat-Noord,80,50.9116956446,3.21242322876
8870,Izegem,Maria van Bourgondiëstraat,23,50.9011549273,3.19830106748
8870,Izegem,Burgemeester Vandenbogaerdelaan,77,50.9109764696,3.20936361733
8870,Izegem,Eigenhaardstraat,23,50.9106930769,3.21591399444
8870,Izegem,Reperstraat,98,50.929088962,3.21905220791
8870,Izegem,Hottonstraat,12,50.9213108848,3.19178914754
8870,Izegem,Molenweg,34,50.9207841278,3.20725107539
8870,Izegem,Roeselaarsestraat,359,50.9234381078,3.19247108204
8870,Izegem,Haaipanderstraat,72,50.9300887762,3.234190489
8870,Izegem,Monseigneur Bouckaertstraat,9,50.9117550078,3.22745235157
8870,Izegem,Meensesteenweg,106,50.9063892956,3.19984735834
8870,Izegem,Roeselaarsestraat,674,50.9305381246,3.17512391606
8870,Izegem,Smallestraat,7,50.9527365655,3.17786477864
8870,Izegem,Burgemeester Vandenbogaerdelaan,59,50.9115325289,3.20979201169
8870,Izegem,Haaipanderstraat,90,50.9408326644,3.22877089234
8870,Izegem,Prinsessestraat,15,50.9220279646,3.22937933176
8870,Izegem,Karel de Goedelaan,43,50.9013052008,3.19565526331
8870,Izegem,Sint-Antoniusstraat,12,50.9229865881,3.19894600769
8870,Izegem,Negenhoekstraat,66,50.9046377004,3.19933428684
8870,Izegem,Beukendreef,7,50.9190337598,3.20316231421
8870,Izegem,Kortrijksestraat,211,50.9100016014,3.21832436717
8870,Izegem,Vijfwegenstraat,44,50.9267778054,3.21565618475
8870,Izegem,Roeselaarsestraat,413,50.9251115798,3.18762898089
8870,Izegem,Leenstraat,44,50.9099997303,3.19504448682
8870,Izegem,Camiel Ameyestraat,69,50.9218564225,3.20608792618
8870,Izegem,Jan Breydelstraat,44,50.8991998906,3.19596985364
8870,Izegem,Bellevuestraat,75,50.9164445379,3.20432552718
8870,Izegem,Kortrijksestraat,50,50.9139823468,3.21528515964
8870,Izegem,Kachtemsplein,12,50.9318759571,3.19185746656
8870,Izegem,Ommegangstraat,98,50.9163065833,3.20893990563
8870,Izegem,Sint-Crispijnstraat,19,50.918843426,3.20794877929
8870,Izegem,Ferdinand Snellaertstraat,16,50.926694806,3.22617778743
8870,Izegem,Wezestraat,29,50.9291442442,3.21483057094
8870,Izegem,Mentenhoekstraat,139,50.9201871435,3.18921287452
8870,Izegem,Kachtemsestraat,168,50.9319165754,3.19452584251
8870,Izegem,Mandelmeersenstraat,8,50.931390671,3.19673660084
8870,Izegem,Beatrijslaan,21,50.9071711007,3.22105953154
8870,Izegem,Dweersstraat,5,50.9150134586,3.21379314871
8870,Izegem,Roeselaarsestraat,377,50.9240544806,3.19009166637
8870,Izegem,Baronstraat,130,50.9273166639,3.21749723673
8870,Izegem,Blekerijstraat,203,50.9007958944,3.20217445914
8870,Izegem,Heer Halewijnlaan,9,50.9069817751,3.22430529574
8870,Izegem,Reperstraat,116,50.9342677895,3.22530400285
8870,Izegem,Ter Beemden,45,50.9064579894,3.19579744938
8870,Izegem,Krekelstraat,3,50.9161866696,3.21435650261
8870,Izegem,Roeselaarsestraat,488,50.9239607388,3.19197876579
8870,Izegem,Bremstraat,10,50.9343499915,3.19290491253
8870,Izegem,Filip de Pillecynstraat,3,50.9359204902,3.19053059532
8870,Izegem,Tulpenlaan,1,50.9090939713,3.21320709187
8870,Izegem,Marktstraat,39,50.9189419865,3.21502736455
8870,Izegem,Ambachtenstraat,60,50.9200309907,3.1839227341
8870,Izegem,Blekerijstraat,3,50.908130316,3.20486637522
8870,Izegem,Gentseheerweg,112,50.9164345104,3.23786838277
8870,Izegem,Heilig Hartstraat,25,50.917307806,3.20520667794
8870,Izegem,Bellevuestraat,57,50.9172525062,3.20472462788
8870,Izegem,Mandelstraat,66,50.9240921771,3.20150888882
8870,Izegem,Zaligmakersstraat,11,50.9145886662,3.22567363196
8870,Izegem,Vredestraat,14,50.9222175375,3.21340600786
8870,Izegem,Jacob van Arteveldestraat,9,50.8985776766,3.19660225316
8870,Izegem,Kachtemsestraat,29,50.9286161258,3.20981101536
8870,Izegem,Sint-Crispijnstraat,37,50.9183531951,3.20775025846
8870,Izegem,Elf-Julistraat,13,50.9377307846,3.18566774989
8870,Izegem,Slabbaardstraat-Noord,44,50.9131521963,3.21302760356
8870,Izegem,Ommegangstraat,116,50.9152597875,3.208598835
8870,Izegem,Hendrik Consciencestraat,18,50.9252538888,3.23495795756
8870,Izegem,Europalaan,14,50.9146740668,3.2018527619
8870,Izegem,Marelputstraat,12,50.9223315122,3.18373069394
8870,Izegem,Kokelarestraat,55,50.9076897163,3.19778359159
8870,Izegem,Roeselaarsestraat,431,50.9254522897,3.18714316246
8870,Izegem,Ambachtenstraat,3,50.9178440573,3.18801387707
8870,Izegem,Droge Janstraat,38,50.9137459602,3.21526394485
8870,Izegem,Gentseheerweg,76,50.916516783,3.23016910806
8870,Izegem,Prinsessestraat,33,50.9223765249,3.22639722357
8870,Izegem,Roeselaarsestraat,116,50.9198352915,3.20842648156
8870,Izegem,Slagmeersenstraat,70,50.9136615994,3.22204943281
8870,Izegem,Graaf de Montblanclaan,36,50.9249547951,3.23225978898
8870,Izegem,Brugstraat,40,50.9221487545,3.21670266172
8870,Izegem,Ter Elststraat,49,50.9113208083,3.21842046602
8870,Izegem,Heyestraat,23,50.9118609524,3.20796151446
8870,Izegem,Lodewijk de Raetlaan,55,50.9309974391,3.1861713356
8870,Izegem,Vlasgaardstraat,39,50.910195752,3.21513797256
8870,Izegem,Wallemotestraat,77,50.9107859251,3.19372892581
8870,Izegem,Werkhuizenstraat,8,50.9149127397,3.2120628547
8870,Izegem,Kouterweg,111,50.92494466,3.22000787936
8870,Izegem,Krekelstraat,221,50.9132822229,3.20222979137
8870,Izegem,Roeselaarsestraat,395,50.924810718,3.18821549729
8870,Izegem,Emiel Neirynckstraat,51,50.9103530807,3.22583743492
8870,Izegem,Stuivenbergstraat,147,50.9238050212,3.19419855273
8870,Izegem,Kachtemsestraat,93,50.9313196994,3.20133189167
8870,Izegem,Manderlynckstraat,1,50.9392969284,3.18081852935
8870,Izegem,Visschersdreef,3,50.9200210969,3.20302714945
8870,Izegem,Lendeleedsestraat,216,50.9069671805,3.23549789556
8870,Izegem,Roeselaarsestraat,134,50.9199227559,3.20735117798
8870,Izegem,Dam,3,50.9232018839,3.21682134082
8870,Izegem,Kokelarestraat,122,50.9109228126,3.18475972581
8870,Izegem,Krommestraat,32,50.9391249143,3.20177835847
8870,Izegem,Mariastraat,52,50.9310094364,3.20925272289
8870,Izegem,Lendeleedsestraat,3,50.9160301609,3.22383306336
8870,Izegem,Pieter Boncquetstraat,28,50.9321817264,3.20233095495
8870,Izegem,Azalealaan,24,50.908243128,3.21667828375
8870,Izegem,Krekelstraat,216,50.9141351651,3.20327365251
8870,Izegem,Kardinaal Cardijnlaan,37,50.9155650935,3.20032196023
8870,Izegem,Vageweenstraat,2,50.9337023262,3.19950360155
8870,Izegem,Monseigneur Bouckaertstraat,22,50.9126047109,3.22749143136
8870,Izegem,Lendeleedsestraat,269,50.9008314697,3.23584025828
8870,Izegem,Ommegangstraat,10,50.9185357291,3.20962031096
8870,Izegem,Nachtegaalstraat,8,50.9273138415,3.23487336116
8870,Izegem,Roeselaarsestraat,252,50.9213851766,3.20219875027
8870,Izegem,Vlasbloemstraat,32,50.9075820725,3.21934159171
8870,Izegem,Oekensestraat,79,50.9233850007,3.1833014147
8870,Izegem,Veldstraat,34,50.9400772686,3.20630764499
8870,Izegem,Baronstraat,112,50.9266494036,3.22095453894
8870,Izegem,Mentenhoekstraat,15,50.9197142432,3.19874661954
8870,Izegem,Meensesteenweg,124,50.9056887574,3.19825790887
8870,Izegem,Rijksweg,96,50.8975493798,3.22951393037
8870,Izegem,Meensestraat,77,50.9140120563,3.21334917979
8870,Izegem,Roeselaarsestraat,180,50.9203910955,3.20538146295
8870,Izegem,Kapucijnenlaan,45,50.9206570471,3.19602905893
8870,Izegem,Zaligmakersstraat,7,50.9146998595,3.22569951097
8870,Izegem,Rozemondlaan,5,50.9064901605,3.22416498697
8870,Izegem,Ferdinand Vervaeckestraat,1,50.9302988476,3.2140308394
8870,Izegem,Manegemstraat,65,50.9028355158,3.20726918064
8870,Izegem,Pieter Boncquetstraat,4,50.9322179504,3.20099897951
8870,Izegem,Meensesteenweg,66,50.9086619977,3.2051282117
8870,Izegem,Korenmarkt,3,50.9206332037,3.2142432074
8870,Izegem,Molstraat,156,50.9051240812,3.18157498954
8870,Izegem,Vuurkruiserslaan,12,50.9230601804,3.18984494275
8870,Izegem,Mentenhoekstraat,33,50.9193184528,3.19732649332
8870,Izegem,Burgemeester Vandenbogaerdelaan,95,50.9100792474,3.20869195941
8870,Izegem,Haaipanderstraat,54,50.9292070503,3.23250126651
8870,Izegem,Lodewijk de Raetlaan,27,50.9293204808,3.19914995655
8870,Izegem,Geitestraat,25,50.8955522833,3.19921810935
8870,Izegem,Oude Iepersestraat,46,50.8993271854,3.19205784604
8870,Izegem,Reperstraat,10,50.9250551105,3.21794486465
8870,Izegem,Pater Ver Eeckestraat,11,50.9334984431,3.19419333287
8870,Izegem,Meensestraat,59,50.9144296463,3.21429900263
8870,Izegem,Hollebeekstraat,14,50.9064706572,3.18539607115
8870,Izegem,Prinsessestraat,139,50.9232868189,3.21954660795
8870,Izegem,Grote Markt,3,50.919451913,3.21586011269
8870,Izegem,Kokelarestraat,91,50.9101241326,3.18829284772
8870,Izegem,Sint-Jorisstraat,14,50.914455441,3.20827383195
8870,Izegem,Wallemotestraat,59,50.9122511999,3.19612376258
8870,Izegem,Roeselaarsestraat,10,50.9180167053,3.21405821091
8870,Izegem,Hogestraat,97,50.9381556056,3.18761948084
8870,Izegem,Molstraat,103,50.9106503224,3.18435050362
8870,Izegem,Vlietmanstraat,69,50.912182136,3.22974972666
8870,Izegem,Meensesteenweg,170,50.9033936497,3.19497594108
8870,Izegem,Boomforeeststraat,50,50.9143406295,3.22300645648
8870,Izegem,Pieter De Coninckstraat,9,50.90114829,3.19697686631
8870,Izegem,Slagmeersenstraat,24,50.9123570398,3.21791498813
8870,Izegem,Krekelstraat,197,50.9138386734,3.2027946386
8870,Izegem,Kardinaal Cardijnlaan,65,50.9150573632,3.20006480546
8870,Izegem,Baron de Pélichystraat,23,50.916844077,3.21274047859
8870,Izegem,Kardinaal Cardijnlaan,19,50.9161330799,3.20114209674
8870,Izegem,Ter Beemden,81,50.905276459,3.19703171429
8870,Izegem,Mezegemstraat,5,50.9400462194,3.17954965401
8870,Izegem,Wezestraat,93,50.9344443456,3.21601335476
8870,Izegem,Sint-Jorisstraat,60,50.91208357,3.20643495001
8870,Izegem,Baronstraat,147,50.9269122904,3.21863749545
8870,Izegem,Gentseheerweg,130,50.9164497749,3.2386047191
8870,Izegem,Molenweg,16,50.920986115,3.20777604858
8870,Izegem,Vlietmanstraat,16,50.9150677486,3.22881890348
8870,Izegem,Prinsessestraat,61,50.9224116489,3.22448111724
8870,Izegem,Edward Dierickstraat,9,50.9131275764,3.22573223115
8870,Izegem,Rumbeeksestraat,23,50.9315853909,3.19012594993
8870,Izegem,Lendeleedsestraat,144,50.9102379811,3.23171048844
8870,Izegem,Mandelstraat,31,50.92255015,3.20057785306
8870,Izegem,Zwingelaarsstraat,5,50.9098751785,3.217358787
8870,Izegem,Haaipanderstraat,26,50.9277881751,3.23154180842
8870,Izegem,Oude Iepersestraat,64,50.9000800699,3.1898179666
8870,Izegem,Negenhoekstraat,47,50.9051950114,3.20039976038
8870,Izegem,Bellevuestraat,22,50.9190159136,3.20557155786
8870,Izegem,Kouterweg,53,50.9245552892,3.22385064733
8870,Izegem,Bremstraat,6,50.9344925519,3.19286619923
8870,Izegem,Stuivenbergstraat,58,50.923717889,3.19836094567
8870,Izegem,Krekelstraat,162,50.9142936126,3.2054185936
8870,Izegem,Mezegemstraat,25,50.9424033088,3.17825959424
8870,Izegem,Heer Halewijnlaan,22,50.9066094951,3.22466671647
8870,Izegem,Warandestraat,13,50.9229181832,3.2322200394
8870,Izegem,Molstraat,49,50.9140699926,3.18622114174
8870,Izegem,Sint-Rafaëlsstraat,28,50.9122478642,3.22418038814
8870,Izegem,Henri Dunantstraat,12,50.9113632174,3.22377532908
8870,Izegem,Jan Breydelstraat,16,50.8999505969,3.19667249387
8870,Izegem,Meensesteenweg,84,50.9071555672,3.20109651554
8870,Izegem,Elegastlaan,10,50.9064257664,3.22298196372
8870,Izegem,Prinsessestraat,204,50.92387774,3.21823985928
8870,Izegem,Leenstraat,16,50.9128467577,3.19577540738
8870,Izegem,Kachtemsestraat,57,50.9299841789,3.20475935169
8870,Izegem,Molenhoekstraat,62,50.9078939813,3.2173612809
8870,Izegem,Karel de Goedelaan,15,50.9037947473,3.1982773777
8870,Izegem,Henri Dunantstraat,30,50.9111243953,3.22547979098
8870,Izegem,Groeningestraat,12,50.9115996525,3.21566463754
8870,Izegem,Roger Vandoornestraat,9,50.9364825352,3.18707821844
8870,Izegem,Pater Ver Eeckestraat,7,50.9333394975,3.19421182163
8870,Izegem,Emiel Moysonstraat,4,50.9270818334,3.22941885831
8870,Izegem,Hondsmertjesstraat,50,50.9348973625,3.19623004059
8870,Izegem,Kouterweg,71,50.9247084996,3.22325232201
8870,Izegem,Negenhoekstraat,13,50.9058833587,3.20169704257
8870,Izegem,Ghistelstraat,43,50.9265770872,3.2382528427
8870,Izegem,Nachtegaalstraat,21,50.9276146104,3.23608066859
8870,Izegem,Oekensestraat,9,50.9241766679,3.18823798242
8870,Izegem,Geitestraat,5,50.8974401261,3.19916571122
8870,Izegem,Marelputstraat,8,50.9221715335,3.18333461081
8870,Izegem,Baronstraat,58,50.9245209651,3.22753209072
8870,Izegem,Slabbaardstraat-Noord,34,50.9134037164,3.2133534799
8870,Izegem,Winkelhoekstraat,43,50.9003738473,3.22904451044
8870,Izegem,Beiaardstraat,48,50.9063231832,3.21333270034
8870,Izegem,Stationsstraat,41,50.9204512934,3.21215485327
8870,Izegem,Wezestraat,57,50.9300975695,3.21508554789
8870,Izegem,Vlietmanstraat,80,50.912565244,3.22922393146
8870,Izegem,Baronielaan,51,50.91040225,3.22124265682
8870,Izegem,Willem Elsschotstraat,19,50.9302147464,3.2257465664
8870,Izegem,Molenhoekstraat,44,50.9084676149,3.21756762499
8870,Izegem,Rozenlaan,43,50.9074505603,3.21485801437
8870,Izegem,Gentsestraat,41,50.9172887069,3.21740756704
8870,Izegem,Molstraat,67,50.9131102234,3.18550310222
8870,Izegem,Negenhoekstraat,31,50.9055255933,3.20099683572
8870,Izegem,Sint-Rafaëlsstraat,4,50.9121524683,3.22253779012
8870,Izegem,Kortrijksestraat,264,50.9065038261,3.21989991397
8870,Izegem,Schoolstraat,43,50.9117672007,3.21372053151
8870,Izegem,Roeselaarsestraat,169,50.9205698016,3.20379069621
8870,Izegem,Graaf de Montblanclaan,18,50.9245546806,3.23305523793
8870,Izegem,Kerselaarstraat,7,50.9129253373,3.18723236164
8870,Izegem,Kortrijksestraat,121,50.9133716407,3.21589119247
8870,Izegem,Guido Gezellestraat,24,50.9245530682,3.22065500602
8870,Izegem,Eigenhaardstraat,51,50.9100778901,3.21621932886
8870,Izegem,Kortrijksestraat,39,50.9152947446,3.21653829181
8870,Izegem,Wezestraat,75,50.9307128856,3.21529776641
8870,Izegem,Hogestraat,62,50.937447855,3.18869134433
8870,Izegem,Lendeleedsestraat,162,50.9100538885,3.2322154948
8870,Izegem,Haaipanderstraat,2,50.92393243,3.23071928455
8870,Izegem,Baronstraat,165,50.927234208,3.21676167088
8870,Izegem,Italianenlaan,5,50.9180004124,3.22969963268
8870,Izegem,Marktstraat,49,50.9191167094,3.21527865841
8870,Izegem,Jacob van Arteveldestraat,22,50.899225074,3.19817029908
8870,Izegem,Mandelmeersenstraat,12,50.9311109015,3.19693621411
8870,Izegem,Schardouwstraat,25,50.9227369057,3.18314367339
8870,Izegem,Ter Wallenstraat,50,50.9139213479,3.21940061821
8870,Izegem,Dennenstraat,11,50.9138996716,3.18760263692
8870,Izegem,Lendeleedsestraat,280,50.8984046168,3.23513421021
8870,Izegem,Gravenstraat,23,50.9236973015,3.22502900063
8870,Izegem,Vredestraat,3,50.9216309198,3.21265691166
8870,Izegem,Karel de Goedelaan,33,50.9024139279,3.19653994187
8870,Izegem,Lendeleedsestraat,95,50.9142205162,3.22762623689
8870,Izegem,Baronstraat,94,50.925920938,3.22360254957
8870,Izegem,Elegastlaan,35,50.9059436506,3.22275569845
8870,Izegem,Ter Beemden,10,50.9049259239,3.19461858395
8870,Izegem,Kachtemsestraat,75,50.9306147647,3.20243717808
8870,Izegem,Europalaan,3,50.9139500552,3.20163439097
8870,Izegem,Klijtstraat,25,50.9119069061,3.2006412136
8870,Izegem,Boomforeeststraat,39,50.9143222728,3.22344748585
8870,Izegem,Potaardestraat,8,50.9281357176,3.17532099378
8870,Izegem,Elckerliclaan,29,50.9047871364,3.22435293508
8870,Izegem,Ter Beursplein,11,50.9016545931,3.19318402707
8870,Izegem,Prinsdomlaan,54,50.9103530443,3.2283876988
8870,Izegem,Ommegangstraat,6,50.9187263523,3.20964120682
8870,Izegem,Merelstraat,73,50.9288854123,3.21951114117
8870,Izegem,Kortrijksestraat,103,50.9138092368,3.21592197693
8870,Izegem,Blekerijstraat,14,50.9068159902,3.20304247507
8870,Izegem,Nederweg,135,50.9229820932,3.20218439523
8870,Izegem,Beatrijslaan,8,50.9056964989,3.22209173494
8870,Izegem,Kortrijksestraat,156,50.9106291363,3.21727830323
8870,Izegem,Abelestraat,41,50.9214431335,3.18945712229
8870,Izegem,Beiaardstraat,72,50.9052032069,3.2131279145
8870,Izegem,Molstraat,85,50.9120397162,3.18500219264
8870,Izegem,Tulpenlaan,38,50.9085284953,3.21448997461
8870,Izegem,Kapucijnenlaan,17,50.9216118117,3.19588288931
8870,Izegem,Kapelstraat,6,50.9237754059,3.22267311123
8870,Izegem,Steenovenstraat,4,50.9162420229,3.20524631084
8870,Izegem,Roeselaarsestraat,6,50.9179533145,3.21426784638
8870,Izegem,Ardooisestraat,41,50.9313997282,3.21210208014
8870,Izegem,Beiaardstraat,90,50.9045850543,3.2124822431
8870,Izegem,Slabbaardstraat-Zuid,52,50.9034829016,3.20888727641
8870,Izegem,Meensesteenweg,47,50.9072431464,3.20239214324
8870,Izegem,Hondstraat,25,50.9202356158,3.21172578569
8870,Izegem,Veldstraat,16,50.9407707726,3.21626124772
