PKANCODE,COMMUNE_NL,STREET_NL,HUISNR,LAT,LON
8900,Ieper,Sittingbournelaan,43,50.8332213011,2.87659021929
8900,Ieper,Ligywijk,135,50.8552571535,2.9011282704
8900,Ieper,Brugseweg,37,50.8578618207,2.88751663943
8900,Ieper,De Brouwerstraat,1,50.8528551458,2.88413955498
8900,Ieper,Torrepoortlaan,2,50.8567950655,2.89343830438
8900,Ieper,Vaubanstraat,19,50.8505083894,2.89360430936
8900,Ieper,Dikkebusseweg,478,50.8220470021,2.83645952761
8900,Ieper,Brugseweg,297,50.8656810422,2.90557820472
8900,Ieper,Diksmuidestraat,8,50.8520650777,2.88692046269
8900,Ieper,Kerkstraat,14,50.8193286466,2.83188728087
8900,Ieper,Cartonstraat,3,50.8533764652,2.88682856498
8900,Ieper,Zonnebeekseweg,67,50.8547203564,2.89727130678
8900,Ieper,Acacialaan,7,50.8571508087,2.89708699156
8900,Ieper,Kanonweg,1,50.8449816172,2.88941195673
8900,Ieper,Kerkstraat,32,50.8165748308,2.83173054776
8900,Ieper,Veurnseweg,144,50.8721152609,2.84690662357
8900,Ieper,Ouderdomseweg,46,50.8177374962,2.80979271903
8900,Ieper,Burchtstraat,2,50.8499472354,2.8854661906
8900,Ieper,Zonnebeekseweg,228,50.8594181286,2.91184474215
8900,Ieper,Augustijnenstraat,139,50.8530462909,2.8624801717
8900,Ieper,Oude Vaartstraat,18,50.8517034736,2.87485417086
8900,Ieper,Tempelstraat,3,50.8499422632,2.88193345479
8900,Ieper,Robrecht van Bethunelaan,65,50.8519036954,2.90116490792
8900,Ieper,Brugseweg,279,50.8653393322,2.90477431241
8900,Ieper,Haiglaan,109,50.8570456052,2.87178056238
8900,Ieper,Tempelstraat,27,50.8493097622,2.88193641107
8900,Ieper,Rijselseweg,8,50.8432740659,2.88936100894
8900,Ieper,Breydelhofstraat,88,50.8669179291,2.84651324371
8900,Ieper,Blekeriestraat,1,50.8510396134,2.89281937865
8900,Ieper,Veemarkt,20,50.8538910659,2.88350983562
8900,Ieper,Driemolenstraat,5,50.8522562675,2.90606343901
8900,Ieper,Pennestraat,17,50.8561822219,2.88932472957
8900,Ieper,Kalfvaart,95,50.8585925881,2.89114349728
8900,Ieper,Minneplein,8,50.8525278051,2.88141577464
8900,Ieper,Zonnebeekseweg,85,50.8549952858,2.89782165428
8900,Ieper,Korte Torhoutstraat,49,50.8530235258,2.88980493037
8900,Ieper,Omloopstraat,3,50.8486293647,2.85887651416
8900,Ieper,Anjelierenlaan,90,50.8482411624,2.86929829205
8900,Ieper,Frenchlaan,21B,50.8529487946,2.89281015588
8900,Ieper,Potakker,2,50.8610544517,2.89273424063
8900,Ieper,Slachthuisstraat,35,50.8542655726,2.88469813971
8900,Ieper,Neerplaats,1,50.820094616,2.83458430876
8900,Ieper,Kalfvaart,77,50.8581762318,2.89098157029
8900,Ieper,de Stuersstraat,13,50.849839818,2.88090228005
8900,Ieper,White-Châteaustraat,5,50.8503557762,2.91303922363
8900,Ieper,Waterkasteelstraat,15,50.8512506679,2.87527066095
8900,Ieper,Goesdamstraat,13,50.850129727,2.87461442491
8900,Ieper,Torrepoortlaan,26,50.8558381769,2.89367842182
8900,Ieper,Lange Meersstraat,27,50.8513201878,2.88189854678
8900,Ieper,Bloemenstraat,21,50.8515426399,2.89260928331
8900,Ieper,Augustijnenstraat,15,50.8559062407,2.87157734438
8900,Ieper,Paddevijverstraat,22,50.8597078473,2.88782527521
8900,Ieper,Basculestraat,45,50.8550443058,2.89288925981
8900,Ieper,Bukkersstraat,24,50.8462902651,2.89106437955
8900,Ieper,Rijselseweg,114,50.8372615295,2.88775419935
8900,Ieper,Fazantenlaan,25,50.8473244509,2.86446944137
8900,Ieper,Ligywijk,11,50.854933426,2.90035584442
8900,Ieper,Sint-Jacobsstraat,49,50.8497529837,2.88988635221
8900,Ieper,Meenseweg,249,50.8497378664,2.91037938588
8900,Ieper,Kruiskalsijdestraat,3,50.8592262918,2.91365937608
8900,Ieper,Dikkebusseweg,106,50.8430385748,2.87275514279
8900,Ieper,Ooievaarlaan,10,50.8452235078,2.86704340802
8900,Ieper,Groenestraat,23,50.8667056489,2.90142708424
8900,Ieper,Grote Markt,15,50.8510723231,2.88764473757
8900,Ieper,Lindendreef,37,50.8581447946,2.89439389106
8900,Ieper,Rozendaalstraat,15,50.8760378936,2.88083256369
8900,Ieper,Gezelleplein,1,50.8503430288,2.88945419557
8900,Ieper,Kunstenlaan,45,50.8613325786,2.86880243168
8900,Ieper,Oude Kortrijkstraat,9,50.8510237637,2.90975503335
8900,Ieper,Hoornwerk,21,50.8505072581,2.8927422052
8900,Ieper,Schietstraat,16,50.8195495512,2.8317831189
8900,Ieper,Meenseweg,53,50.851265652,2.90004200989
8900,Ieper,Hoge Wieltjesgracht,2,50.8555692161,2.88796472955
8900,Ieper,Narcissenlaan,10,50.8476768644,2.87358172837
8900,Ieper,Ligywijk,99,50.8541986547,2.90272833772
8900,Ieper,Kruisbilkstraat,4,50.8631477072,2.87882308864
8900,Ieper,Duivenstraat,12,50.8581872129,2.89369108791
8900,Ieper,Lindendreef,19,50.8576130223,2.89372615002
8900,Ieper,Grote Markt,33,50.8507259651,2.88669663564
8900,Ieper,Nachtegaallaan,3,50.844772956,2.86779557195
8900,Ieper,Rozenlaan,14,50.8566889093,2.89503644816
8900,Ieper,Blindeliedenstraat,13,50.8468775291,2.88640634746
8900,Ieper,Rijselseweg,96,50.8389269559,2.88801486204
8900,Ieper,Ter Linden,74,50.8409705736,2.87592486657
8900,Ieper,Potakker,26,50.8594607656,2.89375795688
8900,Ieper,Madeliefjeslaan,11,50.8447031085,2.87134295322
8900,Ieper,Dikkebusseweg,533,50.8205183333,2.83243777401
8900,Ieper,Patrijzenlaan,1,50.845548326,2.86616956001
8900,Ieper,Anjelierenlaan,26,50.8480333624,2.87260773928
8900,Ieper,Zwaanhofweg,24,50.8728909202,2.88511323236
8900,Ieper,Poperingseweg,31,50.8495244313,2.87230037895
8900,Ieper,Brugseweg,190,50.8633711933,2.90208396876
8900,Ieper,Capucienenstraat,52,50.8440415975,2.87022193877
8900,Ieper,Tempeliersstraat,20,50.8459269107,2.87617554634
8900,Ieper,Ter Linden,56,50.8408946899,2.87697825053
8900,Ieper,Sint-Omerlaan,45,50.8350021971,2.87626337915
8900,Ieper,Rijkeklarenstraat,83,50.848202314,2.8906401384
8900,Ieper,Siegenlaan,7,50.8321287392,2.87457570859
8900,Ieper,Anjelierenlaan,2,50.8473152407,2.87243274854
8900,Ieper,Sint-Janstraat,22,50.8515240499,2.88083691163
8900,Ieper,Brielenstraat,18,50.8665660689,2.84734318053
8900,Ieper,Capucienenstraat,70,50.8447315771,2.86977021023
8900,Ieper,Melkerijstraat,18,50.8215876079,2.82962025168
8900,Ieper,Zonnebeekseweg,292,50.8643327332,2.93588924727
8900,Ieper,Pilkemseweg,50,50.8618027883,2.89281246374
8900,Ieper,Siegenlaan,42,50.8330705428,2.87524305981
8900,Ieper,Frenchlaan,25,50.8528794184,2.89326345293
8900,Ieper,Kruisbilkstraat,28,50.8601715415,2.88126443107
8900,Ieper,Brugseweg,473,50.8761934242,2.92248199512
8900,Ieper,Breugheldreef,1,50.8614909644,2.87110142015
8900,Ieper,Pannenhuisstraat,12,50.8417447237,2.87288235708
8900,Ieper,Kennedylaan,19,50.8530546851,2.86050878863
8900,Ieper,Kerkstraat,49,50.8014852835,2.82491269135
8900,Ieper,Rijselstraat,112,50.8471881909,2.88826586213
8900,Ieper,Cartonstraat,27,50.8535220503,2.88836129918
8900,Ieper,Boezingepoortstraat,4,50.8525631776,2.88369027066
8900,Ieper,Aalmoezeniersstraat,10,50.8494339035,2.89086559867
8900,Ieper,Briekestraat,53,50.8755122003,2.8985042148
8900,Ieper,Wieltje,99,50.8722535133,2.92175320858
8900,Ieper,Brugseweg,19,50.8576430726,2.88639945275
8900,Ieper,Dikkebusseweg,124,50.8425955604,2.87231721839
8900,Ieper,Potijzestraat,12,50.8638194622,2.904983752
8900,Ieper,Haiglaan,127,50.8574519497,2.87126119856
8900,Ieper,Anjelierenlaan,54,50.8483915695,2.87124694032
8900,Ieper,Oude Konijnstraat,2,50.8481166865,2.8850742797
8900,Ieper,Meenseweg,177,50.8501176672,2.90526044974
8900,Ieper,Breydelhofstraat,47,50.8670187304,2.8438125019
8900,Ieper,Stoffelstraat,10,50.8559403383,2.88706423666
8900,Ieper,Vaubanstraat,37,50.8504298077,2.89444860205
8900,Ieper,Augustijnenstraat,33,50.8545883963,2.87001475766
8900,Ieper,Lijnwaadstraat,18,50.8447672699,2.87329264083
8900,Ieper,Potijzestraat,65,50.8608836193,2.9120703818
8900,Ieper,Ter Linden,21,50.8418416322,2.87394603474
8900,Ieper,Pateelstraat,3,50.8465357963,2.88984962753
8900,Ieper,Dikkebusseweg,651,50.8176800184,2.82447357816
8900,Ieper,Brugseweg,455,50.8726242333,2.91849753846
8900,Ieper,Nonnenbossenstraat,36,50.8505846681,2.91530735328
8900,Ieper,Diksmuidseweg,23A,50.8576950811,2.8816908217
8900,Ieper,Dikkebusseweg,159,50.8412282236,2.87102615681
8900,Ieper,Meenseweg,142,50.8492083647,2.90596565843
8900,Ieper,Rijselstraat,94,50.847656344,2.88770830509
8900,Ieper,Elverdingestraat,67,50.8514847453,2.8785333314
8900,Ieper,Izegrimstraat,50,50.8427324027,2.8676577667
8900,Ieper,Eigenheerdstraat,13,50.8509052095,2.87794933003
8900,Ieper,Lombaardstraat,3,50.8477489798,2.88722605379
8900,Ieper,Motestraat,16,50.8525816177,2.86236807415
8900,Ieper,Weldadigheidstraat,11,50.8487667347,2.90834911906
8900,Ieper,Frenchlaan,8,50.8519419763,2.89256194709
8900,Ieper,Diksmuidseweg,97,50.8610898263,2.87484455977
8900,Ieper,Stationsstraat,36,50.8490720348,2.87989459125
8900,Ieper,Rijkeklarenstraat,65,50.8479505036,2.89013633676
8900,Ieper,Sint-Janstraat,5,50.8513585708,2.88175586526
8900,Ieper,Plumerlaan,107,50.8553251748,2.88135881349
8900,Ieper,Sint-Jacobsnieuwweg,12,50.8494974991,2.88914844604
8900,Ieper,Ieperleestraat,17,50.8461942675,2.88765834797
8900,Ieper,Haiglaan,38,50.8534163774,2.87519774828
8900,Ieper,Zonnebeekseweg,256,50.8602710362,2.91533277238
8900,Ieper,Schipstraat,13,50.8567962742,2.87769149735
8900,Ieper,de Stuersstraat,41,50.8496409826,2.87922692731
8900,Ieper,Capronstraat,21,50.8505855814,2.87495999504
8900,Ieper,Dunantlaan,16,50.8546345828,2.85960184854
8900,Ieper,Breydelhofstraat,17,50.8683222197,2.84281722165
8900,Ieper,Begijnenbosstraat,4,50.8532785166,2.93315678398
8900,Ieper,Poperingseweg,119,50.8488084382,2.86397585359
8900,Ieper,Vrijheidstraat,14,50.8579905621,2.89249603661
8900,Ieper,Surmont de Volsberghestraat,3,50.8531567836,2.88599389521
8900,Ieper,Viooltjeslaan,32,50.8475258327,2.86995439095
8900,Ieper,Diksmuidseweg,79,50.8604538214,2.87802952187
8900,Ieper,Oude Houtmarktstraat,18,50.852550964,2.88813819236
8900,Ieper,Diksmuidestraat,61,50.8537626543,2.88631711158
8900,Ieper,Rozelaarstraat,3,50.8217706173,2.80571004394
8900,Ieper,Ouderdomseweg,11,50.8172248917,2.80965783186
8900,Ieper,Elverdingestraat,85,50.8512561829,2.87737957535
8900,Ieper,Meenseweg,25,50.8526575112,2.89639840672
8900,Ieper,Millecamstraat,3,50.852136501,2.86566684338
8900,Ieper,Augustijnenstraat,68,50.8539848271,2.86485804229
8900,Ieper,Sittingbournelaan,15,50.8327219473,2.8773345584
8900,Ieper,Kleine Pennestraat,6,50.8565996651,2.888838136
8900,Ieper,Doorgangstraat,19,50.8491370149,2.87950280545
8900,Ieper,Meenseweg,195,50.8498762086,2.90780377711
8900,Ieper,Sportstraat,22,50.8552785367,2.87168852836
8900,Ieper,Windeweg,25,50.8228512455,2.82889214874
8900,Ieper,Diksmuidseweg,115,50.86373563,2.8766277461
8900,Ieper,Nonnenbossenstraat,18,50.8501396003,2.9136967023
8900,Ieper,Kiekenmarkt,6,50.8497875213,2.8842055903
8900,Ieper,Vaubanstraat,65,50.8504620028,2.89585229578
8900,Ieper,Pannenhuisstraat,30,50.8411739318,2.8724717979
8900,Ieper,Dehaernestraat,37,50.847842231,2.88581067621
8900,Ieper,Viooltjeslaan,14,50.8472350954,2.87102088356
8900,Ieper,Robrecht van Bethunelaan,118,50.8524628983,2.90344847645
8900,Ieper,Briekestraat,1,50.8657726198,2.89498906537
8900,Ieper,Zorgvlietstraat,23,50.8232735715,2.83189369309
8900,Ieper,Veurnseweg,134,50.8688262028,2.84706413146
8900,Ieper,D'Hondtstraat,27,50.8499973214,2.88827143891
8900,Ieper,Colaertplein,9,50.8492763111,2.87744450169
8900,Ieper,Schuttelaerestraat,12,50.8468797587,2.88602778802
8900,Ieper,Acacialaan,42,50.8561864743,2.8961749604
8900,Ieper,Rijselstraat,130,50.8467675702,2.8888425052
8900,Ieper,Dikkebusseweg,47,50.8437872723,2.87565495348
8900,Ieper,Ter Olmen,4,50.8365030517,2.8751486895
8900,Ieper,Melkerijstraat,46,50.8237467028,2.82678419804
8900,Ieper,Paddevijverstraat,5,50.8584451535,2.88817047412
8900,Ieper,Briekestraat,25,50.8676165642,2.89709050712
8900,Ieper,Bukkersstraat,7,50.8478472597,2.88989189168
8900,Ieper,Ter Olmen,28,50.8360532266,2.87555926779
8900,Ieper,Sint-Catharinastraat,1,50.8472771111,2.88756033111
8900,Ieper,D'Hondtstraat,3,50.850793469,2.88712927398
8900,Ieper,Merghelynckstraat,17,50.8492904629,2.88811047667
8900,Ieper,Gildenstraat,19,50.8518627518,2.89531512214
8900,Ieper,Brugseweg,387,50.8682062896,2.91213315433
8900,Ieper,Lange Meersstraat,3,50.8507607597,2.88215485426
8900,Ieper,Diksmuidseweg,2,50.8581296842,2.88376842783
8900,Ieper,Frezenbergstraat,44,50.8385627211,2.86205924629
8900,Ieper,Westkaai,9,50.859854815,2.88277192382
8900,Ieper,Sittingbournelaan,33,50.8331066648,2.87752368911
8900,Ieper,Windeweg,1,50.8236815008,2.83069930758
8900,Ieper,Basculestraat,10,50.8539943894,2.89474861104
8900,Ieper,Brugseweg,334,50.8672932842,2.91229656879
8900,Ieper,Kalfvaart,7,50.8561133923,2.89043403284
8900,Ieper,Wieltje,28,50.8713290189,2.92006005087
8900,Ieper,Pilkemseweg,39,50.8638538164,2.89362337762
8900,Ieper,Driemolenstraat,22,50.8529588172,2.90606857086
8900,Ieper,Sint-Jacobsstraat,60,50.8486692922,2.89046653047
8900,Ieper,Tegelstraat,30,50.8456265055,2.88803894501
8900,Ieper,Meenseweg,1,50.853339444,2.89494016156
8900,Ieper,Masscheleinlaan,17,50.8549250199,2.88434479308
8900,Ieper,Kervynlaan,23,50.8558928468,2.86063805844
8900,Ieper,Robrecht van Bethunelaan,83,50.8519447782,2.90167481649
8900,Ieper,Boterstraat,28,50.8504167045,2.88326563569
8900,Ieper,Dikkebusseweg,515,50.8209493478,2.83378737463
8900,Ieper,Berkenwijk,1,50.8222084496,2.83204545319
8900,Ieper,Veurnseweg,27,50.8593998586,2.86867288461
8900,Ieper,Dehaernestraat,19,50.8485789241,2.88560010888
8900,Ieper,Torrepoortlaan,79,50.8549982936,2.89450761884
8900,Ieper,Lange Torhoutstraat,10,50.85325823,2.89024980723
8900,Ieper,Millekruisstraat,1,50.8044851596,2.81330489368
8900,Ieper,Steverlyncklaan,20,50.847436931,2.89986476585
8900,Ieper,Boterstraat,4,50.8508496586,2.88412703064
8900,Ieper,Diksmuidseweg,133,50.8656337864,2.875398178
8900,Ieper,Berkenwijk,25,50.8227843393,2.83098116944
8900,Ieper,Vleeshouwersstraat,22,50.8562382722,2.88158831579
8900,Ieper,Zesde-Lansierslaan,32,50.8360354513,2.87872194468
8900,Ieper,Brugseweg,316,50.8665796512,2.910913076
8900,Ieper,Tegelstraat,12,50.8460194217,2.88902923056
8900,Ieper,Boomgaardstraat,21,50.8493272293,2.88536218297
8900,Ieper,Lombaardstraat,27,50.8472513729,2.88566527276
8900,Ieper,Diksmuidseweg,251,50.8796883556,2.86686648767
8900,Ieper,Rijselseweg,43,50.834254994,2.88795236998
8900,Ieper,Rijselstraat,76,50.848310188,2.88735196061
8900,Ieper,Brugseweg,154,50.8615585187,2.89949269739
8900,Ieper,Kunstenlaan,63,50.8619113343,2.87034273752
8900,Ieper,Sint-Bartholomeusstraat,12,50.8631333516,2.90451596764
8900,Ieper,Vinkenlaan,7,50.8438972664,2.86527309332
8900,Ieper,Van Eyckdreef,12,50.8596679717,2.87140398457
8900,Ieper,Diksmuidseweg,26,50.858241901,2.88183035557
8900,Ieper,Augustijnenstraat,104,50.8529543346,2.86029141723
8900,Ieper,Velodroomstraat,22,50.856424917,2.87566071793
8900,Ieper,Ligywijk,117,50.8549863013,2.90181570562
8900,Ieper,De Montstraat,7,50.8488133219,2.88358813093
8900,Ieper,Meenseweg,78,50.8503948955,2.90045525223
8900,Ieper,Wittemolenstraat,8,50.8519076546,2.85947361931
8900,Ieper,Poperingseweg,137,50.8494253357,2.86080345354
8900,Ieper,Zesde-Lansierslaan,14,50.8346086081,2.87986852575
8900,Ieper,Pennestraat,35,50.8558632734,2.88823175366
8900,Ieper,Dikkebusvijverdreef,1,50.8216694853,2.84801018965
8900,Ieper,Rijselstraat,13,50.8502241362,2.88625340467
8900,Ieper,Slachthuisstraat,17,50.8542972387,2.88554571492
8900,Ieper,Poperingseweg,41,50.8493700914,2.87196527042
8900,Ieper,Paddevijverstraat,50,50.8652368317,2.88568813602
8900,Ieper,Breydelhofstraat,106,50.8673771969,2.84703943181
8900,Ieper,Kalfvaart,42,50.857397824,2.89120022564
8900,Ieper,Europalaan,23,50.8323541173,2.87764622193
8900,Ieper,Begijnenstraat,11,50.8490701111,2.8729711553
8900,Ieper,Zonnebeekseweg,138,50.8573913832,2.90574216027
8900,Ieper,Diksmuidestraat,43,50.8531934213,2.88627483376
8900,Ieper,Kiplinglaan,13,50.854754675,2.89263016918
8900,Ieper,Dikkebusseweg,232,50.8398768555,2.86598794477
8900,Ieper,Boezingepoortstraat,11,50.8529500648,2.88312849544
8900,Ieper,Waterkasteelstraat,8,50.8515403762,2.87551854519
8900,Ieper,Kennedylaan,20,50.8536832525,2.86041646644
8900,Ieper,Elverdingestraat,14,50.8523946306,2.88213131886
8900,Ieper,Haiglaan,102,50.8549360734,2.87396082222
8900,Ieper,Oostkaai,60,50.8851008503,2.8726367073
8900,Ieper,Dikkebusseweg,461,50.8223432704,2.83891782089
8900,Ieper,Meenseweg,96,50.849923357,2.90150168866
8900,Ieper,Brugseweg,20,50.8574582557,2.8881549608
8900,Ieper,Maloulaan,16,50.8504303508,2.87759339497
8900,Ieper,Brugseweg,280,50.8658698305,2.90758970526
8900,Ieper,Stationsstraat,54,50.8487384796,2.87921631657
8900,Ieper,Sint-Niklaasstraat,9,50.850765624,2.88034703214
8900,Ieper,Begijnenstraat,48,50.8485469741,2.87371725093
8900,Ieper,Rozenlaan,7,50.8571073655,2.89476465286
8900,Ieper,Bloemenstraat,4,50.8517180751,2.8932324294
8900,Ieper,Neermarkt,1,50.8506853941,2.88526493639
8900,Ieper,D'Hondtstraat,63,50.8486623197,2.88939259614
8900,Ieper,Paddepoelstraat,22,50.848388558,2.89048586616
8900,Ieper,Haiglaan,74,50.8543611003,2.87472498221
8900,Ieper,Blindeliedenstraat,6,50.8467423204,2.88602374235
8900,Ieper,Onze-Lieve-Vrouwestraat,9,50.8482393704,2.8848430245
8900,Ieper,Kruiskalsijdestraat,10,50.8583087835,2.913764484
8900,Ieper,Werfstraat,2,50.8584139894,2.87710434821
8900,Ieper,Siegenlaan,24,50.8324164531,2.87547154305
8900,Ieper,Haiglaan,92,50.8547327657,2.87441856749
8900,Ieper,Zonnebeekseweg,211,50.8581615887,2.90655148964
8900,Ieper,Pannenhuisstraat,40,50.8407652679,2.8724430506
8900,Ieper,Lombaardstraat,45,50.8474374706,2.88495950946
8900,Ieper,Rozenwijk,14,50.8211603866,2.82880951708
8900,Ieper,Pilkemseweg,121,50.8732077344,2.88610661177
8900,Ieper,Fabiolalaan,1,50.8538422598,2.86335324211
8900,Ieper,Dikkebusseweg,443,50.822854433,2.8402965821
8900,Ieper,Diksmuidestraat,25,50.8527035867,2.8863255042
8900,Ieper,Hommelhofstraat,21,50.8409070086,2.88101390968
8900,Ieper,Nijverheidstraat,6,50.8554940423,2.88272224933
8900,Ieper,Ter Olmen,188,50.8391434624,2.87528365702
8900,Ieper,Beukenlaan,15,50.8576517082,2.89598303331
8900,Ieper,Azalealaan,33,50.8458477646,2.87327191306
8900,Ieper,Rijselstraat,31,50.8498086903,2.88694001427
8900,Ieper,Haiglaan,56,50.8538903618,2.87501820461
8900,Ieper,Rozenwijk,32,50.8200468562,2.82810970269
8900,Ieper,Oude Kortrijkstraat,62,50.8512260908,2.91592355533
8900,Ieper,Proosdijstraat,1,50.8422789708,2.86247413842
8900,Ieper,Sint-Omerlaan,27,50.8346833998,2.87802673437
8900,Ieper,Maloulaan,34,50.851056811,2.8769383463
8900,Ieper,Dikkebusseweg,71,50.8432467488,2.87449256621
8900,Ieper,Dikkebusseweg,259,50.8390344152,2.86573228431
8900,Ieper,Augustijnenstraat,8,50.8563489825,2.87151466348
8900,Ieper,Ooievaarlaan,27,50.8447398894,2.86543077475
8900,Ieper,Patersstraat,1,50.84996351,2.8830358008
8900,Ieper,de Stuersstraat,6,50.8503737742,2.88141701344
8900,Ieper,Goesdamstraat,6,50.8500286199,2.87547963079
8900,Ieper,Lindendreef,20,50.8568520463,2.89229257091
8900,Ieper,Kauwekijnstraat,9,50.8525539588,2.89016542397
8900,Ieper,Elverdingestraat,32,50.8523366075,2.88107198111
8900,Ieper,Ligywijk,28,50.8540365538,2.90016226743
8900,Ieper,Grote Markt,8,50.8519260173,2.88752850428
8900,Ieper,Tempeliersstraat,19,50.8459617085,2.87671993988
8900,Ieper,Paddevijverstraat,39,50.8593096738,2.88694596744
8900,Ieper,Lange Meersstraat,10,50.8505631446,2.88255339859
8900,Ieper,Veurnseweg,187,50.8684154551,2.84673641655
8900,Ieper,Kerselaar,51,50.8514603769,2.90426971953
8900,Ieper,Grimminckstraat,8,50.8452459341,2.89124347333
8900,Ieper,Janseniusstraat,1,50.8525013872,2.88624125834
8900,Ieper,Gildenstraat,3,50.8522671531,2.89393178104
8900,Ieper,Capucienenstraat,16,50.8424845211,2.87114789544
8900,Ieper,Ligywijk,145,50.8551466492,2.90020103036
8900,Ieper,Meenseweg,132,50.849822938,2.90360374841
8900,Ieper,Dunantlaan,9,50.8538354872,2.85973900316
8900,Ieper,Vijverstraat,18,50.8191085826,2.83418382592
8900,Ieper,Dehaernestraat,3,50.8489850544,2.88537198338
8900,Ieper,Capucienenstraat,69,50.8447868259,2.86904885141
8900,Ieper,Ter Linden,38,50.8407469557,2.87543012231
8900,Ieper,Overdrachtstraat,7,50.8638534759,2.878798161
8900,Ieper,Ligywijk,64,50.8533892377,2.90218668907
8900,Ieper,Weverijstraat,34,50.8564666933,2.88319592959
8900,Ieper,Brugseweg,179,50.8607598596,2.89623115726
8900,Ieper,Rijselstraat,119,50.8459933965,2.89045961661
8900,Ieper,Rijkeklarenstraat,20,50.847992167,2.89091687645
8900,Ieper,Ter Linden,4,50.8401912016,2.87404648886
8900,Ieper,Reigerslaan,59,50.8463324607,2.86276141273
8900,Ieper,Brugseweg,208,50.864037853,2.90308126633
8900,Ieper,Pilkemseweg,57,50.8655862826,2.89447049626
8900,Ieper,Hoornwerk,4,50.8515391532,2.89237503332
8900,Ieper,Oude Kortrijkstraat,26,50.8510299143,2.91168991109
8900,Ieper,Robrecht van Bethunelaan,82C,50.8525347533,2.9044652221
8900,Ieper,Dikkebusseweg,17,50.8451837463,2.87712750235
8900,Ieper,Delaerestraat,3,50.8529306013,2.88564834161
8900,Ieper,Oliedamstraat,1,50.8551580427,2.87021549422
8900,Ieper,Zaalhof,16,50.8463501131,2.88691990323
8900,Ieper,Hovelandpark,34,50.8519522965,2.90740747234
8900,Ieper,Dikkebusseweg,53,50.8437754996,2.87537286296
8900,Ieper,Dikkebusseweg,206,50.8408192968,2.86778315776
8900,Ieper,Capucienenstraat,87,50.8454398983,2.86888245478
8900,Ieper,Melkerijstraat,48,50.8238655395,2.82662457839
8900,Ieper,Polenlaan,19,50.8572945817,2.88506988024
8900,Ieper,Acacialaan,24,50.8566838406,2.8960436099
8900,Ieper,Veurnseweg,169,50.8677912973,2.84769525432
8900,Ieper,Brugseweg,226,50.8644856706,2.90420930002
8900,Ieper,Fochlaan,1,50.84928646,2.87595883182
8900,Ieper,Motestraat,9,50.8526229666,2.86417520817
8900,Ieper,Ter Olmen,46,50.8369224284,2.87803400635
8900,Ieper,Dikkebusseweg,407,50.8243798225,2.84320936109
8900,Ieper,Robrecht van Bethunelaan,182,50.8524584786,2.90184982963
8900,Ieper,Capucienenstraat,34,50.842984072,2.87064020287
8900,Ieper,Tempelstraat,10,50.8498313567,2.88163912212
8900,Ieper,Brugseweg,244,50.8651014459,2.90554751392
8900,Ieper,Azalealaan,15,50.846177308,2.87448650201
8900,Ieper,Rijselsepoort,35,50.8400809226,2.8875251188
8900,Ieper,Hovelandpark,16,50.8508167032,2.90875813561
8900,Ieper,Goossensstraat,7,50.8527744567,2.86488951318
8900,Ieper,Brugseweg,55,50.8579214915,2.8885759139
8900,Ieper,Eikenlaan,13,50.8581409641,2.89602935853
8900,Ieper,Sint-Godelievestraat,5,50.8515553362,2.88122666404
8900,Ieper,Frenchlaan,43,50.8532453563,2.89399242966
8900,Ieper,Haiglaan,120,50.8556582015,2.87420363672
8900,Ieper,Potijzestraat,29,50.8634370701,2.90606588401
8900,Ieper,Elverdingestraat,49,50.8516146144,2.87949208263
8900,Ieper,Tempeliersstraat,3,50.8462781101,2.87698130236
8900,Ieper,Griettensstraat,2,50.8534438842,2.870331065
8900,Ieper,Meenseweg,160,50.8493600485,2.90710569282
8900,Ieper,Veurnseweg,116,50.8684382721,2.84855953018
8900,Ieper,Vaubanstraat,20,50.8499545759,2.89433070347
8900,Ieper,Pateelstraat,10,50.846494678,2.89033251352
8900,Ieper,Vijverstraat,2,50.8203973167,2.83357117639
8900,Ieper,Ligywijk,82,50.8541085565,2.90334690521
8900,Ieper,Willibaldlaan,17,50.8467030375,2.87283597319
8900,Ieper,Dikkebusseweg,615,50.818977574,2.82773252129
8900,Ieper,Duivenstraat,29,50.858227711,2.89317912515
8900,Ieper,Veemarkt,19,50.8538119014,2.88269700809
8900,Ieper,Robrecht van Bethunelaan,126,50.8520749475,2.90319822384
8900,Ieper,Meensestraat,17,50.8519795646,2.88934262504
8900,Ieper,Zonnebeekseweg,14,50.8544101376,2.89753499139
8900,Ieper,Brielenstraat,15A,50.8667356504,2.84881479342
8900,Ieper,Tegelstraat,40,50.8455050867,2.887772508
8900,Ieper,Dikkebusseweg,170,50.841307662,2.87012146305
8900,Ieper,Brugseweg,344,50.8678018619,2.91356084838
8900,Ieper,Fazantenlaan,61,50.8481641399,2.86233802334
8900,Ieper,Kleine Pennestraat,23,50.8571859321,2.8883277507
8900,Ieper,Zesde-Lansierslaan,7,50.8355384463,2.87865405834
8900,Ieper,Ieperleestraat,35,50.8452397572,2.88951176908
8900,Ieper,De Busscherestraat,3,50.8522424277,2.86763410826
8900,Ieper,Breydelhofstraat,35,50.8675128685,2.8434021807
8900,Ieper,Diksmuidseweg,62,50.8600660522,2.87842794377
8900,Ieper,Eigenheerdstraat,31,50.8511853603,2.87768606185
8900,Ieper,Meenseweg,149,50.8502786111,2.90376907797
8900,Ieper,Millecamstraat,10,50.8524715612,2.86457563441
8900,Ieper,Meensestraat,35,50.8520568241,2.89022196418
8900,Ieper,Breydelhofstraat,1,50.8683676821,2.84389391554
8900,Ieper,Veurnseweg,81,50.8658405833,2.85432535788
8900,Ieper,Capronstraat,38,50.8508235523,2.8743433906
8900,Ieper,Robrecht van Bethunelaan,29,50.8508919863,2.90257350236
8900,Ieper,Voldersstraat,9,50.8568406702,2.88067191471
8900,Ieper,Haiglaan,21,50.8520614503,2.87542884687
8900,Ieper,Elverdingestraat,60,50.8518863641,2.87964340955
8900,Ieper,Ieperleestraat,1,50.8462497431,2.88710286374
8900,Ieper,Surmont de Volsberghestraat,10,50.8535193556,2.8858692532
8900,Ieper,Pannenhuisstraat,29,50.8387607552,2.87134542075
8900,Ieper,Ligywijk,46,50.8530006149,2.90056009407
8900,Ieper,Groenestraat,58,50.867922432,2.89868947864
8900,Ieper,Brugseweg,73,50.8585426918,2.89024442245
8900,Ieper,Fazantenlaan,43,50.8478193577,2.86372103933
8900,Ieper,Zonnebeekseweg,148,50.8576748435,2.9064103689
8900,Ieper,Kalfvaart,24,50.8564573384,2.89102892306
8900,Ieper,Schipstraat,6,50.8569748911,2.87676163525
8900,Ieper,Augustijnenstraat,51,50.8541172448,2.86809370706
8900,Ieper,Brugseweg,91,50.8590232365,2.89166225559
8900,Ieper,Kerselaar,15,50.8511193666,2.9047979137
8900,Ieper,Diksmuidestraat,78,50.8543717344,2.8871579884
8900,Ieper,Ouderdomseweg,28,50.8167986996,2.81069331343
8900,Ieper,Korte Meersstraat,7,50.8514313219,2.88273617022
8900,Ieper,Wateringstraat,14,50.8454837176,2.88711975648
8900,Ieper,Oliedamstraat,17,50.85562783,2.86960235081
8900,Ieper,Zonnebeekseweg,32,50.8548210286,2.8984309425
8900,Ieper,Voedermonthoeve,7,50.8506225044,2.90818836512
8900,Ieper,Gildenstraat,20,50.851546975,2.89500699912
8900,Ieper,Hovelandlaan,9,50.8508687493,2.90647546255
8900,Ieper,Drietorenweg,5,50.8691439936,2.84327791414
8900,Ieper,Reigerslaan,7,50.8479549232,2.86123294334
8900,Ieper,Dehaernestraat,20,50.8485190618,2.88513941451
8900,Ieper,Dikkebusseweg,35,50.8441899965,2.8757752344
8900,Ieper,Dikkebusseweg,152,50.8414536931,2.87086859151
8900,Ieper,Boomgaardstraat,1A,50.8503976693,2.88523623339
8900,Ieper,Rijselsepoort,17,50.8411512718,2.88704991432
8900,Ieper,Zonnebeekseweg,166,50.8571386821,2.90872715822
8900,Ieper,Velodroomstraat,50,50.8563693414,2.87637387566
8900,Ieper,D'Hondtstraat,10,50.8506232172,2.88694758062
8900,Ieper,Acacialaan,59,50.8555792697,2.8971907303
8900,Ieper,Sittingbournelaan,8,50.8330146741,2.87833646303
8900,Ieper,Fochlaan,17,50.8506407873,2.87534840853
8900,Ieper,Diksmuidseweg,80,50.8609977441,2.87898854513
8900,Ieper,Pilkemseweg,22,50.8600458156,2.89166251577
8900,Ieper,ABC-straat,1,50.849329317,2.88601105043
8900,Ieper,Klaverstraat,15,50.8466986791,2.88748027203
8900,Ieper,Brugseweg,126,50.8586746537,2.89605554122
8900,Ieper,Rozendaalstraat,51,50.8783656589,2.87955085875
8900,Ieper,Zonnebeekseweg,131,50.8557738382,2.89953696532
8900,Ieper,Rijselstraat,6,50.8503967951,2.88527375765
8900,Ieper,Ter Olmen,64,50.8378858798,2.87745621924
8900,Ieper,Boterstraat,46,50.8503874639,2.88231991003
8900,Ieper,Kerselaar,33,50.8515898816,2.90595164982
8900,Ieper,Basculestraat,27,50.8549367675,2.89373283924
8900,Ieper,Viooltjeslaan,7,50.8470545053,2.87110900904
8900,Ieper,Wittemolenstraat,25,50.8521149664,2.86166785891
8900,Ieper,Paddevijverstraat,57,50.8655398857,2.88415577533
8900,Ieper,Vaubanstraat,40,50.8500673053,2.89573924571
8900,Ieper,Rijselstraat,137,50.8450936767,2.89075531747
8900,Ieper,Dikkebusseweg,1,50.8459756558,2.87778166349
8900,Ieper,Klaverstraat,33,50.8463668974,2.88717387526
8900,Ieper,Adriaansensweg,62A,50.85495509,2.85820858451
8900,Ieper,Pilkemseweg,75,50.8663335876,2.89393002545
8900,Ieper,Plumerlaan,18,50.8529828711,2.87653065417
8900,Ieper,Oude Veurnestraat,18,50.8590019576,2.87584082739
8900,Ieper,Sint-Jacobsstraat,67,50.8493705546,2.89029066569
8900,Ieper,Meenseweg,267,50.8494441006,2.91293337228
8900,Ieper,Rubensdreef,13,50.8594708481,2.8722894775
8900,Ieper,Boterstraat,11,50.8503549033,2.88412986923
8900,Ieper,Rustenhove,5,50.8561779437,2.89204029434
8900,Ieper,Slachthuisstraat,47,50.8542180903,2.88354623754
8900,Ieper,Kunstenlaan,27,50.8597577285,2.86937063749
8900,Ieper,Neerstraat,18,50.8463687923,2.88790081902
8900,Ieper,Nachtegaallaan,19,50.8460715072,2.86720691872
8900,Ieper,Ligywijk,110,50.8553734195,2.90200632852
8900,Ieper,Veurnseweg,10,50.8612667213,2.86592470504
8900,Ieper,Neerstraat,2,50.8468328855,2.8879049509
8900,Ieper,Crescendostraat,15,50.8438762397,2.87137624099
8900,Ieper,Sint-Jacobsstraat,14,50.850641134,2.88848097783
8900,Ieper,Rijselseweg,78,50.8401958509,2.88856663338
8900,Ieper,Wieltje,11,50.869933224,2.91645049007
8900,Ieper,Leopold III-laan,4,50.8497669451,2.8930590214
8900,Ieper,Kemmelseweg,34,50.8314563137,2.8770227281
8900,Ieper,Brugseweg,40,50.8576240018,2.88889922082
8900,Ieper,Brugseweg,380,50.8767723478,2.92434303014
8900,Ieper,Dikkebusseweg,88,50.8434083225,2.87370210496
8900,Ieper,Vrijheidstraat,7,50.8574559856,2.89221365727
8900,Ieper,Korte Torhoutstraat,32,50.8528490196,2.88994876653
8900,Ieper,D'Hondtstraat,45,50.8492443649,2.88860434367
8900,Ieper,Tegelstraat,29,50.8456062586,2.88864330219
8900,Ieper,Capronstraat,4,50.8512449291,2.87580177303
8900,Ieper,Boomgaardstraat,38,50.8492602602,2.88490838119
8900,Ieper,Izegrimstraat,22,50.8435006667,2.86736597574
8900,Ieper,Lombaardstraat,10,50.8477383857,2.88657236353
8900,Ieper,Sint-Jacobsstraat,32,50.8491754681,2.89003575039
8900,Ieper,Meenseweg,232,50.8483803518,2.91450700048
8900,Ieper,Veurnseweg,63,50.8648732161,2.85703923735
8900,Ieper,Sint-Jacobsstraat,85,50.8488180284,2.89068938313
8900,Ieper,Brugseweg,108,50.8584195889,2.89432404671
8900,Ieper,Robrecht van Bethunelaan,146,50.8520722957,2.90267646164
8900,Ieper,Rijselseweg,25,50.8349846803,2.88808373667
8900,Ieper,Kemmelseweg,16,50.832796412,2.87999687704
8900,Ieper,Brugseweg,362,50.8728401573,2.91982646806
8900,Ieper,Rijselstraat,202,50.8450128972,2.89031703746
8900,Ieper,Dikkebusseweg,543,50.8203554571,2.83184465568
8900,Ieper,Ter Olmen,82,50.8377485437,2.8759405176
8900,Ieper,Begijnenstraat,28,50.8488782154,2.872440675
8900,Ieper,Reinaartstraat,14,50.8407623723,2.86723442335
8900,Ieper,Zonnebeekseweg,49,50.8544490957,2.89668391916
8900,Ieper,Minneplein,25,50.8537659589,2.88251976992
8900,Ieper,Korte Torhoutstraat,14,50.8523684265,2.88951290932
8900,Ieper,Kaaistraat,5,50.8536434979,2.88418895012
8900,Ieper,Boomgaardstraat,4,50.8503972953,2.8844672792
8900,Ieper,Plumerlaan,89,50.8551019671,2.88022793447
8900,Ieper,Zonnebeekseweg,184,50.8583413553,2.90809913913
8900,Ieper,de Stuersstraat,31,50.8497626009,2.87962090397
8900,Ieper,Pennestraat,47,50.8559332161,2.88773223586
8900,Ieper,Plumerlaan,2,50.8526591218,2.87587547157
8900,Ieper,Kiplinglaan,6,50.8538302422,2.89221246725
8900,Ieper,Flanders Language Valley,45,50.8702669154,2.89197957413
8900,Ieper,Goesdamstraat,23,50.8503887181,2.8741093627
8900,Ieper,Breydelhofstraat,98,50.8672243223,2.84779388056
8900,Ieper,Haiglaan,119,50.8571758615,2.87130621648
8900,Ieper,Azalealaan,6,50.8462870992,2.87284309803
8900,Ieper,Ligywijk,107,50.8545712932,2.90241501521
8900,Ieper,Brugseweg,269,50.8648062774,2.90350171929
8900,Ieper,Lange Meersstraat,17,50.8511191789,2.88200077686
8900,Ieper,Zorgvlietstraat,41,50.8241502209,2.83148049718
8900,Ieper,Tempeliersstraat,12,50.8461870463,2.87606375653
8900,Ieper,Torrepoortlaan,18,50.8561653469,2.89371957898
8900,Ieper,Kemmelseweg,9,50.8323373582,2.88069474856
8900,Ieper,Grote Markt,25,50.8509862537,2.88722986714
8900,Ieper,Fazantenlaan,15,50.847053425,2.8651477526
8900,Ieper,Roeselarestraat,6,50.8730356542,2.92535381071
8900,Ieper,Fabiolalaan,8,50.8545486994,2.86401841029
8900,Ieper,Kruiskalsijdestraat,17,50.8532535316,2.9169705274
8900,Ieper,Reigerslaan,39,50.846736969,2.86242421997
8900,Ieper,Leeuweriklaan,6,50.8463097035,2.86510904405
8900,Ieper,Sterrestraat,1,50.8487863241,2.87126376835
8900,Ieper,Drietorenweg,19,50.8686348285,2.84182693797
8900,Ieper,Beukenlaan,6,50.8577375121,2.89531908095
8900,Ieper,Anjelierenlaan,80,50.8483093663,2.87009033296
8900,Ieper,Waterkasteelstraat,25,50.851066679,2.87471063649
8900,Ieper,Ligywijk,125,50.8550357503,2.90134086463
8900,Ieper,Waterkasteelstraat,1,50.8514024435,2.8757653816
8900,Ieper,Neermarkt,8,50.8504937087,2.88473239434
8900,Ieper,Izegrimstraat,32,50.8431553866,2.86744232454
8900,Ieper,Dikkebusseweg,468,50.8226936158,2.83737080246
8900,Ieper,Brugseweg,287,50.8654071401,2.90530896926
8900,Ieper,Rijselseweg,86,50.8392761068,2.88799492342
8900,Ieper,Zonnebeekseweg,57,50.8551179705,2.89705786632
8900,Ieper,Potijzestraat,20,50.8632778967,2.90493853079
8900,Ieper,Anjelierenlaan,62,50.8483831502,2.87061561294
8900,Ieper,Korte Torhoutstraat,22,50.8526978857,2.8896998372
8900,Ieper,Pennestraat,27,50.8560952133,2.88879208131
8900,Ieper,Melkerijstraat,2,50.8207090111,2.83072068104
8900,Ieper,Vanderghotelaan,18,50.856951504,2.88033642906
8900,Ieper,Reinaartstraat,22,50.8409555227,2.86727781632
8900,Ieper,Omloopstraat,17,50.8461758119,2.86056212141
8900,Ieper,Fabiolalaan,10,50.8547135412,2.86384551935
8900,Ieper,Groenestraat,13,50.8661381314,2.90260772346
8900,Ieper,Lijnwaadstraat,2,50.844994254,2.87502513025
8900,Ieper,Boterstraat,48,50.8504182541,2.88232305563
8900,Ieper,Rijselseweg,124,50.8332692071,2.88689341536
8900,Ieper,Bardoncstraat,2,50.8527779519,2.90538658524
8900,Ieper,Grote Markt,1,50.8517473707,2.88841277202
8900,Ieper,Robrecht van Bethunelaan,55,50.8513723717,2.90152195014
8900,Ieper,Rozendaalstraat,1,50.8741845634,2.88322787217
8900,Ieper,Tempelstraat,17,50.849533427,2.88196172164
8900,Ieper,Vaubanstraat,29,50.850502686,2.89405899342
8900,Ieper,Haiglaan,99,50.8565840557,2.87220152764
8900,Ieper,Wateringstraat,7,50.845633709,2.88669394607
8900,Ieper,Augustijnenstraat,1,50.8562631396,2.87199582542
8900,Ieper,Lombaardstraat,35,50.8473892216,2.8853604028
8900,Ieper,Izegrimstraat,14,50.8437248138,2.86820166889
8900,Ieper,Memlingdreef,4,50.8603336102,2.87021445293
8900,Ieper,Ligywijk,21,50.8547391784,2.90073378599
8900,Ieper,Sittingbournelaan,51,50.8334356825,2.87613305164
8900,Ieper,Zonnebeekseweg,113,50.8553923545,2.89862643056
8900,Ieper,Pilkemseweg,32,50.8604688399,2.89211149719
8900,Ieper,Zonnebeekseweg,301,50.8610363843,2.91308524131
8900,Ieper,Patersstraat,8,50.8497800284,2.88269035541
8900,Ieper,Rijselstraat,120,50.8469550015,2.88854020583
8900,Ieper,Pannenhuisstraat,20,50.8414614452,2.8727443909
8900,Ieper,Bisdomstraat,19,50.8410882092,2.86282866549
8900,Ieper,Lindendreef,40,50.857085681,2.89347549388
8900,Ieper,Augustijnenstraat,25,50.8546458933,2.87069403667
8900,Ieper,Boudewijnlaan,2,50.8533906935,2.86169855586
8900,Ieper,Beluikstraat,10,50.8505828219,2.8800274197
8900,Ieper,Oliedamstraat,8,50.8564224222,2.8698932202
8900,Ieper,Rijselseweg,106,50.8384900109,2.88737656931
8900,Ieper,Schuttelaerestraat,5,50.8470842572,2.88538337329
8900,Ieper,Zonnebeekseweg,236,50.8598772146,2.91351833523
8900,Ieper,Ligywijk,48,50.8531318568,2.90094575509
8900,Ieper,Madeliefjeslaan,21,50.844559987,2.87079521123
8900,Ieper,Meensestraat,10,50.8513799504,2.88875201616
8900,Ieper,Dikkebusseweg,132,50.8422618481,2.87182754018
8900,Ieper,Rijkeklarenstraat,73,50.8479137224,2.89028562559
8900,Ieper,Brielenstraat,2,50.8671780226,2.84917573465
8900,Ieper,Sint-Jacobsnieuwweg,5,50.8494962547,2.88863632502
8900,Ieper,Oostkaai,22,50.8716843548,2.87789355642
8900,Ieper,Bukkersstraat,34,50.8460851245,2.89121753209
8900,Ieper,Pateelstraat,17,50.8467993419,2.89044976041
8900,Ieper,Sobrylaan,10,50.8544144885,2.86219883696
8900,Ieper,Melkerijstraat,26,50.8221659201,2.82889953275
8900,Ieper,Wieltjestraat,2,50.8684945607,2.91890998401
8900,Ieper,Diksmuidseweg,151,50.867292653,2.87439308182
8900,Ieper,Potijzestraat,55,50.8607721038,2.9104683807
8900,Ieper,Ter Linden,46,50.8403328758,2.87645944252
8900,Ieper,Brugseweg,29,50.8577035576,2.88690283484
8900,Ieper,Crescendostraat,6,50.8432903968,2.87323267051
8900,Ieper,Rijselstraat,102,50.8474924614,2.88795277717
8900,Ieper,Oude Molenweg,8,50.8596017597,2.88044145961
8900,Ieper,Zonnebeekseweg,22,50.8546158923,2.8979752849
8900,Ieper,Polenlaan,12,50.857822239,2.88523733143
8900,Ieper,Zonnebeekseweg,93,50.8551775881,2.89796907723
8900,Ieper,Elverdingestraat,7,50.8521137786,2.88226192553
8900,Ieper,Zonnebeekseweg,75,50.8549091371,2.89746923446
8900,Ieper,Pannenhuisstraat,55,50.8372383099,2.86936536961
8900,Ieper,Frenchlaan,15,50.8526331115,2.8924170999
8900,Ieper,Janseniusstraat,8,50.8526827644,2.88602247976
8900,Ieper,Meenseweg,63,50.8511012215,2.90041714571
8900,Ieper,Anjelierenlaan,36,50.8480725828,2.8720452033
8900,Ieper,Bukkersstraat,16,50.8464806478,2.89088172308
8900,Ieper,Jaagpad,4,50.8692510356,2.88296975268
8900,Ieper,Rozenwijk,7,50.8204525154,2.82866121697
8900,Ieper,Vaubanstraat,73,50.8502336657,2.8978122453
8900,Ieper,Diamantstraat,3,50.8542945069,2.89306663037
8900,Ieper,Dikkebusseweg,10,50.8460547435,2.87704320806
8900,Ieper,Brielenstraat,26,50.8662286268,2.84584590026
8900,Ieper,Potakker,18,50.8594942095,2.89284942798
8900,Ieper,Pilkemseweg,14,50.8597924655,2.89178582964
8900,Ieper,Veemarkt,30,50.8541266392,2.88321873159
8900,Ieper,Ter Linden,11,50.8407511803,2.87422976936
8900,Ieper,Pannenhuisstraat,5,50.8414693584,2.87349904496
8900,Ieper,Dikkebusseweg,160,50.8413182177,2.87056773557
8900,Ieper,D'Hondtstraat,88,50.8481624529,2.88937508824
8900,Ieper,Lindendreef,29,50.8580189687,2.89412608481
8900,Ieper,Fochlaan,8,50.8493702263,2.87680451823
8900,Ieper,Frenchlaan,47,50.8534696127,2.89404363268
8900,Ieper,Tybaertstraat,2,50.8434339959,2.87520235811
8900,Ieper,Dikkebusseweg,114,50.8428042548,2.87266304748
8900,Ieper,Steenakkerstraat,4,50.8205682867,2.81350817444
8900,Ieper,Anjelierenlaan,44,50.8481753688,2.87173629026
8900,Ieper,Brugseweg,483,50.8765839961,2.92332860744
8900,Ieper,Zonnebeekseweg,141,50.8562697344,2.90029351044
8900,Ieper,Fazantenlaan,33,50.8473764958,2.86396344727
8900,Ieper,Pilkemseweg,60,50.8625902907,2.89328114506
8900,Ieper,Veurnseweg,126,50.8684704382,2.84741964698
8900,Ieper,D'Hondtstraat,35,50.8496093194,2.88829061486
8900,Ieper,Wateringstraat,22,50.8450462396,2.88755007482
8900,Ieper,Korte Torhoutstraat,7,50.8520926192,2.88828315848
8900,Ieper,Windeweg,15,50.823205304,2.82979416914
8900,Ieper,Dehaernestraat,40,50.847626768,2.88558057436
8900,Ieper,Meenseweg,170,50.8492744823,2.90794561134
8900,Ieper,Rijselsepoort,10,50.8406460941,2.88582954897
8900,Ieper,Vaubanstraat,55,50.8504061616,2.8952933007
8900,Ieper,Duivenstraat,5,50.8577409508,2.89323843988
8900,Ieper,Hovelandpark,9,50.8504395266,2.90774011414
8900,Ieper,Kerkstraat,50,50.8034493626,2.82460264914
8900,Ieper,Pilkemseweg,49,50.8644077583,2.89408776992
8900,Ieper,Boomgaardstraat,11,50.8499469091,2.88511325262
8900,Ieper,Acacialaan,52,50.8559899059,2.89632387684
8900,Ieper,D'Hondtstraat,17,50.8503435957,2.88766030635
8900,Ieper,Augustijnenstraat,78,50.8537943278,2.86314938125
8900,Ieper,Ieperleestraat,8,50.8459760625,2.88723930435
8900,Ieper,Berkenwijk,45,50.8215549955,2.83170610717
8900,Ieper,Oude Houtmarktstraat,2,50.8526041953,2.88682790668
8900,Ieper,Haiglaan,28,50.8524706524,2.8757191046
8900,Ieper,Capucienenstraat,95,50.8460590148,2.86852867563
8900,Ieper,Stationsstraat,2,50.8493648929,2.88151894638
8900,Ieper,Groenestraat,41,50.8669922203,2.89911469755
8900,Ieper,Meenseweg,45,50.8513468788,2.8998437482
8900,Ieper,Breydelhofstraat,8,50.8689654689,2.84454092603
8900,Ieper,Veurnseweg,88,50.8674656657,2.85076774232
8900,Ieper,Briekestraat,15,50.8669209461,2.89611103211
8900,Ieper,Sittingbournelaan,25,50.8327716634,2.87681092184
8900,Ieper,Capucienenstraat,9,50.8420801059,2.87033939803
8900,Ieper,Berkenwijk,15,50.8222457397,2.83083652509
8900,Ieper,Ter Olmen,100,50.8387597118,2.8761313595
8900,Ieper,Meenseweg,33,50.852051852,2.89920215741
8900,Ieper,Oliedamstraat,10,50.8568073861,2.86976304307
8900,Ieper,Masscheleinlaan,3,50.8549790128,2.88479621745
8900,Ieper,Meenseweg,15,50.8529368912,2.89604904578
8900,Ieper,Zaalhof,9,50.846658033,2.88646893913
8900,Ieper,Poperingseweg,109,50.8485611722,2.86558882614
8900,Ieper,Capronstraat,11,50.8508906588,2.87582907169
8900,Ieper,Masscheleinlaan,27,50.8548878733,2.88394582099
8900,Ieper,Nonnenbossenstraat,26,50.8499442612,2.91475164147
8900,Ieper,Dikkebusseweg,149,50.8411285085,2.87157548516
8900,Ieper,Sint-Omerlaan,53,50.8356048652,2.87651602158
8900,Ieper,Fochlaan,10,50.8494422193,2.87683063999
8900,Ieper,Capucienenstraat,77,50.8450434009,2.86901070319
8900,Ieper,Ter Linden,64,50.8413153978,2.87623627404
8900,Ieper,Dikkebusseweg,523,50.8205204411,2.83302422061
8900,Ieper,Doorgangstraat,29,50.8488244008,2.87956057
8900,Ieper,Eigenheerdstraat,23,50.8510526572,2.87777165624
8900,Ieper,Sittingbournelaan,1,50.8318366927,2.87869550724
8900,Ieper,Zorgvlietstraat,13,50.8229005016,2.83245537579
8900,Ieper,Ter Olmen,38,50.8364853414,2.87709197531
8900,Ieper,Elverdingestraat,57,50.8514785989,2.87909016676
8900,Ieper,Stationsstraat,26,50.8490931135,2.88040082574
8900,Ieper,Sobrylaan,8,50.854353706,2.86194666489
8900,Ieper,Merghelynckstraat,3,50.8491239573,2.88768409384
8900,Ieper,Izegrimstraat,60,50.8425613944,2.86850179334
8900,Ieper,Surmont de Volsberghestraat,17,50.8530876357,2.88393861198
8900,Ieper,Beluikstraat,8,50.8504991702,2.88004611802
8900,Ieper,Brugseweg,465,50.8759013946,2.92203708752
8900,Ieper,Rijselstraat,84,50.8480978074,2.88747965748
8900,Ieper,Tegelstraat,20,50.8457451229,2.88831143635
8900,Ieper,Brugseweg,324,50.8669150775,2.91152570138
8900,Ieper,Cartonstraat,35,50.8534670812,2.88895037365
8900,Ieper,Veurnseweg,101,50.8664433965,2.8526704227
8900,Ieper,Azalealaan,43,50.8455947837,2.87267524223
8900,Ieper,Brugseweg,162,50.8617933856,2.89989621369
8900,Ieper,Meenseweg,152,50.8469908091,2.90897974497
8900,Ieper,Eiland,4,50.8459475335,2.8806939579
8900,Ieper,Tegelstraat,55,50.8451981817,2.88789820135
8900,Ieper,Diksmuidseweg,18,50.8582227153,2.88211152424
8900,Ieper,Boterstraat,38,50.8505577153,2.88277784101
8900,Ieper,Tempelstraat,35,50.8491452365,2.88207952374
8900,Ieper,Patersstraat,10,50.8497028723,2.88264691791
8900,Ieper,Zonnebeekseweg,248,50.860205255,2.91451539607
8900,Ieper,Nikolaas De Kanonnierlaan,4,50.8564996382,2.89241798925
8900,Ieper,Rozenwijk,22,50.8206265059,2.82952436784
8900,Ieper,Kalfvaart,52,50.8577863212,2.89132041088
8900,Ieper,Pennestraat,3,50.856312677,2.89000175692
8900,Ieper,Dikkebusseweg,505,50.821015925,2.83446370501
8900,Ieper,Komenseweg,6,50.8365683467,2.89338026428
8900,Ieper,Diksmuidestraat,51,50.8535037713,2.88622982174
8900,Ieper,Arsenaalstraat,9,50.8471500164,2.88456125775
8900,Ieper,Sint-Jacobsstraat,50,50.8488968245,2.89017816152
8900,Ieper,Kalfvaart,70,50.8582605509,2.89140139555
8900,Ieper,Dikkebusseweg,8,50.8461051166,2.87708734062
8900,Ieper,Elverdingestraat,22,50.8522924133,2.88164281274
8900,Ieper,Paddepoelstraat,14,50.8482820259,2.89020161206
8900,Ieper,Elverdingestraat,75,50.8513680148,2.87790156172
8900,Ieper,Elverdingestraat,93,50.8512168257,2.87706323199
8900,Ieper,Kattestraat,39,50.876153965,2.92444758619
8900,Ieper,De Clerckstraat,23,50.8530348477,2.8684928748
8900,Ieper,Kanonweg,15,50.8450629523,2.88829002317
8900,Ieper,Zonnebeekseweg,7,50.8537220801,2.89507361885
8900,Ieper,Proosdijstraat,10,50.8418877636,2.86350443991
8900,Ieper,Lombaardstraat,17,50.847416545,2.88649786184
8900,Ieper,Omloopstraat,35,50.8444245698,2.86133219994
8900,Ieper,Rijselseweg,51,50.8340088131,2.8877531086
8900,Ieper,Maloulaan,9,50.8496867413,2.8772516732
8900,Ieper,Robrecht van Bethunelaan,73,50.8523339235,2.90088430552
8900,Ieper,Diksmuidseweg,89,50.8610090451,2.87812954498
8900,Ieper,Basculestraat,53,50.8553057015,2.8925191175
8900,Ieper,Sint-Janshospitaalstraat,14,50.8458371644,2.88949950955
8900,Ieper,Dehaernestraat,29,50.848175842,2.88613349044
8900,Ieper,Europalaan,13,50.8319527334,2.87648606983
8900,Ieper,Oude Molenweg,10,50.8595629575,2.88082042755
8900,Ieper,Rijselstraat,23,50.8500171436,2.88665804566
8900,Ieper,Diksmuidseweg,123,50.864567871,2.87605561372
8900,Ieper,Diksmuidestraat,47,50.853417077,2.88632800754
8900,Ieper,Haiglaan,4,50.851602901,2.87656024634
8900,Ieper,Paddevijverstraat,60,50.8675950923,2.8851429993
8900,Ieper,Robrecht van Bethunelaan,91,50.8521585847,2.90142270439
8900,Ieper,Gildenstraat,29,50.8511404342,2.89619933971
8900,Ieper,Poperingseweg,127,50.8491106185,2.86243282917
8900,Ieper,Fiersstraat,15,50.8507856842,2.87784077056
8900,Ieper,Slachthuisstraat,3,50.8544750316,2.8861817241
8900,Ieper,Klaverstraat,6,50.8470104098,2.88770123894
8900,Ieper,Kunstenlaan,53,50.8616876896,2.86929842415
8900,Ieper,Frezenbergstraat,54,50.8383447028,2.86171805314
8900,Ieper,Diksmuidseweg,36,50.8584034999,2.88076123592
8900,Ieper,Ouderdomseweg,48,50.8180334383,2.80824714301
8900,Ieper,Rijselstraat,66,50.8486925532,2.8870003263
8900,Ieper,Briekestraat,33,50.8683173747,2.89733710803
8900,Ieper,Kerselaar,6,50.8508972446,2.90550846394
8900,Ieper,Rijselseweg,47,50.8341402475,2.88799375006
8900,Ieper,Augustijnenstraat,157,50.8528607047,2.86121257582
8900,Ieper,Slachthuisstraat,27,50.8542531413,2.88504469461
8900,Ieper,Kerselaar,43,50.8510984302,2.90401368427
8900,Ieper,Brugseweg,252,50.8653703965,2.90616257726
8900,Ieper,Sint-Omerlaan,17,50.83314461,2.87874068329
8900,Ieper,Minneplein,1,50.8521076876,2.87974633764
8900,Ieper,Velodroomstraat,32,50.85642019,2.87598176222
8900,Ieper,Haiglaan,130,50.8559940123,2.87363782929
8900,Ieper,Breydelhofstraat,81,50.8681369917,2.84439444546
8900,Ieper,Hommelhofstraat,11,50.8414339349,2.8800385584
8900,Ieper,Zweerdstraat,6,50.8229787016,2.81532994964
8900,Ieper,Kanonweg,8,50.8450679622,2.88876547916
8900,Ieper,Veurnseweg,179,50.8682591701,2.84698487479
8900,Ieper,D'Hondtstraat,53,50.8490455617,2.88888187633
8900,Ieper,Acacialaan,16,50.8568873562,2.89581066171
8900,Ieper,Aalmoezeniersstraat,3,50.8498010203,2.89090149832
8900,Ieper,Capucienenstraat,24,50.8428271013,2.87113457168
8900,Ieper,Oostkaai,50,50.88244545,2.8741108647
8900,Ieper,Zonnebeekseweg,50,50.8551188998,2.89915515587
8900,Ieper,Acacialaan,34,50.8564755561,2.89606135638
8900,Ieper,Driemolenstraat,14,50.8520109094,2.90539383951
8900,Ieper,Meenseweg,86,50.8502841054,2.9010359296
8900,Ieper,Diksmuidestraat,1,50.8519350343,2.88669744325
8900,Ieper,Rubensdreef,4,50.8588871723,2.87149604768
8900,Ieper,Kunstenlaan,35,50.8604591383,2.86911712788
8900,Ieper,Pilkemseweg,111,50.8694925775,2.88763263453
8900,Ieper,Ooievaarlaan,17,50.8448172033,2.86632826327
8900,Ieper,Rijkeklarenstraat,12,50.8478546288,2.89062649721
8900,Ieper,Ligywijk,100,50.8551634895,2.90279186133
8900,Ieper,Veurnseweg,197,50.8685259826,2.84640546394
8900,Ieper,Meenseweg,242,50.8486615724,2.91478065198
8900,Ieper,Rolleweg,6,50.8509901219,2.89711121971
8900,Ieper,Fazantenlaan,8,50.8455486646,2.86684200884
8900,Ieper,Kaaistraat,14,50.8540503006,2.88441928436
8900,Ieper,Gezelleplein,8,50.8498442586,2.89023699667
8900,Ieper,Korte Torhoutstraat,39,50.8530360195,2.88925540814
8900,Ieper,Pennestraat,10,50.856687717,2.89015985441
8900,Ieper,Zesde-Lansierslaan,22,50.8352051384,2.87954621623
8900,Ieper,Beukenlaan,25,50.8577837387,2.89711135769
8900,Ieper,Hovelandpark,24,50.8513026578,2.90726858381
8900,Ieper,Dikkebusseweg,451,50.8227127618,2.8394303152
8900,Ieper,Immelootstraat,5,50.8530605589,2.8662649842
8900,Ieper,Kerselaar,61,50.8519636004,2.90471509746
8900,Ieper,Zonnebeekseweg,308,50.8648647825,2.93694640337
8900,Ieper,Slachthuisstraat,45,50.8542636412,2.88372107598
8900,Ieper,Diksmuidestraat,15,50.852287725,2.88635281967
8900,Ieper,Ter Olmen,178,50.8391876306,2.8758150361
8900,Ieper,Zorgvlietstraat,66,50.8316150356,2.82589261289
8900,Ieper,Brugseweg,270,50.8656727402,2.90686739691
8900,Ieper,Stationsstraat,44,50.8490343847,2.87969097764
8900,Ieper,Basculestraat,35,50.8550790271,2.89358405668
8900,Ieper,Groenestraat,6,50.8655053435,2.90417880874
8900,Ieper,Neerplaats,8,50.8196332578,2.83385571848
8900,Ieper,Aardestraat,10,50.8489135013,2.87892288027
8900,Ieper,Haiglaan,112,50.8552129085,2.87400258957
8900,Ieper,Ligywijk,38,50.8534110929,2.90043293293
8900,Ieper,Meenseweg,106,50.8492135102,2.90289824968
8900,Ieper,Brugseweg,116,50.8584119986,2.89476480268
8900,Ieper,Haiglaan,46,50.8535990517,2.87495530183
8900,Ieper,Velodroomstraat,14,50.856067183,2.87422927316
8900,Ieper,Nonnenbossenstraat,44,50.8513174012,2.91529592427
8900,Ieper,Ter Olmen,74,50.8373395325,2.8762235716
8900,Ieper,Frenchlaan,51,50.853377999,2.89437334372
8900,Ieper,Ligywijk,2,50.8555156217,2.89971748053
8900,Ieper,Robrecht van Bethunelaan,192,50.8528773957,2.90261357511
8900,Ieper,Diksmuidseweg,105,50.8628457342,2.8773895051
8900,Ieper,Siegenlaan,16,50.8323324467,2.87631003827
8900,Ieper,Meensestraat,27,50.8520903908,2.88979621564
8900,Ieper,Sportstraat,32,50.8551890313,2.87126949624
8900,Ieper,Willibaldlaan,27,50.8464882462,2.87206140359
8900,Ieper,Izegrimstraat,7,50.8430729235,2.86911444296
8900,Ieper,Veemarkt,29,50.854040527,2.88274489493
8900,Ieper,Dikkebusseweg,249,50.8398945579,2.86768657314
8900,Ieper,Zorgvlietstraat,31,50.8236307152,2.83163999446
8900,Ieper,Duivenstraat,19,50.8582670311,2.89278098557
8900,Ieper,Oude Kortrijkstraat,54,50.8514284504,2.91433872748
8900,Ieper,Ligywijk,92,50.8547030328,2.9030857633
8900,Ieper,Vrijheidstraat,22,50.8583291958,2.89236920072
8900,Ieper,Patrijzenlaan,8,50.8458386908,2.86535105285
8900,Ieper,Rijselstraat,109,50.8461927536,2.89018294347
8900,Ieper,Potijzestraat,19,50.8638723718,2.90569374721
8900,Ieper,Brugseweg,12,50.8570500574,2.88767801794
8900,Ieper,Maloulaan,24,50.8506695598,2.87708016781
8900,Ieper,Posthoornstraat,11,50.8446992235,2.87235622022
8900,Ieper,Kennedylaan,12,50.8539905027,2.86161427306
8900,Ieper,Dikkebusseweg,63,50.8435630138,2.87506050834
8900,Ieper,Zonnebeekseweg,39,50.8543590245,2.89614100465
8900,Ieper,Pennestraat,45,50.8559205163,2.88796559703
8900,Ieper,Polenlaan,29,50.8575898297,2.88464121726
8900,Ieper,Azalealaan,25,50.846051707,2.87375312451
8900,Ieper,Pannenhuisstraat,19,50.8393190339,2.87207854141
8900,Ieper,Dikkebusseweg,586,50.8195591176,2.82526951627
8900,Ieper,Zonnebeekseweg,201,50.8579872905,2.90589109889
8900,Ieper,Brugseweg,65,50.8583255777,2.88928327657
8900,Ieper,Lindendreef,30,50.8569631864,2.89300800787
8900,Ieper,Stationsstraat,62,50.8486225023,2.87877104078
8900,Ieper,Ter Linden,28,50.8403083473,2.87532334688
8900,Ieper,Diksmuidestraat,33,50.852959406,2.88616318235
8900,Ieper,Haiglaan,86B,50.8550898747,2.87577982142
8900,Ieper,Pilkemseweg,67,50.8658700563,2.89344089812
8900,Ieper,Augustijnenstraat,96,50.8532607393,2.86130429235
8900,Ieper,Siegenlaan,34,50.8327122615,2.87523086706
8900,Ieper,Dikkebusseweg,27,50.8448608658,2.87678795744
8900,Ieper,Viooltjeslaan,22,50.8474270928,2.87053046487
8900,Ieper,Capucienenstraat,59,50.8441543952,2.86926855075
8900,Ieper,Doorgangstraat,5,50.8495017344,2.87939197478
8900,Ieper,Wieltje,2,50.8681401424,2.91471703854
8900,Ieper,Kloosterpoort,1,50.8524222842,2.8840881689
8900,Ieper,Blauweleliestraat,10,50.8539134391,2.88490158155
8900,Ieper,Pilkemseweg,7,50.8601009326,2.8912125785
8900,Ieper,Doorgangstraat,12,50.8488990628,2.87920909922
8900,Ieper,Ter Olmen,56,50.8377417252,2.87835990183
8900,Ieper,Lindendreef,12,50.856760289,2.89181730607
8900,Ieper,Korte Meersstraat,16,50.8516006824,2.88238552665
8900,Ieper,Poperingseweg,4,50.8504923923,2.87303016265
8900,Ieper,Dikkebusseweg,605,50.8193182187,2.82816024661
8900,Ieper,Brugseweg,187,50.8602361958,2.89712607256
8900,Ieper,Kruisbilkstraat,21,50.8602882996,2.87929771083
8900,Ieper,Meenseweg,124,50.8496701973,2.90303669501
8900,Ieper,Brugseweg,134,50.8591666988,2.89668251778
8900,Ieper,Drietorenweg,20,50.8678343835,2.83548572223
8900,Ieper,D'Hondtstraat,71,50.8482529287,2.88964081335
8900,Ieper,Brugseweg,30,50.8575194841,2.88858956526
8900,Ieper,Sportstraat,14,50.8552370767,2.87219525532
8900,Ieper,Breugheldreef,8,50.8608137562,2.87083502958
8900,Ieper,Capucienenstraat,138,50.8483589545,2.86797666414
8900,Ieper,Dikkebusseweg,177,50.8409959155,2.87046510897
8900,Ieper,Kennedylaan,30,50.8533628623,2.85915574586
8900,Ieper,Plumerlaan,79,50.854877211,2.87968433565
8900,Ieper,Rijselstraat,198,50.8451287397,2.89029124087
8900,Ieper,Lindendreef,5,50.8570640929,2.89200933489
8900,Ieper,Dikkebusseweg,142,50.8420030115,2.87174489391
8900,Ieper,Meenseweg,159,50.8503510859,2.90413681332
8900,Ieper,Ligywijk,56,50.8532701145,2.90149710306
8900,Ieper,Grote Markt,43,50.8506141108,2.8859705353
8900,Ieper,Klaverstraat,25,50.8464871689,2.88739206466
8900,Ieper,Sint-Janstraat,14,50.851516541,2.88140770947
8900,Ieper,Diksmuidseweg,90,50.8617643038,2.87926188307
8900,Ieper,Zonnebeekseweg,158,50.8579118543,2.90703840758
8900,Ieper,Sint-Jacobsnieuwweg,19,50.8496969789,2.88905283177
8900,Ieper,Frenchlaan,1,50.8524739166,2.89191303119
8900,Ieper,Ouderdomseweg,38,50.8173005598,2.81007403538
8900,Ieper,Capronstraat,28,50.8509405423,2.87469035653
8900,Ieper,Kerselaar,25,50.8516386529,2.90541394722
8900,Ieper,Augustijnenstraat,43,50.8543828459,2.86913437792
8900,Ieper,Fazantenlaan,51,50.8475310371,2.86302979999
8900,Ieper,Grachtstraat,10,50.8499928786,2.87577278367
8900,Ieper,Rozenwijk,50,50.821098333,2.82782303203
8900,Ieper,Dikkebusseweg,45,50.8439402792,2.87546221132
8900,Ieper,Recollettenpoort,9,50.8536615182,2.8878777981
8900,Ieper,Kervynlaan,6,50.8550066643,2.85924685951
8900,Ieper,Veurnseweg,71,50.8655180052,2.85528271253
8900,Ieper,Eikenlaan,4,50.8580050918,2.89667314843
8900,Ieper,Elverdingestraat,50,50.8520709947,2.88014250767
8900,Ieper,Merghelynckstraat,10,50.8490183074,2.88803297713
8900,Ieper,Meenseweg,206,50.8492174194,2.91060814385
8900,Ieper,Brugseweg,216,50.8642712043,2.90358048458
8900,Ieper,Haiglaan,11,50.851787367,2.87562447313
8900,Ieper,Sint-Jacobsstraat,75,50.8491566341,2.89053188157
8900,Ieper,Bollingstraat,3,50.8515349994,2.89049545849
8900,Ieper,Rozenlaan,22,50.8567868265,2.89554504935
8900,Ieper,Zonnebeekseweg,397,50.8646297123,2.93134504863
8900,Ieper,Minneplein,33,50.8541160654,2.88246893031
8900,Ieper,Breydelhofstraat,10,50.8691282078,2.84408365672
8900,Ieper,Robrecht van Bethunelaan,19,50.8510646128,2.90313440988
8900,Ieper,Paddepoelstraat,7,50.8483868111,2.8899690863
8900,Ieper,Brugseweg,5,50.8574280425,2.8859543588
8900,Ieper,Ligywijk,74,50.8537835947,2.90281997108
8900,Ieper,Brugseweg,169,50.8594924615,2.89600250454
8900,Ieper,Briekestraat,8,50.8656278184,2.89573056664
8900,Ieper,Kerkweg,7,50.8688373574,2.84870221068
8900,Ieper,Ypermanstraat,52,50.8590299929,2.89761870218
8900,Ieper,Ter Olmen,21,50.8366287947,2.87567475122
8900,Ieper,Kemmelseweg,24,50.8321263624,2.87928760771
8900,Ieper,Rijselseweg,33,50.834553997,2.88794139489
8900,Ieper,Veurnseweg,108,50.8678748987,2.84901964253
8900,Ieper,Velodroomstraat,60,50.8559958386,2.87669881026
8900,Ieper,Berkenwijk,47,50.8217245972,2.83214685191
8900,Ieper,Sint-Jacobsstraat,93,50.8486669645,2.8908884251
8900,Ieper,Ieperleestraat,10,50.8459746223,2.88730325846
8900,Ieper,Brugseweg,234,50.8649354423,2.90501904369
8900,Ieper,Tegelstraat,37,50.8454157324,2.88846510203
8900,Ieper,Dikkebusseweg,415,50.8239073547,2.8426176842
8900,Ieper,Meenseweg,47,50.8513291248,2.89990509388
8900,Ieper,Ambachtenstraat,1,50.8514638497,2.89407302095
8900,Ieper,Robrecht van Bethunelaan,174,50.8523428524,2.90211606544
8900,Ieper,Robrecht van Bethunelaan,134,50.8517761949,2.9028548595
8900,Ieper,Diksmuidestraat,68,50.8542352199,2.88689240596
8900,Ieper,Vaubanstraat,5,50.8505088323,2.89311754876
8900,Ieper,Rijselstraat,41,50.8492903135,2.88715845813
8900,Ieper,Weldadigheidstraat,2,50.8486329335,2.90726506623
8900,Ieper,Zonnebeekseweg,176,50.8582580793,2.90781605233
8900,Ieper,Begijnenstraat,2,50.8492638803,2.87211849296
8900,Ieper,Brugseweg,370,50.875847845,2.92326641044
8900,Ieper,Fiersstraat,8,50.8505879504,2.87790328571
8900,Ieper,Rijselseweg,15,50.8366045729,2.88855512645
8900,Ieper,Ter Olmen,92,50.8380483127,2.87586966067
8900,Ieper,Cartonstraat,40,50.8531682818,2.88944087108
8900,Ieper,Boterstraat,21,50.8502711102,2.88361168164
8900,Ieper,Paddevijverstraat,32,50.8601167287,2.88730906836
8900,Ieper,Minneplein,15,50.8531630797,2.88276722961
8900,Ieper,Sint-Omerlaan,3,50.8327370018,2.87871000726
8900,Ieper,Dikkebusseweg,551,50.8202135558,2.83128108996
8900,Ieper,Gildenstraat,30,50.8509936635,2.89571675875
8900,Ieper,Ooievaarlaan,3,50.844877242,2.86730967004
8900,Ieper,Proosdijstraat,27,50.8428170912,2.86452628381
8900,Ieper,Pannenhuisstraat,37,50.8384341836,2.87083795416
8900,Ieper,Adriaansensweg,27,50.8548577811,2.85639890179
8900,Ieper,Fazantenlaan,47,50.8478027385,2.86320360295
8900,Ieper,Zonnebeekseweg,194,50.8583080891,2.90912539
8900,Ieper,Dikkebusseweg,98,50.8430971703,2.87334532379
8900,Ieper,Berkenwijk,8,50.8219850474,2.83145145357
8900,Ieper,Rijselseweg,68,50.8404005248,2.88864752322
8900,Ieper,Ouderdomseweg,2,50.8138071748,2.8179268019
8900,Ieper,Dehaernestraat,30,50.847930855,2.8854739796
8900,Ieper,Breydelhofstraat,45,50.8672495487,2.84358492291
8900,Ieper,Meenseweg,224,50.8487376799,2.91329014232
8900,Ieper,Meenseweg,8,50.8528754279,2.89487757883
8900,Ieper,Slachthuisstraat,10,50.8547226864,2.88541609974
8900,Ieper,Ter Olmen,48,50.8370462164,2.8782373924
8900,Ieper,Kalfvaart,87,50.8584021959,2.89104691635
8900,Ieper,Kalfvaart,16,50.8562134089,2.89086499343
8900,Ieper,Tempermanstraat,8,50.8520005146,2.86800303527
8900,Ieper,Frenchlaan,33,50.8530240645,2.89355478404
8900,Ieper,Zonnebeekseweg,241,50.8596332256,2.90966853878
8900,Ieper,Elverdingestraat,39,50.851671124,2.87992066463
8900,Ieper,Zwaanhofweg,9,50.8740676225,2.88171090807
8900,Ieper,Wieltje,21,50.8703891135,2.91709315294
8900,Ieper,Rijkeklarenstraat,5,50.8478852157,2.88997136822
8900,Ieper,Frezenbergstraat,36,50.8386514832,2.86230560967
8900,Ieper,Diksmuidseweg,54,50.8593273706,2.87898366043
8900,Ieper,Tegelstraat,19,50.8458176447,2.88915657994
8900,Ieper,Neerstraat,26,50.8461890655,2.88806539924
8900,Ieper,Windeweg,8,50.8231040796,2.83053577571
8900,Ieper,Rijselstraat,127,50.84582211,2.89055220081
8900,Ieper,Robrecht van Bethunelaan,37,50.8511928686,2.90211585892
8900,Ieper,Poperingseweg,23,50.8496604332,2.87247373156
8900,Ieper,Lombaardstraat,53,50.8474725176,2.8843396048
8900,Ieper,Kerkstraat,22,50.8172846617,2.8315965091
8900,Ieper,Haiglaan,82,50.8545496604,2.87457765471
8900,Ieper,Belletstraat,18,50.8537486847,2.87155627746
8900,Ieper,Frezenbergstraat,18,50.8390366636,2.86367066616
8900,Ieper,Diksmuidseweg,72,50.8606000286,2.87875239502
8900,Ieper,Dehaernestraat,12,50.8486888139,2.88506091429
8900,Ieper,Kunstenlaan,17,50.8588944237,2.87026785793
8900,Ieper,Diksmuidseweg,13A,50.857730736,2.88251801744
8900,Ieper,Lange Torhoutstraat,3,50.8531596929,2.88974383077
8900,Ieper,Kleine Windeweg,4,50.8199099312,2.82685912588
8900,Ieper,Wittemolenstraat,1,50.8526336864,2.86075879119
8900,Ieper,Masscheleinlaan,10,50.8555254051,2.88565612
8900,Ieper,Westkaai,18,50.8587749001,2.88360513639
8900,Ieper,Sint-Jacobsstraat,57,50.8496085611,2.89002724356
8900,Ieper,Paddevijverstraat,67,50.8681995665,2.88270446644
8900,Ieper,Van Eyckdreef,5,50.8598455606,2.87048898944
8900,Ieper,Boterstraat,56,50.8504260138,2.88176462035
8900,Ieper,Westkaai,6B,50.8593859083,2.88292014007
8900,Ieper,Veurnseweg,53,50.8614228544,2.86379510205
8900,Ieper,Meenseweg,295,50.8492553428,2.91528779657
8900,Ieper,Europalaan,6,50.8314368626,2.87567783903
8900,Ieper,Robrecht van Bethunelaan,156,50.852617874,2.90271157824
8900,Ieper,Tegelstraat,5,50.8460170788,2.88946374186
8900,Ieper,Sint-Omerlaan,35,50.8354384494,2.87709677865
8900,Ieper,Basculestraat,17,50.8544873874,2.89399778875
8900,Ieper,Kalfvaart,69,50.8579918732,2.89086434519
8900,Ieper,Wittemolenstraat,15,50.851865213,2.86108200255
8900,Ieper,Gildenstraat,12,50.8516743845,2.89438457933
8900,Ieper,Brugseweg,352,50.8709421106,2.91759087854
8900,Ieper,Paddevijverstraat,14,50.8593473355,2.88812757041
8900,Ieper,Nikolaas De Kanonnierlaan,11,50.8562871073,2.89304883246
8900,Ieper,Lange Torhoutstraat,17,50.8538350076,2.88939986545
8900,Ieper,Sint-Elisabethstraat,7,50.8484590511,2.886310048
8900,Ieper,Sint-Elisabethstraat,19,50.8483629878,2.88582336853
8900,Ieper,Westkaai,7,50.8595816418,2.8828415027
8900,Ieper,Kalfvaart,9,50.8562146183,2.89032573271
8900,Ieper,Ligywijk,31,50.8546161988,2.90154060628
8900,Ieper,Wittemolenstraat,10,50.8520827719,2.8601351549
8900,Ieper,Meenseweg,51,50.8512811386,2.89998627454
8900,Ieper,Madeliefjeslaan,9,50.8447126758,2.87152897386
8900,Ieper,Hoge Wieltjesgracht,4,50.8557144573,2.88855164627
8900,Ieper,Tempermanstraat,3,50.8524234365,2.8686264418
8900,Ieper,Dikkebusseweg,68,50.8438024543,2.87468636663
8900,Ieper,Dikkebusseweg,535,50.8203960325,2.83241593367
8900,Ieper,Poperingseweg,11,50.8498092692,2.87280745654
8900,Ieper,Ter Linden,76,50.8411723157,2.8758664888
8900,Ieper,Potakker,28,50.8596208776,2.89377765178
8900,Ieper,Reinaartstraat,12,50.8407732115,2.86740689673
8900,Ieper,Veurnseweg,201,50.8685684814,2.84621596118
8900,Ieper,Masscheleinlaan,15,50.8549734001,2.88440221497
8900,Ieper,Drietorenweg,3,50.8692721327,2.84361790084
8900,Ieper,Dikkebusseweg,229,50.8402028405,2.868478339
8900,Ieper,Grote Markt,35,50.8506872035,2.88655355117
8900,Ieper,Boterstraat,13,50.8503076519,2.88406219127
8900,Ieper,Dikkebusseweg,517,50.8207344922,2.83350893229
8900,Ieper,Veurnseweg,25,50.859160125,2.86907190955
8900,Ieper,Brugseweg,336,50.8672872781,2.91252266669
8900,Ieper,Korte Torhoutstraat,30,50.8527617859,2.88993304503
8900,Ieper,Sint-Janstraat,20,50.8515337489,2.88089981093
8900,Ieper,Berkenwijk,27,50.822596279,2.8307718347
8900,Ieper,Sterrestraat,17,50.8481402254,2.87331660208
8900,Ieper,Ter Linden,58,50.8410829479,2.87696248062
8900,Ieper,Capucienenstraat,54,50.8440942019,2.87021529198
8900,Ieper,Reigerslaan,29,50.8473149254,2.86229052386
8900,Ieper,Anjelierenlaan,4,50.8473822971,2.87232551679
8900,Ieper,Meenseweg,27,50.8524421187,2.89861726038
8900,Ieper,Tempeliersstraat,22,50.8458884536,2.87622704192
8900,Ieper,Brugseweg,192,50.8634989101,2.90221679904
8900,Ieper,Haiglaan,48,50.8536352442,2.87491665257
8900,Ieper,Elverdingestraat,83,50.8512705678,2.87747144235
8900,Ieper,Dikkebusseweg,86,50.8434249732,2.87372458159
8900,Ieper,Siegenlaan,44,50.8329305778,2.87502658226
8900,Ieper,Rozendaalstraat,119,50.8815236946,2.87646680953
8900,Ieper,Brugseweg,318,50.8666201749,2.91102676262
8900,Ieper,Capucienenstraat,72,50.8452100274,2.86986331857
8900,Ieper,Sint-Jacobsstraat,30,50.8495625315,2.88964251109
8900,Ieper,Kruisbilkstraat,26,50.8602580459,2.8806055057
8900,Ieper,Lombaardstraat,25,50.8473304993,2.88589313939
8900,Ieper,Meenseweg,230,50.8484038993,2.91444094041
8900,Ieper,Augustijnenstraat,35,50.8545209355,2.86994233404
8900,Ieper,De Montstraat,9,50.8488420497,2.88371249246
8900,Ieper,Rijselstraat,110,50.8471592543,2.8880462115
8900,Ieper,Zonnebeekseweg,123,50.8556547877,2.89912718328
8900,Ieper,Paddepoelstraat,19,50.848563784,2.89034202304
8900,Ieper,Boezingepoortstraat,2,50.8525142502,2.88372462712
8900,Ieper,Vinkenlaan,9,50.8446231596,2.86441198977
8900,Ieper,Oude Konijnstraat,4,50.8481020687,2.88497063592
8900,Ieper,Vaubanstraat,39,50.8504421373,2.89464990181
8900,Ieper,Slachthuisstraat,15,50.8544466252,2.88571259271
8900,Ieper,Anjelierenlaan,52,50.8482826,2.87131077215
8900,Ieper,Minneplein,10,50.8528048905,2.88213738048
8900,Ieper,Poperingseweg,135,50.8494038936,2.86135990767
8900,Ieper,Korte Torhoutstraat,12,50.8524826894,2.88933332816
8900,Ieper,Viooltjeslaan,40,50.8477022654,2.86975206227
8900,Ieper,Ter Olmen,41,50.8366683388,2.87625268023
8900,Ieper,Oude Kortrijkstraat,59,50.8525986977,2.92209531602
8900,Ieper,Brugseweg,156,50.8615259566,2.89978608683
8900,Ieper,Meenseweg,175,50.8500171748,2.90511146234
8900,Ieper,Rijselseweg,10,50.8431911281,2.88934373647
8900,Ieper,Meiboomstraat,4,50.866390096,2.84454942054
8900,Ieper,Potijzestraat,67,50.8606953647,2.91258650529
8900,Ieper,Ieperleestraat,68,50.8450741163,2.88925339665
8900,Ieper,Dikkebusseweg,653,50.817622838,2.82434430576
8900,Ieper,Zonnebeekseweg,208,50.8588049785,2.91066875779
8900,Ieper,Torrepoortlaan,4,50.856733014,2.89344451314
8900,Ieper,D'Hondtstraat,78,50.848472101,2.88909606332
8900,Ieper,Zonnebeekseweg,12,50.8543851559,2.89747156902
8900,Ieper,Dikkebusseweg,104,50.843050231,2.87274554127
8900,Ieper,Diksmuidestraat,6,50.8521442339,2.88704409781
8900,Ieper,Diksmuidestraat,45,50.8533705513,2.88632478709
8900,Ieper,Rijselstraat,92,50.8477034172,2.88768367244
8900,Ieper,Kleine Pennestraat,21,50.8571368936,2.88832489126
8900,Ieper,Motestraat,18,50.8524802662,2.86195343953
8900,Ieper,Dikkebusseweg,410,50.8247308977,2.84225268506
8900,Ieper,Dikkebusseweg,671,50.8167499755,2.82208242989
8900,Ieper,Vrijheidstraat,29,50.8583872873,2.8919125107
8900,Ieper,Kaaistraat,3,50.853585056,2.88422460156
8900,Ieper,Steverlyncklaan,5,50.84881754,2.90187705989
8900,Ieper,Ambachtenstraat,10,50.8509171366,2.89464196992
8900,Ieper,Zweerdstraat,1,50.8179601312,2.82078678767
8900,Ieper,Diksmuidseweg,24,50.8582400305,2.88189561875
8900,Ieper,Burchtstraat,4,50.849918399,2.88538287564
8900,Ieper,Stationsstraat,34,50.8490456551,2.88006188449
8900,Ieper,Ieperleestraat,15,50.846177466,2.88770205124
8900,Ieper,Haiglaan,23,50.852123113,2.87539919093
8900,Ieper,Robrecht van Bethunelaan,67,50.8519658676,2.90112518551
8900,Ieper,Breydelhofstraat,15,50.8683393545,2.84304940671
8900,Ieper,Rijselseweg,6,50.8433384543,2.88935472306
8900,Ieper,Schipstraat,4,50.8571127327,2.87743400348
8900,Ieper,Zonnebeekseweg,226,50.8594890602,2.91161951079
8900,Ieper,Stationsstraat,16,50.8492722711,2.88090106446
8900,Ieper,Rijselseweg,45,50.8341954312,2.88797767246
8900,Ieper,Veemarkt,22,50.8538978034,2.88328206908
8900,Ieper,Brugseweg,39,50.8577945023,2.88763268865
8900,Ieper,Nonnenbossenstraat,34,50.8504170016,2.91532347242
8900,Ieper,Oude Houtmarktstraat,16,50.8525301626,2.8880145631
8900,Ieper,Millecamstraat,1,50.8522356283,2.86600712512
8900,Ieper,Driemolenstraat,7,50.8522411498,2.90653135516
8900,Ieper,Haiglaan,107,50.8569220194,2.87169244714
8900,Ieper,Rozendaalstraat,13,50.8759638009,2.88179728061
8900,Ieper,Flanders Language Valley,1,50.8693144596,2.89092109234
8900,Ieper,Sittingbournelaan,17,50.8325821184,2.87724159408
8900,Ieper,Kerselaar,47,50.8513888229,2.90373803806
8900,Ieper,White-Châteaustraat,7,50.849980979,2.91299955383
8900,Ieper,Veurnseweg,136,50.8690638348,2.84695938985
8900,Ieper,Wateringstraat,12,50.8455441127,2.88702511575
8900,Ieper,De Clerckstraat,4,50.8525539348,2.86673144097
8900,Ieper,Robrecht van Bethunelaan,85,50.8519467349,2.90150772002
8900,Ieper,Rustenhove,3,50.8563451639,2.89196032337
8900,Ieper,Windeweg,27,50.8225699671,2.82861645935
8900,Ieper,Zonnebeekseweg,30,50.8547809322,2.89833802019
8900,Ieper,Nonnenbossenstraat,16,50.8502767226,2.91364644088
8900,Ieper,Robrecht van Bethunelaan,116,50.852526613,2.90338101101
8900,Ieper,Pilkemseweg,108,50.8663070085,2.89514976886
8900,Ieper,Dikkebusseweg,150,50.8414954114,2.87094593438
8900,Ieper,Zorgvlietstraat,38,50.8237661502,2.83101082754
8900,Ieper,Colaertplein,7,50.8492515773,2.87730950574
8900,Ieper,Viooltjeslaan,29,50.8477543546,2.86917036968
8900,Ieper,Groenestraat,1,50.8652259496,2.90363554491
8900,Ieper,Bukkersstraat,9,50.8477972863,2.8899218683
8900,Ieper,Capucienenstraat,90,50.8457906834,2.86972920642
8900,Ieper,Paddevijverstraat,20,50.859684483,2.88804719993
8900,Ieper,D'Hondtstraat,25,50.8500050063,2.88800403557
8900,Ieper,Slachthuisstraat,33,50.8542366746,2.8847521765
8900,Ieper,Rolleweg,1,50.8516565606,2.89666013325
8900,Ieper,Lindendreef,39,50.8582704926,2.89473031593
8900,Ieper,Briekestraat,27,50.8677542803,2.89733200204
8900,Ieper,Zonnebeekseweg,105,50.8552829109,2.89840953767
8900,Ieper,Merghelynckstraat,15,50.8494157255,2.88781949008
8900,Ieper,Veurnseweg,24K,50.866142523,2.85531602629
8900,Ieper,Frezenbergstraat,42,50.8385790076,2.86212319165
8900,Ieper,Oude Kortrijkstraat,7,50.850928417,2.90943372931
8900,Ieper,Diksmuidseweg,4,50.8582642635,2.88328374106
8900,Ieper,Brugseweg,389,50.8683033996,2.91237268561
8900,Ieper,Breydelhofstraat,104,50.8674758952,2.84725931136
8900,Ieper,Bukkersstraat,26,50.8462573368,2.89110560599
8900,Ieper,Basculestraat,43,50.8552562947,2.89308743738
8900,Ieper,Pilkemseweg,37,50.8636794504,2.89347825238
8900,Ieper,Diksmuidestraat,81,50.8543178084,2.88637659558
8900,Ieper,Tybaertstraat,16,50.8428937846,2.87576653945
8900,Ieper,Torrepoortlaan,24,50.8559179058,2.89366938608
8900,Ieper,Pilkemseweg,19,50.8614525458,2.89163777737
8900,Ieper,Veemarkt,5,50.8532304081,2.88272334148
8900,Ieper,Augustijnenstraat,106,50.8529368819,2.85999695697
8900,Ieper,Siegenlaan,9,50.8322595902,2.8744084188
8900,Ieper,Boterstraat,2,50.8507658635,2.8842410311
8900,Ieper,Sittingbournelaan,35,50.8332926805,2.87730325778
8900,Ieper,Boterstraat,41,50.8499767417,2.88255417937
8900,Ieper,Sint-Jacobsstraat,40,50.8490736114,2.88992277408
8900,Ieper,Dikkebusseweg,588,50.8190024754,2.82556498639
8900,Ieper,Meenseweg,240,50.8483471199,2.91477830285
8900,Ieper,Brugseweg,121,50.8587597726,2.89384103538
8900,Ieper,Brielenstraat,16,50.8666425062,2.84755212651
8900,Ieper,Acacialaan,62,50.8557519755,2.89642962607
8900,Ieper,Polenlaan,5,50.8557562976,2.886111206
8900,Ieper,Zonnebeekseweg,83,50.8550198906,2.8976900598
8900,Ieper,Weldadigheidstraat,9,50.8487733015,2.9080604581
8900,Ieper,Diksmuidseweg,59,50.8590778987,2.8773088729
8900,Ieper,Veurnseweg,78,50.8672738438,2.85154375499
8900,Ieper,Melkerijstraat,16,50.8214013095,2.82975083417
8900,Ieper,Frenchlaan,27,50.8530276285,2.89318749752
8900,Ieper,Zonnebeekseweg,294,50.8644241004,2.93625159073
8900,Ieper,Wieltje,41,50.8712121311,2.91905478288
8900,Ieper,Europalaan,1,50.8315668365,2.87483434921
8900,Ieper,Kunstenlaan,61,50.8618479089,2.87012157034
8900,Ieper,Cartonstraat,25,50.8534698572,2.88827231973
8900,Ieper,Eikenlaan,11,50.8579909658,2.89612056913
8900,Ieper,Pennestraat,33,50.8560252803,2.88851558113
8900,Ieper,Ligywijk,119,50.8550374481,2.90169237615
8900,Ieper,Velodroomstraat,20,50.8563816612,2.87552586446
8900,Ieper,Ter Linden,48,50.840358373,2.87676038956
8900,Ieper,Kaaistraat,20,50.8542358628,2.88437521606
8900,Ieper,Kalfvaart,44,50.8574613023,2.89148588992
8900,Ieper,Brugseweg,103,50.8589555374,2.89261304909
8900,Ieper,Brugseweg,475,50.8762875605,2.92268629404
8900,Ieper,Rijselstraat,74,50.848392115,2.88728916023
8900,Ieper,Sittingbournelaan,45,50.8330715818,2.8764407776
8900,Ieper,Dikkebusseweg,139,50.8414826842,2.87188599647
8900,Ieper,Lijnwaadstraat,16,50.8448203568,2.87348608323
8900,Ieper,Bardoncstraat,16,50.853232886,2.9040515896
8900,Ieper,Ypermanstraat,26,50.8571086028,2.89825314464
8900,Ieper,Brugseweg,457,50.8728341822,2.91870904045
8900,Ieper,Ligywijk,41,50.854151691,2.90128734965
8900,Ieper,Elverdingestraat,12,50.8524363468,2.88220911567
8900,Ieper,Acacialaan,9,50.8568361659,2.89693333907
8900,Ieper,Ligywijk,137,50.8553043934,2.9009226741
8900,Ieper,Vaubanstraat,85,50.8493858334,2.90000485612
8900,Ieper,Plumerlaan,109,50.8553426228,2.88142303536
8900,Ieper,Izegrimstraat,19,50.8421016013,2.8696572149
8900,Ieper,Groenestraat,38,50.8672655106,2.90142537803
8900,Ieper,Dunantlaan,14,50.8544824798,2.85968812338
8900,Ieper,Pennestraat,68,50.8563599291,2.88803045312
8900,Ieper,Veurnseweg,111,50.8666107564,2.85222740843
8900,Ieper,Elverdingestraat,65,50.8514900752,2.87871937222
8900,Ieper,Kervynlaan,1,50.8552357244,2.85819573262
8900,Ieper,Diksmuidseweg,158,50.8750126068,2.8709469071
8900,Ieper,Schipstraat,15,50.8568327028,2.87828710491
8900,Ieper,Sint-Godelievestraat,3,50.8515948224,2.88120652395
8900,Ieper,Rijkeklarenstraat,67,50.8479187748,2.89017284076
8900,Ieper,Frenchlaan,6,50.8519232204,2.89240757337
8900,Ieper,Diksmuidestraat,10,50.8521136985,2.88689023868
8900,Ieper,Begijnenbosstraat,2,50.8564881414,2.93276374194
8900,Ieper,Rozenwijk,12,50.8212799894,2.82866010654
8900,Ieper,Oude Vaartstraat,16,50.8516511755,2.87472245971
8900,Ieper,Tempelstraat,25,50.8493448608,2.88191768955
8900,Ieper,Hommelhofstraat,23,50.8408190688,2.88119788878
8900,Ieper,Poperingseweg,117,50.8487449685,2.8643832346
8900,Ieper,Pennestraat,15,50.8561794838,2.88943561487
8900,Ieper,de Stuersstraat,28,50.8500900636,2.87953582431
8900,Ieper,Goesdamstraat,28,50.8504620301,2.87479674682
8900,Ieper,Kalfvaart,62,50.8579899239,2.89158789553
8900,Ieper,Diksmuidestraat,63,50.8538197678,2.88601971895
8900,Ieper,Ter Olmen,112,50.8382792357,2.87693880694
8900,Ieper,Sint-Omerlaan,43,50.8350715175,2.87641154367
8900,Ieper,Kleine Pennestraat,8,50.8566464774,2.88882132085
8900,Ieper,Delaerestraat,5,50.852756946,2.88566702903
8900,Ieper,Waterkasteelstraat,17,50.8512299666,2.8752054139
8900,Ieper,Sportstraat,20,50.8553966387,2.87185423155
8900,Ieper,Anjelierenlaan,24,50.8480185369,2.87271430454
8900,Ieper,Zorgvlietstraat,1,50.8220300393,2.83393877944
8900,Ieper,Vaubanstraat,67,50.8503893237,2.89599319609
8900,Ieper,Dikkebusseweg,257,50.8396830227,2.86704977533
8900,Ieper,Veurnseweg,146,50.874529311,2.83811427601
8900,Ieper,Torrepoortlaan,59,50.8556261753,2.89462387065
8900,Ieper,Lange Meersstraat,25,50.8513387578,2.88202295108
8900,Ieper,Meenseweg,193,50.8498860813,2.90758573766
8900,Ieper,Brugseweg,174,50.8620569795,2.90051904128
8900,Ieper,Diksmuidseweg,113,50.8631438928,2.87551620663
8900,Ieper,Noordhofweg,7,50.8703471402,2.86726743999
8900,Ieper,Acacialaan,44,50.8562249077,2.89604207619
8900,Ieper,Dehaernestraat,39,50.8477956145,2.88585006701
8900,Ieper,Dehaernestraat,5,50.8489495632,2.88540236089
8900,Ieper,Fazantenlaan,27,50.8474363625,2.86462833751
8900,Ieper,Oude Bellewaardestraat,2,50.8601524073,2.93650208025
8900,Ieper,Rozenwijk,30,50.8200493152,2.82875546478
8900,Ieper,Gildenstraat,39,50.8504700868,2.8966254104
8900,Ieper,Gildenstraat,5,50.8522401846,2.8940681313
8900,Ieper,Grote Markt,17,50.851091075,2.88749912928
8900,Ieper,Kunstenlaan,43,50.8611571503,2.86886513976
8900,Ieper,Kemmelseweg,36,50.8313714105,2.87676631491
8900,Ieper,Meenseweg,68,50.8507949058,2.89962834099
8900,Ieper,D'Hondtstraat,5,50.8507079177,2.88721122457
8900,Ieper,Paddevijverstraat,19,50.8589227302,2.88763294205
8900,Ieper,Paddevijverstraat,3,50.858232303,2.88838926778
8900,Ieper,Basculestraat,25,50.8549202921,2.89380267466
8900,Ieper,Viooltjeslaan,9,50.8469686073,2.87108547055
8900,Ieper,Wittemolenstraat,27,50.852411357,2.8613836534
8900,Ieper,Brugseweg,49,50.8578931672,2.88826215299
8900,Ieper,Tegelstraat,32,50.8455469008,2.88805068276
8900,Ieper,Meenseweg,229,50.8495977591,2.90950968171
8900,Ieper,Griettensstraat,1A,50.8545681773,2.87046625633
8900,Ieper,Rijselstraat,135,50.8451695483,2.89082550346
8900,Ieper,Windeweg,68,50.8185510668,2.81667282314
8900,Ieper,Plumerlaan,16,50.8529429085,2.87644257877
8900,Ieper,Oude Veurnestraat,16,50.858974307,2.87597140547
8900,Ieper,Pilkemseweg,73,50.8661818942,2.89396490605
8900,Ieper,Dikkebusseweg,212,50.8403369366,2.86786955397
8900,Ieper,Neerstraat,16,50.8464035753,2.88784277336
8900,Ieper,Oude Bellestraat,2,50.8187998345,2.83195423277
8900,Ieper,Masscheleinlaan,1E,50.8549966938,2.88544083579
8900,Ieper,Kunstenlaan,25,50.8595839485,2.8694357038
8900,Ieper,Kapellestraat,19,50.8810832448,2.85400137285
8900,Ieper,Ter Linden,2,50.8401247212,2.87377567338
8900,Ieper,Robrecht van Bethunelaan,144,50.8520110393,2.90254485679
8900,Ieper,Fiersstraat,10,50.8507018759,2.87804525838
8900,Ieper,Kervynlaan,21,50.8558218251,2.86040098208
8900,Ieper,Rijkeklarenstraat,22,50.8479775641,2.8908853797
8900,Ieper,Rijselstraat,117,50.8460455722,2.89036893015
8900,Ieper,Hoornwerk,2,50.8517587246,2.89228249071
8900,Ieper,Poperingseweg,145,50.8495628866,2.85949448471
8900,Ieper,Pilkemseweg,55,50.8654841228,2.89466223809
8900,Ieper,Kalfvaart,26,50.8565887263,2.89099524664
8900,Ieper,Potakker,11,50.8613679794,2.89420074313
8900,Ieper,Dikkebusseweg,51,50.8437993898,2.87541314614
8900,Ieper,Haiglaan,178,50.8572947889,2.87242479881
8900,Ieper,Vaubanstraat,49,50.8504170275,2.89504880626
8900,Ieper,Dikkebusseweg,204,50.840456449,2.86819419399
8900,Ieper,Rozelaarstraat,5,50.8253509304,2.80801605254
8900,Ieper,Vrijheidstraat,9,50.8575402888,2.89201795792
8900,Ieper,Torrepoortlaan,77,50.8550457553,2.89445655636
8900,Ieper,Zesde-Lansierslaan,30,50.835941496,2.87898419385
8900,Ieper,Dikkebusseweg,409,50.8243182323,2.84309197351
8900,Ieper,Boomgaardstraat,23,50.8492915082,2.88538148966
8900,Ieper,Tegelstraat,14,50.8460488058,2.88896368702
8900,Ieper,Kanonweg,10,50.8450266544,2.88865558028
8900,Ieper,Surmont de Volsberghestraat,5,50.8531600627,2.88589762992
8900,Ieper,Zonnebeekseweg,40,50.8550798373,2.8987140441
8900,Ieper,Dikkebusseweg,510,50.8210733034,2.83274087673
8900,Ieper,Fazantenlaan,45,50.8479536146,2.863294782
8900,Ieper,Capucienenstraat,89,50.845607383,2.86892980183
8900,Ieper,Brugseweg,228,50.8647047367,2.90443590454
8900,Ieper,Griettensstraat,38,50.852036118,2.87128937792
8900,Ieper,Dikkebusseweg,481,50.8218988836,2.83759994103
8900,Ieper,Rijselseweg,27,50.8347952856,2.88803091668
8900,Ieper,Van Eyckdreef,14,50.8597240267,2.87162551993
8900,Ieper,Brugseweg,57,50.8579228035,2.88865854888
8900,Ieper,Robrecht van Bethunelaan,180,50.8524191769,2.90172677224
8900,Ieper,Ter Olmen,84,50.8385782639,2.8750575108
8900,Ieper,Goossensstraat,5,50.8528286447,2.86517484479
8900,Ieper,Kemmelseweg,18,50.8326055974,2.87983254115
8900,Ieper,Vaubanstraat,22,50.8499435086,2.89442308669
8900,Ieper,Sint-Janstraat,3,50.8513598909,2.8818103653
8900,Ieper,Minneplein,27,50.8538510634,2.88250926731
8900,Ieper,Korte Torhoutstraat,29,50.8526250513,2.88900769756
8900,Ieper,Rijselstraat,11,50.8502511478,2.88618522967
8900,Ieper,Zesde-Lansierslaan,12,50.8343913955,2.87938839379
8900,Ieper,Europalaan,21,50.8322922742,2.87745665339
8900,Ieper,Lombaardstraat,5,50.8475980152,2.8872188801
8900,Ieper,Begijnenstraat,13,50.8489916596,2.87303799007
8900,Ieper,Ter Olmen,130,50.8383303692,2.8779692171
8900,Ieper,Robrecht van Bethunelaan,128,50.8520113062,2.90312038268
8900,Ieper,Kiplinglaan,11,50.8545772498,2.89220633696
8900,Ieper,Dikkebusseweg,230,50.839934478,2.86643624984
8900,Ieper,Augustijnenstraat,159,50.8526862155,2.86117314366
8900,Ieper,Kleine Poezelstraat,8,50.8817111693,2.88247840308
8900,Ieper,Vijverstraat,4,50.820336726,2.83368883785
8900,Ieper,Dikkebusseweg,463,50.8222908273,2.83874379234
8900,Ieper,Stationsstraat,52,50.8487998601,2.87926351396
8900,Ieper,Azalealaan,35,50.8458003071,2.87316037484
8900,Ieper,Waterkasteelstraat,6,50.8515683203,2.87556651838
8900,Ieper,Meenseweg,140,50.8497862313,2.90394761131
8900,Ieper,Brugseweg,282,50.8657714564,2.90784168474
8900,Ieper,Brugseweg,75,50.8587323552,2.89012608982
8900,Ieper,Robrecht van Bethunelaan,60,50.8513876772,2.90322149188
8900,Ieper,Zonnebeekseweg,29,50.8541515626,2.89571568944
8900,Ieper,Haiglaan,100,50.8548785547,2.87396989535
8900,Ieper,Kennedylaan,22,50.8536158581,2.86015385935
8900,Ieper,D'Hondtstraat,61,50.8487045088,2.88934425769
8900,Ieper,Zesde-Lansierslaan,9,50.8353739121,2.87840695866
8900,Ieper,Dikkebusseweg,185,50.8408750181,2.87017231284
8900,Ieper,Beukenlaan,1,50.8581867481,2.89513552844
8900,Ieper,De Busscherestraat,1,50.8524988548,2.86746499017
8900,Ieper,Adriaansensweg,33,50.8622669375,2.84889720082
8900,Ieper,Briekestraat,10,50.8658346449,2.89577580195
8900,Ieper,Brugseweg,22,50.8574690683,2.88822806225
8900,Ieper,Eigenheerdstraat,11,50.8508616618,2.87793991613
8900,Ieper,Paddepoelstraat,20,50.8483557969,2.8904119061
8900,Ieper,Molendreef,1,50.8138831773,2.80652399171
8900,Ieper,Sint-Jacobsnieuwweg,14,50.84953882,2.88920239551
8900,Ieper,Dikkebusseweg,545,50.8203354535,2.83176596233
8900,Ieper,Werfstraat,4,50.8586041982,2.87674700361
8900,Ieper,Capronstraat,23,50.8505439188,2.87484442491
8900,Ieper,Voldersstraat,7,50.856750749,2.88062163338
8900,Ieper,Roeselarestraat,1,50.8730702858,2.92386410835
8900,Ieper,Tegelstraat,49,50.8452541098,2.88809071969
8900,Ieper,Sterrestraat,6,50.8484701622,2.87207203196
8900,Ieper,Sint-Jacobsstraat,83,50.848872841,2.89065811833
8900,Ieper,Zonnebeekseweg,98A,50.8564051053,2.90303781529
8900,Ieper,Veurnseweg,96,50.8677878038,2.85011965297
8900,Ieper,Vooruitgangstraat,26,50.8484508073,2.87981526827
8900,Ieper,Haiglaan,76,50.8543374105,2.87443212763
8900,Ieper,Nijverheidstraat,8,50.855542725,2.88271829576
8900,Ieper,Pilkemseweg,15B,50.8609401588,2.8914254377
8900,Ieper,Azalealaan,1,50.8467102936,2.87401197001
8900,Ieper,Diksmuidseweg,77,50.86038786,2.87793316367
8900,Ieper,D'Hondtstraat,43,50.8493570796,2.88848745599
8900,Ieper,Vrijheidstraat,12,50.8579185149,2.89242954421
8900,Ieper,Pennestraat,86,50.8563653966,2.88743778703
8900,Ieper,Brugseweg,311,50.8660982144,2.90690431837
8900,Ieper,Rozenwijk,40,50.82057903,2.8275050497
8900,Ieper,Viooltjeslaan,30,50.847482239,2.87000477896
8900,Ieper,Sittingbournelaan,47,50.8329763664,2.87627143397
8900,Ieper,Veurnseweg,5,50.8579380709,2.87044806841
8900,Ieper,Ouderdomseweg,13,50.8166138833,2.80340005578
8900,Ieper,Kerselaar,17,50.8511607314,2.90466140903
8900,Ieper,Brugseweg,93,50.8589622939,2.89194232092
8900,Ieper,Berkenwijk,10,50.8219282396,2.83130199216
8900,Ieper,Reigerslaan,9,50.8479862945,2.8610643463
8900,Ieper,de Stuersstraat,8,50.8503874555,2.88065940278
8900,Ieper,Hovelandlaan,7,50.8506989689,2.90637961506
8900,Ieper,Goesdamstraat,8,50.8500678426,2.87540353416
8900,Ieper,Augustijnenstraat,6,50.8567314701,2.8714087277
8900,Ieper,Lindendreef,22,50.8568625391,2.89258344825
8900,Ieper,Meenseweg,10,50.8528229887,2.89456105343
8900,Ieper,Korte Meersstraat,9,50.8513836131,2.88266793839
8900,Ieper,Dikkebusseweg,167,50.8410356194,2.87089866379
8900,Ieper,Diksmuidseweg,95,50.8615388294,2.87821588626
8900,Ieper,Frezenbergstraat,24,50.8388069949,2.86286975939
8900,Ieper,Zonnebeekseweg,151,50.8566506592,2.90174289275
8900,Ieper,Sint-Janshospitaalstraat,20,50.8457533684,2.88972795518
8900,Ieper,Veurnseweg,189,50.8684728845,2.84664433032
8900,Ieper,Viooltjeslaan,12,50.847263008,2.87109441506
8900,Ieper,Kerselaar,53,50.851691214,2.90454603371
8900,Ieper,Grote Markt,6,50.8520691973,2.88765978183
8900,Ieper,Schuttelaerestraat,14,50.8468909387,2.88612983353
8900,Ieper,Zorgvlietstraat,21,50.8231677355,2.83194811144
8900,Ieper,Pannenhuisstraat,32,50.8410996454,2.87242105143
8900,Ieper,Ter Olmen,66,50.8378016578,2.87721082426
8900,Ieper,Brugseweg,346,50.8679519001,2.91376194212
8900,Ieper,Fazantenlaan,19A,50.846986028,2.86468776374
8900,Ieper,Poperingseweg,28,50.8495784399,2.8642479147
8900,Ieper,Grimminckstraat,6,50.8452597976,2.89115200478
8900,Ieper,Lange Meersstraat,5,50.8508112648,2.88210311938
8900,Ieper,Klaverstraat,17,50.8466687021,2.88741333004
8900,Ieper,Windeweg,10,50.8229993223,2.83050101566
8900,Ieper,Fochlaan,15,50.8505958399,2.87537739068
8900,Ieper,Hovelandpark,36,50.8522990419,2.90777195922
8900,Ieper,Sportstraat,19,50.8548798835,2.87183119525
8900,Ieper,Rijselstraat,8,50.8504156756,2.88551547012
8900,Ieper,Oude Bellestraat,23,50.8124127675,2.82214011649
8900,Ieper,Overdrachtstraat,9,50.8637880858,2.87853427191
8900,Ieper,Hoornwerk,23,50.8503813631,2.89270510977
8900,Ieper,Dikkebusseweg,581,50.8195161653,2.8294643138
8900,Ieper,Kruiskalsijdestraat,5,50.859056835,2.91385739368
8900,Ieper,Paddevijverstraat,55,50.865070833,2.88422855726
8900,Ieper,Zonnebeekseweg,186,50.8584207265,2.90811187313
8900,Ieper,Kerkstraat,9,50.8201096317,2.8322427464
8900,Ieper,Vijverstraat,16,50.819216195,2.83412765611
8900,Ieper,Rijselseweg,98,50.8388424451,2.88799409311
8900,Ieper,Blindeliedenstraat,11,50.8469377707,2.88638499137
8900,Ieper,Duivenstraat,14,50.8583149741,2.89357627522
8900,Ieper,Rozenlaan,12,50.8566842739,2.89496088002
8900,Ieper,Ligywijk,112,50.8553798886,2.90180456161
8900,Ieper,Klaverstraat,35,50.8464728702,2.8869433029
8900,Ieper,Sint-Jacobsstraat,65,50.8494289558,2.89021596815
8900,Ieper,Meenseweg,265,50.8494907557,2.912468913
8900,Ieper,Rijselstraat,188,50.8453817823,2.89037190421
8900,Ieper,Brugseweg,246,50.8652215451,2.90570432232
8900,Ieper,Neerstraat,4,50.8467910669,2.88791848171
8900,Ieper,Zaalhof,18,50.8463124636,2.88702859912
8900,Ieper,Ter Olmen,31,50.8373608457,2.87523490209
8900,Ieper,Oliedamstraat,3,50.8555341593,2.87008248019
8900,Ieper,Dikkebusseweg,563,50.819950355,2.83066258642
8900,Ieper,Kerselaar,35,50.8514742036,2.90591874554
8900,Ieper,Capucienenstraat,18,50.8425020889,2.87099566979
8900,Ieper,Dikkebusseweg,15,50.8447838588,2.87843295991
8900,Ieper,Esplanade,8,50.8477674452,2.88104681825
8900,Ieper,Breugheldreef,10,50.8606504499,2.87095289028
8900,Ieper,Oude Veurnestraat,69,50.8577240446,2.87288403901
8900,Ieper,Diksmuidseweg,42,50.8584682275,2.87915166503
8900,Ieper,Frenchlaan,10,50.8521018469,2.89290548839
8900,Ieper,Izegrimstraat,20,50.8434242001,2.8674260741
8900,Ieper,Oudstrijderslaan,14,50.841682223,2.88537909442
8900,Ieper,Motestraat,7,50.8527793265,2.86414719394
8900,Ieper,Elverdingestraat,40,50.8520996735,2.8807873053
8900,Ieper,Kerselaar,1,50.8510045923,2.90578904912
8900,Ieper,Proosdijstraat,19,50.8426395075,2.86352354931
8900,Ieper,Poperingseweg,99,50.8488271364,2.86730924093
8900,Ieper,Capronstraat,2,50.8512704464,2.87587808828
8900,Ieper,Veurnseweg,61,50.8646088648,2.85740179469
8900,Ieper,Tempelstraat,5,50.8498922161,2.88193617357
8900,Ieper,Adriaansensweg,68,50.8605642436,2.85242815349
8900,Ieper,Azalealaan,17,50.8460349755,2.87416182225
8900,Ieper,Dikkebusseweg,445,50.822799324,2.83997997579
8900,Ieper,Pannenhuisstraat,14,50.8416759393,2.87284705511
8900,Ieper,Lombaardstraat,43,50.8473871708,2.88502756378
8900,Ieper,Klaverstraat,1,50.8469367313,2.8882110052
8900,Ieper,Meenseweg,129,50.8501991594,2.90296524013
8900,Ieper,Vleeshouwersstraat,3,50.8560346732,2.88090453488
8900,Ieper,Hovelandpark,18,50.8511422048,2.90874518791
8900,Ieper,Rijselstraat,200,50.845083647,2.89022335446
8900,Ieper,Brugseweg,364,50.875245236,2.92242505853
8900,Ieper,Augustijnenstraat,71,50.8540253457,2.86745346282
8900,Ieper,Veurnseweg,118,50.8683447588,2.8479554104
8900,Ieper,Siegenlaan,26,50.832316564,2.87529539514
8900,Ieper,Basculestraat,78,50.8557319181,2.89221425064
8900,Ieper,Kruisbilkstraat,6,50.8629727138,2.87912584795
8900,Ieper,Potijzestraat,14,50.8636772279,2.90489057744
8900,Ieper,Capucienenstraat,36,50.8430725644,2.87068382152
8900,Ieper,Cartonstraat,5,50.8535220495,2.88706473792
8900,Ieper,Plumerlaan,4,50.8527391226,2.87586668165
8900,Ieper,Ligywijk,84,50.8542397799,2.90321341337
8900,Ieper,Kiplinglaan,8,50.8541511228,2.89228250285
8900,Ieper,Willibaldlaan,15,50.8467611806,2.87303806762
8900,Ieper,Tybaertstraat,41,50.8428666003,2.87629411927
8900,Ieper,Diksmuidseweg,141,50.8665853918,2.87487989209
8900,Ieper,Meensestraat,15,50.8519399915,2.88924188735
8900,Ieper,Velodroomstraat,3,50.856614304,2.87544404009
8900,Ieper,Ter Linden,23,50.8418892711,2.87453768619
8900,Ieper,Maloulaan,18,50.8504472395,2.87728095422
8900,Ieper,Sint-Niklaasstraat,7,50.8507668473,2.88062069324
8900,Ieper,Pateelstraat,5,50.8465669117,2.88991426271
8900,Ieper,Elverdingestraat,29,50.8517705419,2.88069829507
8900,Ieper,Rozenlaan,9,50.8571132284,2.89491646553
8900,Ieper,Robrecht van Bethunelaan,49,50.8515122744,2.90193176032
8900,Ieper,Diksmuidseweg,140A,50.8670025683,2.87589602767
8900,Ieper,Meenseweg,81,50.8507675901,2.90118886326
8900,Ieper,Fazantenlaan,63,50.8480026944,2.86229206593
8900,Ieper,Neerplaats,10,50.8195948649,2.83373901728
8900,Ieper,Meensestraat,33,50.8520377011,2.89017427272
8900,Ieper,Onze-Lieve-Vrouwestraat,7,50.8482331082,2.88493795369
8900,Ieper,Ypermanstraat,44,50.8581865624,2.89790150611
8900,Ieper,Frenchlaan,45,50.8533078278,2.8940339348
8900,Ieper,Breydelhofstraat,33,50.8677220648,2.84302610787
8900,Ieper,Haiglaan,94,50.8547940861,2.87438323754
8900,Ieper,Augustijnenstraat,47,50.8542646546,2.86862437035
8900,Ieper,Flanders Language Valley,65,50.8706909951,2.89129073444
8900,Ieper,Diksmuidestraat,27,50.8527657191,2.88624030979
8900,Ieper,Kerkstraat,30,50.8167251983,2.83180824105
8900,Ieper,Groenestraat,56,50.8674308605,2.89888160525
8900,Ieper,Beukenlaan,17,50.8575673598,2.89603951418
8900,Ieper,Acacialaan,26,50.8567051766,2.8959024526
8900,Ieper,Kaaistraat,19,50.8541532643,2.88415026894
8900,Ieper,Patrijzenlaan,10,50.8457644465,2.865219644
8900,Ieper,Kalfvaart,79,50.8582298299,2.89096809483
8900,Ieper,Oude Kortrijkstraat,24,50.8509827777,2.91141298584
8900,Ieper,Goesdamstraat,11,50.8500807482,2.87467279421
8900,Ieper,Kauwekijnstraat,7,50.8525139905,2.89022591115
8900,Ieper,Ooievaarlaan,25,50.8447554148,2.86568107969
8900,Ieper,Vaubanstraat,60,50.8487022649,2.89708027867
8900,Ieper,Rijselseweg,122,50.833496592,2.88688582589
8900,Ieper,Voedermonthoeve,5,50.850671081,2.90829863604
8900,Ieper,Gildenstraat,22,50.8514330518,2.89517135418
8900,Ieper,Oliedamstraat,19,50.855260008,2.86973709317
8900,Ieper,Nachtegaallaan,5,50.8452862936,2.86763560676
8900,Ieper,Dikkebusseweg,33,50.8442366268,2.87577957659
8900,Ieper,Gezelleplein,10,50.8498811841,2.8903203441
8900,Ieper,Ligywijk,66,50.8534404253,2.90234716168
8900,Ieper,Zonnebeekseweg,316,50.864779698,2.93748958804
8900,Ieper,Maloulaan,36,50.8511120242,2.87680450163
8900,Ieper,Dehaernestraat,22,50.848469937,2.88522930528
8900,Ieper,Fazantenlaan,10,50.8456350051,2.86682277699
8900,Ieper,Sittingbournelaan,6,50.8328495868,2.87837136777
8900,Ieper,Pilkemseweg,20,50.8599618178,2.89159668136
8900,Ieper,Ligywijk,13,50.854844787,2.9003713969
8900,Ieper,Brugseweg,128,50.8588030431,2.89624855352
8900,Ieper,Boterstraat,31,50.8500601423,2.88337476034
8900,Ieper,Groenestraat,21,50.8667000179,2.90171028641
8900,Ieper,Meenseweg,247,50.849806018,2.91025626247
8900,Ieper,Robrecht van Bethunelaan,75,50.852393135,2.90084510092
8900,Ieper,Brugseweg,60,50.8578844835,2.89006937036
8900,Ieper,Diksmuidseweg,16,50.8582466088,2.8821877634
8900,Ieper,Boudewijnlaan,4,50.8536030181,2.86154757593
8900,Ieper,Zonnebeekseweg,133,50.8558366482,2.8995984983
8900,Ieper,Azalealaan,45,50.8455517918,2.87257549268
8900,Ieper,Gildenstraat,32,50.8507922112,2.8957845704
8900,Ieper,Vaubanstraat,3,50.8504523685,2.89302472696
8900,Ieper,Elverdingestraat,73,50.8513875902,2.87798445828
8900,Ieper,Zesde-Lansierslaan,19,50.8360255981,2.87821535357
8900,Ieper,Dikkebusseweg,96,50.8431740118,2.87354013428
8900,Ieper,Dehaernestraat,32,50.84786343,2.88552453704
8900,Ieper,Dikkebusseweg,507,50.8210419892,2.83424298039
8900,Ieper,Boterstraat,23,50.8502314028,2.88352203505
8900,Ieper,Brielenstraat,4,50.8671485161,2.84885515046
8900,Ieper,Kervynlaan,28,50.8559132255,2.86169937396
8900,Ieper,Potijzestraat,57,50.8607010127,2.91085429825
8900,Ieper,Meenseweg,222,50.8488657596,2.91298934112
8900,Ieper,Brugseweg,326,50.8669873183,2.91160871096
8900,Ieper,Arsenaalstraat,7,50.8471912326,2.88452856972
8900,Ieper,Oostkaai,20,50.8664096689,2.88117073797
8900,Ieper,Zonnebeekseweg,9,50.8537706288,2.89513772088
8900,Ieper,Dikkebusseweg,78,50.8435290735,2.87416761756
8900,Ieper,Elverdingestraat,91,50.8512143948,2.8771549221
8900,Ieper,Zonnebeekseweg,20,50.854584631,2.89790580849
8900,Ieper,Crescendostraat,8,50.8433656239,2.87318795859
8900,Ieper,Eigenheerdstraat,1,50.8505010629,2.8780706574
8900,Ieper,Kanonweg,17,50.8450338656,2.88813685094
8900,Ieper,Posthoornstraat,41,50.8452757289,2.8712554146
8900,Ieper,Wieltje,23,50.8704917913,2.91752933131
8900,Ieper,Pannenhuisstraat,57,50.836644733,2.87071205853
8900,Ieper,Rijselstraat,100,50.8475385362,2.88794876979
8900,Ieper,Groenestraat,47,50.8670724682,2.89826409651
8900,Ieper,Oude Houtmarktstraat,24,50.8525225454,2.88845839132
8900,Ieper,Meenseweg,61,50.8511526998,2.90029168399
8900,Ieper,Kruisbilkstraat,18,50.860868558,2.8802513326
8900,Ieper,Posthoornstraat,2,50.8440179362,2.8742455258
8900,Ieper,Janseniusstraat,6,50.8526805355,2.88609513235
8900,Ieper,Maloulaan,7,50.8495700864,2.87714970268
8900,Ieper,Lombaardstraat,15,50.8475194546,2.8865515696
8900,Ieper,Stationsstraat,24,50.849167442,2.88048354861
8900,Ieper,Bollingstraat,5,50.8514456654,2.89046290018
8900,Ieper,Brugseweg,3,50.8574583026,2.88585865425
8900,Ieper,Poperingseweg,21,50.8496875341,2.87252598883
8900,Ieper,Crescendostraat,10,50.8434975319,2.87323772834
8900,Ieper,Dehaernestraat,14,50.8486359245,2.88508062062
8900,Ieper,Lindendreef,60,50.8575762565,2.89432066403
8900,Ieper,Jaagpad,2,50.8691062957,2.87981368789
8900,Ieper,Ter Linden,66,50.8411017753,2.87632200839
8900,Ieper,Rijselstraat,38,50.8495543469,2.88572472287
8900,Ieper,Europalaan,28,50.832031107,2.87817354392
8900,Ieper,Capucienenstraat,44,50.8434087121,2.87059628467
8900,Ieper,Nonnenbossenstraat,24,50.8498839389,2.91439686894
8900,Ieper,Diksmuidseweg,34,50.8583761465,2.88121355928
8900,Ieper,Flanders Language Valley,47,50.8701367792,2.89287770757
8900,Ieper,Robrecht van Bethunelaan,93,50.8521570944,2.90126040196
8900,Ieper,Poperingseweg,125,50.8490757496,2.86270735345
8900,Ieper,Veurnseweg,15,50.8587401885,2.8696386243
8900,Ieper,Hommelhofstraat,2,50.8407788925,2.87789856009
8900,Ieper,Brugseweg,146,50.8610523119,2.8990259254
8900,Ieper,Dunantlaan,39,50.8541730501,2.85858797131
8900,Ieper,Fiersstraat,17,50.8508217469,2.87796873636
8900,Ieper,Kruisbilkstraat,36,50.8614284224,2.8805614941
8900,Ieper,Meenseweg,43,50.8512560664,2.89965696862
8900,Ieper,Berkenwijk,43,50.8214757427,2.83116830175
8900,Ieper,Fochlaan,6,50.8493113556,2.87684871107
8900,Ieper,Steenakkerstraat,2,50.829665872,2.82724054324
8900,Ieper,Anjelierenlaan,42,50.8481530007,2.87181540107
8900,Ieper,Wateringstraat,20,50.8452075366,2.88735724769
8900,Ieper,Paddevijverstraat,12,50.8590933007,2.88833175478
8900,Ieper,Tybaertstraat,4,50.8433870399,2.87522188494
8900,Ieper,Slachthuisstraat,25,50.8543638188,2.88519361604
8900,Ieper,Veurnseweg,128,50.8684860311,2.84723527909
8900,Ieper,Rijselseweg,104,50.8385886387,2.88781038788
8900,Ieper,D'Hondtstraat,33,50.8497417606,2.88841171605
8900,Ieper,Fazantenlaan,35,50.8472585538,2.86379011739
8900,Ieper,Windeweg,17,50.8232939023,2.82946094591
8900,Ieper,Haiglaan,13,50.851830941,2.87543105459
8900,Ieper,Hovelandpark,7,50.8502752844,2.90722254095
8900,Ieper,Azalealaan,8,50.8461392577,2.87271430185
8900,Ieper,Meenseweg,185,50.8501293919,2.90553008629
8900,Ieper,Plumerlaan,77,50.8548423608,2.87952421664
8900,Ieper,Oude Veurnestraat,77,50.8577563625,2.87217486358
8900,Ieper,Haiglaan,117,50.8571334436,2.87139947634
8900,Ieper,Rijselstraat,64,50.8487481617,2.88695383521
8900,Ieper,Sint-Janstraat,12,50.8515256075,2.8815058539
8900,Ieper,Ligywijk,109,50.8546569563,2.90221887815
8900,Ieper,Korte Torhoutstraat,9,50.8522104834,2.88825373836
8900,Ieper,Tegelstraat,3,50.846056277,2.88951335178
8900,Ieper,Reigerslaan,37,50.84659741,2.86225513934
8900,Ieper,Fabiolalaan,6,50.8543862187,2.86389165
8900,Ieper,Sint-Jacobsstraat,20,50.8500504514,2.88886232226
8900,Ieper,Roeselarestraat,8,50.8731625986,2.92564548035
8900,Ieper,D'Hondtstraat,15,50.8504698713,2.88793400325
8900,Ieper,Sittingbournelaan,27,50.832821201,2.87692364458
8900,Ieper,Briekestraat,17,50.8670544834,2.89633460704
8900,Ieper,Zaalhof,7,50.846676473,2.88609242674
8900,Ieper,Van Eyckdreef,3,50.8598074859,2.8703308095
8900,Ieper,Beukenlaan,8,50.857594726,2.89546191682
8900,Ieper,Berkenwijk,17,50.8223957843,2.83108840861
8900,Ieper,Kerselaar,10,50.8509036725,2.90513713003
8900,Ieper,Pilkemseweg,40,50.8611996587,2.89227663533
8900,Ieper,Diksmuidseweg,203,50.8734965101,2.86996156702
8900,Ieper,D'Hondtstraat,68,50.8486644038,2.88895181932
8900,Ieper,Blindeliedenstraat,1,50.8473605197,2.88634766256
8900,Ieper,Capucienenstraat,7,50.8420054733,2.87040241342
8900,Ieper,De Busscherestraat,8,50.8518215122,2.86692201717
8900,Ieper,Lange Torhoutstraat,5,50.8532376939,2.88983313578
8900,Ieper,Neermarkt,6,50.8506138305,2.88491708161
8900,Ieper,Brugseweg,289,50.8654257906,2.90536976609
8900,Ieper,Klaverstraat,10,50.846944004,2.88753347174
8900,Ieper,Masscheleinlaan,25,50.8549104081,2.88408530925
8900,Ieper,Kunstenlaan,5,50.8581365617,2.87178375289
8900,Ieper,Veurnseweg,211,50.8687215842,2.84606194941
8900,Ieper,Vrijheidstraat,19,50.8579515787,2.89205603659
8900,Ieper,Reinaartstraat,20,50.8409173443,2.867301614
8900,Ieper,Zonnebeekseweg,55,50.8552301131,2.89703091823
8900,Ieper,Griettensstraat,9,50.8536101553,2.87073413994
8900,Ieper,Korte Torhoutstraat,20,50.8526312273,2.88976855058
8900,Ieper,Melkerijstraat,4,50.8209349183,2.83086773335
8900,Ieper,Haiglaan,41,50.8550069997,2.8733315707
8900,Ieper,Potijzestraat,22,50.863294514,2.90517512998
8900,Ieper,Zonnebeekseweg,115,50.855552891,2.89854371049
8900,Ieper,Ter Olmen,23,50.8365201927,2.87590893463
8900,Ieper,Wenninckstraat,4,50.8478436121,2.88930302881
8900,Ieper,Bardoncstraat,4,50.8529628097,2.90551619578
8900,Ieper,Rijkeklarenstraat,3,50.8478438844,2.89000931046
8900,Ieper,Robrecht van Bethunelaan,57,50.8516599603,2.9013244941
8900,Ieper,Surmont de Volsberghestraat,15,50.8530753287,2.8840958139
8900,Ieper,Zorgvlietstraat,28,50.822991671,2.83146710866
8900,Ieper,Lombaardstraat,33,50.8474408386,2.88542495763
8900,Ieper,Rijselstraat,82,50.8481693827,2.88750850646
8900,Ieper,Kleine Pennestraat,11,50.8567296126,2.88836953585
8900,Ieper,Meenseweg,167,50.8505443043,2.90472008801
8900,Ieper,de Stuersstraat,1,50.8499027296,2.88149582753
8900,Ieper,Goesdamstraat,1,50.8497271753,2.87510089069
8900,Ieper,Ter Linden,31,50.8410052961,2.87447133856
8900,Ieper,Memlingdreef,2,50.8603741225,2.86987348744
8900,Ieper,Surmont de Volsberghestraat,68,50.8532616612,2.883331144
8900,Ieper,Patersstraat,6,50.849840744,2.8826851698
8900,Ieper,Sittingbournelaan,53,50.8335174841,2.87632227382
8900,Ieper,Ooievaarlaan,5,50.844874748,2.86718505886
8900,Ieper,Rozendaalstraat,23,50.8775944181,2.88021240245
8900,Ieper,Weverijstraat,62,50.8559047295,2.88271949592
8900,Ieper,Zonnebeekseweg,168,50.858096055,2.90746921636
8900,Ieper,Sint-Omerlaan,5,50.832754942,2.87891900117
8900,Ieper,Basculestraat,86,50.8557371113,2.89170526895
8900,Ieper,Stationsstraat,59,50.8484163239,2.87915991093
8900,Ieper,Capucienenstraat,80,50.8455283211,2.86987035737
8900,Ieper,Schietstraat,2,50.8197248004,2.83057670381
8900,Ieper,Graafschapstraat,2,50.8420921287,2.86409248868
8900,Ieper,Tegelstraat,57,50.8451889475,2.88776499613
8900,Ieper,Nikolaas De Kanonnierlaan,2,50.8565764794,2.89239384243
8900,Ieper,Dikkebusseweg,247,50.8399293034,2.86775987317
8900,Ieper,Zonnebeekseweg,73,50.8548416009,2.89746112059
8900,Ieper,Brugseweg,111,50.8589678653,2.89336457748
8900,Ieper,Pateelstraat,15,50.8467669528,2.89037678533
8900,Ieper,Kalfvaart,54,50.8578221819,2.89142639343
8900,Ieper,Rozenwijk,20,50.8207695683,2.8293057755
8900,Ieper,Diksmuidestraat,53,50.8535873974,2.88633002361
8900,Ieper,Komenseweg,8,50.8365843956,2.89366260658
8900,Ieper,Zonnebeekseweg,91,50.8550855146,2.89798317924
8900,Ieper,Elverdingestraat,9,50.8520912003,2.88212628277
8900,Ieper,Kattestraat,37,50.8760051825,2.92414236154
8900,Ieper,Elverdingestraat,20,50.8525070484,2.88176442772
8900,Ieper,Dikkebusseweg,6,50.8460978912,2.87727574656
8900,Ieper,Brugseweg,14,50.8572941078,2.88794378272
8900,Ieper,Diksmuidseweg,69,50.8600454259,2.87744126467
8900,Ieper,Azalealaan,10,50.8460624553,2.8722759144
8900,Ieper,Frenchlaan,17,50.8525220993,2.89266247803
8900,Ieper,Rijkeklarenstraat,75,50.8479476766,2.89036863697
8900,Ieper,Kalfvaart,72,50.8583559572,2.8915020988
8900,Ieper,Bukkersstraat,36,50.846035783,2.89125487133
8900,Ieper,Rijselstraat,1,50.850526677,2.88587500554
8900,Ieper,Tempelstraat,33,50.8491335457,2.88194453957
8900,Ieper,Diksmuidestraat,71,50.8541091702,2.88600334795
8900,Ieper,Lindendreef,32,50.8569581985,2.89309041277
8900,Ieper,Hoge Wieltjesgracht,16,50.8550316671,2.88831703246
8900,Ieper,Proosdijstraat,12,50.8419824344,2.8638682171
8900,Ieper,Cartonstraat,15,50.8534196174,2.88751170489
8900,Ieper,Anjelierenlaan,34,50.84810284,2.87224620181
8900,Ieper,Basculestraat,51,50.8553235243,2.89260648527
8900,Ieper,Briekestraat,35,50.8684824155,2.89718346038
8900,Ieper,Rozenwijk,9,50.8203194354,2.82840751853
8900,Ieper,Robrecht van Bethunelaan,108,50.8528277156,2.90306311696
8900,Ieper,De Clerckstraat,25,50.8530405735,2.86893373091
8900,Ieper,Kiplinglaan,1,50.853000448,2.89213469451
8900,Ieper,Diksmuidseweg,148,50.8715958586,2.8727045536
8900,Ieper,Diksmuidseweg,87,50.8608652599,2.87816379582
8900,Ieper,Dikkebusseweg,129,50.841689136,2.87216869373
8900,Ieper,Haiglaan,2,50.851434581,2.876623681
8900,Ieper,Anjelierenlaan,16,50.8476856586,2.87281153051
8900,Ieper,Zonnebeekseweg,216,50.8593160427,2.91103817053
8900,Ieper,Aalmoezeniersstraat,5,50.8496829865,2.89087467152
8900,Ieper,Brugseweg,397,50.8683670675,2.91306210401
8900,Ieper,Dikkebusseweg,578,50.8195150222,2.82690003014
8900,Ieper,Kunstenlaan,51,50.8616562633,2.86913292346
8900,Ieper,Izegrimstraat,40,50.8433127816,2.86800108794
8900,Ieper,Veurnseweg,68,50.8670166951,2.85201709779
8900,Ieper,Lindendreef,14,50.8567868618,2.89194261339
8900,Ieper,Frezenbergstraat,52,50.8383409023,2.86186315421
8900,Ieper,Klaverstraat,8,50.8469750037,2.88760308041
