PKANCODE,COMMUNE_NL,STREET_NL,HUISNR,LAT,LON
9031,Gent,Kerselaarstraat,12,51.0709732672,3.66643332412
9031,Gent,Drongenstationstraat,9,51.0480166825,3.65873081597
9031,Gent,Emiel Poetoustraat,11,51.0719595081,3.66661900175
9031,Gent,Varendrieskouter,48,51.0489628074,3.64140104092
9031,Gent,Mariakerksesteenweg,251,51.0651092536,3.65280752975
9031,Gent,Luchterenkerkweg,25,51.0542790651,3.65666489194
9031,Gent,Beekstraat,48,51.0692831205,3.65262144089
9031,Gent,Domien Ingelsstraat,27,51.051504483,3.66489651997
9031,Gent,Treinstraat,23,51.0498970924,3.64705098061
9031,Gent,Bassebeekwegel,6,51.0546836772,3.66029183581
9031,Gent,Meekrapstraat,5,51.0360838099,3.62337547833
9031,Gent,Boonstede,14,51.0335398179,3.60434684749
9031,Gent,Groenewandeling,11,51.0557148427,3.65951386054
9031,Gent,Klaphof,17,51.0579259786,3.64434489285
9031,Gent,Ernest Solvynsdreef,28,51.0342740678,3.62995974587
9031,Gent,Oudewee,16,51.045829936,3.64394411315
9031,Gent,Keuze,34,51.0368637472,3.6308355436
9031,Gent,Pontstraat,10,51.0372834846,3.6788256711
9031,Gent,Gaverlandstraat,12,51.0353077497,3.60837292198
9031,Gent,Boonstede,32,51.0341938317,3.60273141576
9031,Gent,Halewijnkouter,40,51.0480815065,3.62541958658
9031,Gent,Avennesdreef,79,51.0694810913,3.63448011614
9031,Gent,Kasteleinstraat,7,51.0572298141,3.6610098797
9031,Gent,Doornplasstraat,1,51.0529721444,3.6353901364
9031,Gent,Vliegpleinkouter,20,51.0699535341,3.66784086371
9031,Gent,Baarleveer,3,51.0366781436,3.61924256143
9031,Gent,Adolf Petitstraat,22,51.0509007951,3.66210711445
9031,Gent,Merendreesesteenweg,100,51.069011371,3.60811823191
9031,Gent,Schuiterstraat,48,51.0463820137,3.64691033021
9031,Gent,Abdijmolenstraat,12A,51.0515070449,3.66215344893
9031,Gent,Dosweg,50,51.0428249024,3.64510512394
9031,Gent,Antoon Catriestraat,77,51.0554496337,3.64583134919
9031,Gent,Baarledorpstraat,12,51.0376013183,3.61940573373
9031,Gent,Brouwersgracht,9,51.0567432938,3.64779932005
9031,Gent,Rodeberg,10,51.0681631404,3.66637545677
9031,Gent,Oudewee,34,51.044965204,3.64466864521
9031,Gent,Keuze,16,51.0374272305,3.63065300867
9031,Gent,Meulenaarshoek,6,51.0545284543,3.65889055745
9031,Gent,Gaverlandstraat,30,51.0337849966,3.60674013327
9031,Gent,Domien Ingelsstraat,3,51.0509265043,3.66421021995
9031,Gent,Oranjeboomstraat,35,51.0705019811,3.66183185952
9031,Gent,Adolf Lootensstraat,56,51.0543847027,3.60890646058
9031,Gent,Schepenstraat,20,51.0378306254,3.61189021894
9031,Gent,Halewijnstationstraat,7,51.0545591377,3.61872736764
9031,Gent,Baarlewarande,28,51.0336005604,3.60232182234
9031,Gent,Varendrieskouter,107,51.0485169503,3.64479229861
9031,Gent,Steenhuisdreef,58,51.0523996892,3.66629133677
9031,Gent,Halewijnstraat,14,51.0489036799,3.6264615982
9031,Gent,Baarleboslaan,12,51.0345801218,3.60694975576
9031,Gent,Streepbosstraat,5,51.037419717,3.60121353108
9031,Gent,Mijlsteen,10,51.054700396,3.65498471177
9031,Gent,Kruisstraat,7,51.0613493012,3.65637251779
9031,Gent,Bollewerkstraat,3,51.047850928,3.64700649111
9031,Gent,Beekstraat,171,51.0634884184,3.63407249048
9031,Gent,Bassebeekwegel,28A,51.0555189244,3.660299742
9031,Gent,Baarleveldestraat,27,51.0427448242,3.61006275342
9031,Gent,Renpaardlaan,18,51.071478327,3.62869540384
9031,Gent,Sint-Gerolfstraat,3,51.0421860777,3.639526195
9031,Gent,Struisvarenweg,3,51.0476116701,3.63829858059
9031,Gent,Adolf Lootensstraat,4,51.0542577869,3.61647948862
9031,Gent,Driesdreef,4,51.0715739596,3.65942175063
9031,Gent,Bollewerkstraat,27,51.0469891333,3.64558627531
9031,Gent,De Kemmeterlaan,6,51.0503070472,3.65211272909
9031,Gent,Halewijnstraat,32,51.0498478042,3.62357775785
9031,Gent,Bruidstraat,13,51.0610640991,3.65000637124
9031,Gent,Mariakerksesteenweg,79,51.0536721045,3.66117488265
9031,Gent,Schuiterstraat,18,51.0477604997,3.64746266766
9031,Gent,Beekstraat,125,51.0646981529,3.63901643252
9031,Gent,Nevelseheerweg,5,51.0466997323,3.62009003116
9031,Gent,Boelenaar,4,51.0530293737,3.65607102567
9031,Gent,Kroonprinsstraat,33,51.0492840537,3.64973487753
9031,Gent,Steenhuisdreef,23,51.0524305239,3.66431752969
9031,Gent,Varendrieskouter,125,51.0488496906,3.64276718006
9031,Gent,Zuidbroek,49,51.075598895,3.66506299258
9031,Gent,Nevelseheerweg,29,51.0455523743,3.616144835
9031,Gent,Groenewandeling,46,51.0554676037,3.6573445856
9031,Gent,Rozenlaan,1,51.0566169068,3.64899185648
9031,Gent,Raapstraat,21,51.0403099671,3.62873285397
9031,Gent,Paradijskouter,5,51.0552515821,3.6455062076
9031,Gent,Bollewerkstraat,98,51.049860114,3.63689539946
9031,Gent,Varendrieskouter,18,51.0494516704,3.64287764778
9031,Gent,Keuzekouter,52,51.0284493308,3.63894449642
9031,Gent,Baarleveldestraat,3,51.0412775596,3.61424931361
9031,Gent,Buisstraat,22,51.0426597693,3.6482756965
9031,Gent,Moortelputstraat,16,51.0352357544,3.62116255834
9031,Gent,Mariakerksesteenweg,186,51.0666291977,3.65155478391
9031,Gent,Moortelputstraat,34,51.0350114169,3.62280043655
9031,Gent,Oude Gentweg,1,51.0509999265,3.66563745077
9031,Gent,Elshout,50,51.0529542948,3.63685775284
9031,Gent,Antoon Catriestraat,141,51.0588918639,3.63933926601
9031,Gent,Luchterenkerkweg,78,51.0554953314,3.6559370857
9031,Gent,Alfons Bynlaan,22,51.0523138768,3.66084083625
9031,Gent,Zandloperstraat,255,51.0676071011,3.66675944727
9031,Gent,Gijzelstraat,11,51.0663522543,3.62676480996
9031,Gent,Baarleboslaan,40,51.0357017612,3.60446783988
9031,Gent,Baarleboslaan,30,51.035324166,3.60558578269
9031,Gent,Beekstraat,36,51.0723773565,3.65882799647
9031,Gent,Varendrieskouter,36,51.0491705221,3.64216893206
9031,Gent,Eikvarenweg,10,51.0473570919,3.63858905143
9031,Gent,Klaverdries,55,51.0524686988,3.65775225244
9031,Gent,Goubaulaan,6,51.0498207904,3.66660240341
9031,Gent,Rondehuisjesdreef,1B,51.0511426851,3.66083100931
9031,Gent,Halewijnkouter,30,51.0481588503,3.62656666831
9031,Gent,Oudewee,69,51.0459861105,3.64541252157
9031,Gent,Abdijmolenstraat,52,51.0510358505,3.66040504972
9031,Gent,Baarlewarande,4,51.0323908076,3.6043506213
9031,Gent,Schuiterstraat,36,51.0468457952,3.64813317172
9031,Gent,Kruisstraat,60,51.0588107463,3.64885757889
9031,Gent,Jan-Baptist Lombaertdreef,11,51.0440879,3.65051278511
9031,Gent,Joannes Schinckdreef,19,51.0663377807,3.62185101393
9031,Gent,Beekstraat,153,51.0641130295,3.63665083098
9031,Gent,Holisstraat,10,51.0550266752,3.64391148628
9031,Gent,Drongenplein,15,51.0508235066,3.66353689561
9031,Gent,Varendrieskouter,153,51.0483981977,3.63901734647
9031,Gent,Vinkendal,4,51.0622725364,3.63777889756
9031,Gent,Rondehuisjesdreef,39,51.0517742873,3.65965082288
9031,Gent,Poekstraat,19,51.0719614656,3.61085051369
9031,Gent,Bollewerkstraat,55,51.048295947,3.64227134366
9031,Gent,Avennesdreef,44,51.0678058808,3.6357296489
9031,Gent,Beekstraatkouter,101,51.0632344313,3.63649480359
9031,Gent,Deinse Horsweg,51,51.0441583464,3.64845970533
9031,Gent,Luchterenstraat,27,51.0615513809,3.62208997384
9031,Gent,Sint-Aldegondestraat,17,51.0491260527,3.65497765762
9031,Gent,Cipresdreef,20,51.070503536,3.66405991245
9031,Gent,Koningsvarenweg,14,51.0475589392,3.63996051906
9031,Gent,Moortelputstraat,31A,51.0354197749,3.62494322204
9031,Gent,Espenstraat,10,51.0686234229,3.66219607185
9031,Gent,Hoogland,7,51.060882675,3.66094284029
9031,Gent,Ter Rivieren,8,51.034411813,3.62734412861
9031,Gent,Varendrieskouter,89,51.0487416457,3.64623677654
9031,Gent,Beekstraat,89,51.0658587363,3.64434900923
9031,Gent,Jozef Boddaertstraat,8,51.0551528266,3.65301162945
9031,Gent,Halewijnkouter,12,51.0483269738,3.62960378204
9031,Gent,Lage Varenweg,7,51.044508036,3.62889213704
9031,Gent,Klaverdries,20,51.0518316545,3.65941419998
9031,Gent,Halewijnkouter,182,51.0507720042,3.60816225593
9031,Gent,Gavergrachtstraat,40,51.0682384651,3.62541904974
9031,Gent,Kattegaver,10,51.0581639766,3.62637117748
9031,Gent,Booiebos,22,51.0397486979,3.5943537509
9031,Gent,Dosweg,22,51.0435119262,3.64757855413
9031,Gent,Abdijmolenstraat,70,51.0507939253,3.65941451052
9031,Gent,Noordhoutstraat,134,51.0301405538,3.58879126773
9031,Gent,Groenewandeling,64,51.0546081731,3.65577358143
9031,Gent,Hindestraat,2,51.0491864034,3.64996655584
9031,Gent,Luchterenkerkweg,96,51.0559243467,3.65529026949
9031,Gent,Hazestropdreef,23,51.0337749794,3.6046652156
9031,Gent,Veerstraat,37,51.0517888521,3.66802693515
9031,Gent,Gavergrachtstraat,65,51.0726558992,3.62630163493
9031,Gent,Abdijmolenstraat,7,51.0512199734,3.66214651203
9031,Gent,Hof van Eden,34,51.0514770924,3.6380788541
9031,Gent,De Kemmeterlaan,23,51.0489719566,3.65122755605
9031,Gent,Baarledorpstraat,19,51.0368319346,3.61839190919
9031,Gent,Varendrieskouter,54,51.0488644007,3.64054617467
9031,Gent,Brouwerijstraat,8,51.0373058412,3.62300700628
9031,Gent,Halewijnkouter,57,51.047216192,3.62160911858
9031,Gent,Jozef Boddaertstraat,25,51.0556199709,3.65204427992
9031,Gent,Varendrieskouter,225,51.0479949607,3.63139279976
9031,Gent,Pachtgoeddreef,3,51.0585398697,3.66065715615
9031,Gent,Treinstraat,6,51.0508457373,3.64915369336
9031,Gent,Zombeekstraat,19,51.0289995259,3.60154245967
9031,Gent,Kroonprinsstraat,43,51.0489189695,3.64933274891
9031,Gent,Steenovenstraat,2A,51.0648992209,3.63782221064
9031,Gent,Pachtgoeddreef,37,51.0602503554,3.66143554447
9031,Gent,Gaverlandstraat,5,51.0343891424,3.61168661323
9031,Gent,Zandloperstraat,219,51.0674014312,3.66836328248
9031,Gent,Deinse Horsweg,33,51.0455213053,3.65223441871
9031,Gent,Noordhoutstraat,27,51.0393764124,3.61062518556
9031,Gent,Varendrieskouter,72,51.0488178393,3.63870062542
9031,Gent,Bollewerkstraat,10,51.0481150471,3.64656788592
9031,Gent,Flonkedreef,11,51.0493104787,3.63767396438
9031,Gent,Halewijnkouter,65,51.0473198851,3.62048227832
9031,Gent,Oudewee,9,51.0459730653,3.64459074991
9031,Gent,Schepenstraat,37,51.0375109055,3.61165770337
9031,Gent,Jean Fobelaan,1,51.0725344788,3.62807885874
9031,Gent,Kerselaarstraat,19,51.0714753487,3.66556313822
9031,Gent,Novicenstraat,12,51.066294293,3.63782497399
9031,Gent,Droogveldeweg,9,51.058482586,3.63163464845
9031,Gent,Baarleveer,10,51.0366878865,3.6186544187
9031,Gent,Moerstraat,40,51.0388906982,3.59553826167
9031,Gent,Bassebeekwegel,23,51.0553429581,3.65906634664
9031,Gent,Kloosterstraat,4A,51.0373782437,3.61864935547
9031,Gent,Antoon Catriestraat,70,51.0551260195,3.64797583104
9031,Gent,Kerselaarstraat,5,51.069934717,3.66624915247
9031,Gent,Keuzemeers,1,51.0293624874,3.63784344356
9031,Gent,Boonstede,7,51.033206614,3.6041722214
9031,Gent,Gaverlandstraat,19,51.0337664097,3.60983644551
9031,Gent,Halewijnstationstraat,24,51.0528390686,3.61737999458
9031,Gent,Rondehuisjesdreef,57,51.0528404369,3.65871175556
9031,Gent,Antoon Catriestraat,203,51.062250073,3.63250559949
9031,Gent,Keuze,9,51.0374700011,3.63152620157
9031,Gent,Luchterenkerkweg,250,51.0626739973,3.63917208332
9031,Gent,Domien Ingelsstraat,10,51.0508310979,3.66476216444
9031,Gent,Hof van Eden,16,51.0514715848,3.63909112482
9031,Gent,Schepenstraat,3,51.039090007,3.61068086494
9031,Gent,Jean-Baptiste d'Hanedreef,2,51.0532623339,3.66334443141
9031,Gent,Steenhuisdreef,41,51.052983852,3.66578438552
9031,Gent,Luchterenkerkweg,114,51.0560774499,3.65318592177
9031,Gent,Kruisstraat,24,51.0613070684,3.65469558247
9031,Gent,Baarleboslaan,29,51.0349350724,3.60351541916
9031,Gent,Noordhoutstraat,81,51.0362450851,3.60192127099
9031,Gent,Zeger van Kortrijkstraat,42,51.0574157875,3.66271688554
9031,Gent,Cipresdreef,19,51.0702001493,3.66332326526
9031,Gent,Zandloperstraat,112,51.0681392513,3.66829917338
9031,Gent,Kruisstraat,77,51.0566798851,3.64691209414
9031,Gent,Karel De Bondtlaan,15,51.0318108851,3.63095231624
9031,Gent,Struisvarenweg,10,51.0476912956,3.63722234488
9031,Gent,Mariakerksesteenweg,80,51.0556801441,3.66111502384
9031,Gent,Halewijnstraat,50,51.0505701627,3.62193912587
9031,Gent,Keuzemeers,17,51.0279502843,3.63919902126
9031,Gent,Baarleboslaan,47,51.0353407809,3.60076711339
9031,Gent,Vinderhoutsedam,13,51.0755158148,3.66142196779
9031,Gent,Wilgetronkstraat,11,51.0696652176,3.66244045169
9031,Gent,Beekstraat,178,51.064384306,3.63161037326
9031,Gent,Drongenstationstraat,62,51.0480451665,3.65516996506
9031,Gent,Baarleveldestraat,45,51.0432805043,3.6077335957
9031,Gent,Antoon Catriestraat,194,51.0624968062,3.63359688465
9031,Gent,Roomanstraat,4,51.0440021747,3.60567514423
9031,Gent,Drongenstationstraat,26,51.0483641072,3.65720744918
9031,Gent,Bollewerkstraat,63,51.0493939276,3.64155963803
9031,Gent,Sint-Gerolfstraat,63,51.0458059567,3.62958480417
9031,Gent,Halewijnstraat,7,51.0487919335,3.62536167899
9031,Gent,Luchterenkerkweg,167,51.0623900766,3.63838177662
9031,Gent,Gaspeldoorndreef,22,51.0550239894,3.65107080659
9031,Gent,Gavergrachtstraat,30,51.0676192464,3.62527122799
9031,Gent,Baarleveldestraat,10,51.0399132054,3.62397045682
9031,Gent,Meekrapstraat,12,51.036352644,3.62388105273
9031,Gent,Boonstede,39,51.0348187702,3.59996857163
9031,Gent,Fresiastraat,16,51.0519892103,3.65082435449
9031,Gent,Antoon Catriestraat,52,51.0548747441,3.65010776228
9031,Gent,Mariakerksesteenweg,62,51.0554904567,3.66129275796
9031,Gent,Gavergrachtstraat,83,51.0748085354,3.62912920393
9031,Gent,Mariakerksesteenweg,26,51.0530212395,3.66239831698
9031,Gent,Jean Fobelaan,17,51.0708779785,3.6301087294
9031,Gent,Koningsvarenweg,39,51.046716965,3.64154286431
9031,Gent,Jan-Baptist Lombaertdreef,4,51.0440149494,3.64926673635
9031,Gent,Bollewerkstraat,81,51.0500739095,3.64034040164
9031,Gent,Drongenstationstraat,44,51.048161425,3.65663138403
9031,Gent,Pachtgoeddreef,55,51.0586122782,3.66232840614
9031,Gent,Halewijnstationstraat,95,51.0461421542,3.61441225532
9031,Gent,Holisstraat,27,51.0532009825,3.64146644786
9031,Gent,Baarledorpstraat,83,51.0357011821,3.61493092864
9031,Gent,Klaverdries,14B,51.0512783424,3.6582914549
9031,Gent,Boonstede,50,51.0348298196,3.60113975815
9031,Gent,Oudewee,52,51.0456092302,3.64716551846
9031,Gent,Joannes Schinckdreef,12,51.066564392,3.62359750551
9031,Gent,Wallemeers,1,51.0639325332,3.64013639882
9031,Gent,Beekstraat,138A,51.0645146185,3.63612084322
9031,Gent,Antoon Catriestraat,176,51.0621411833,3.63547337565
9031,Gent,Heiebreestraat,56,51.069949354,3.6350882856
9031,Gent,Adolf Lootensstraat,21,51.0525269516,3.61487237396
9031,Gent,Kroonprinsstraat,15,51.0499782065,3.65073694464
9031,Gent,Luchterenkerkweg,43,51.055401359,3.65492097077
9031,Gent,Zandloperstraat,130,51.0678793503,3.66565152046
9031,Gent,Driesdreef,21,51.069883994,3.6611016931
9031,Gent,Boelenaar,21,51.0527578201,3.65550850761
9031,Gent,Rondehuisjesdreef,10A,51.051580289,3.66104103813
9031,Gent,Halewijnkouter,5,51.0478916865,3.63021731623
9031,Gent,Gaverlandstraat,65,51.0307857848,3.60642608947
9031,Gent,Keuzekouter,59,51.02894407,3.63892353485
9031,Gent,Buisstraat,29,51.0424809205,3.64629924274
9031,Gent,Lammeken,2,51.0366037184,3.62122556608
9031,Gent,Boskeetstraat,25,51.0640561308,3.62592639884
9031,Gent,Merendreesesteenweg,28,51.0661627598,3.62053228463
9031,Gent,Oudewee,70,51.0463021486,3.64574490429
9031,Gent,Joannes Schinckdreef,30,51.0668866597,3.62192029896
9031,Gent,Veerstraat,55,51.0520535518,3.66850504047
9031,Gent,Kloosterstraat,15,51.0395362339,3.61640416131
9031,Gent,Varendriesstraat,18,51.047137792,3.62992344866
9031,Gent,Paasleliedreef,3,51.0358459875,3.62700107267
9031,Gent,Groenewandeling,99,51.0530907246,3.65353933413
9031,Gent,Beekstraatkouter,29,51.0652138564,3.64633002048
9031,Gent,Moortelputstraat,9,51.0362007771,3.6221704249
9031,Gent,Mariakerksesteenweg,97,51.0551111302,3.66071255408
9031,Gent,Halewijnkouter,19,51.0477185379,3.62689337644
9031,Gent,Drongenplein,8,51.0506996408,3.66432016803
9031,Gent,Henri de Sagherstraat,1,51.0544056243,3.66513932802
9031,Gent,Doornplasstraat,61,51.0582532439,3.62791543546
9031,Gent,Congregatiestraat,20,51.0526495302,3.65300652071
9031,Gent,Antoon Catriestraat,158,51.0607755939,3.63701925634
9031,Gent,Zeger van Kortrijkstraat,24,51.0560271568,3.66321949488
9031,Gent,Baarleveldestraat,81,51.0461382998,3.60339544707
9031,Gent,Meirebeekstraat,16,51.0683856141,3.62085316368
9031,Gent,Avennesdreef,26,51.0663729755,3.63619177852
9031,Gent,Baarlewarande,11,51.0325222795,3.60294521477
9031,Gent,Hazestropdreef,6,51.0342392274,3.60584967034
9031,Gent,Ernest Solvynsdreef,4,51.0378914053,3.63260175547
9031,Gent,Rondehuisjesdreef,22,51.0521069912,3.6603850018
9031,Gent,Poekstraat,30,51.0719892891,3.6144198882
9031,Gent,Ter Rivieren,25,51.0340984034,3.62408697002
9031,Gent,Kijfmeers,20,51.0329284295,3.67792533711
9031,Gent,Antoon Catriestraat,7,51.0504294112,3.65647753611
9031,Gent,Slingerstraat,3,51.0421395713,3.64544538375
9031,Gent,Keuzekouter,24,51.030410078,3.63464066233
9031,Gent,Henri de Sagherstraat,17,51.0549530359,3.66248614406
9031,Gent,Halewijnstationstraat,103,51.0453455397,3.6139251151
9031,Gent,Luchterenkouter,3,51.0629914583,3.64091111448
9031,Gent,Mariakerksesteenweg,143,51.0561594404,3.66012445455
9031,Gent,Cipresdreef,3,51.0689701182,3.66473329827
9031,Gent,Deinse Horsweg,15,51.0468169404,3.65493098189
9031,Gent,Gaverlandstraat,83,51.0295621115,3.6047702561
9031,Gent,Mahoniestraat,15,51.0715992172,3.66249275045
9031,Gent,Schepenstraat,55,51.0390952183,3.61007964505
9031,Gent,Koningsvarenweg,7,51.0474813482,3.64230365597
9031,Gent,Booiebos,5,51.0414403538,3.60333045603
9031,Gent,Lage Varenweg,24,51.0451175305,3.62750597129
9031,Gent,Dosweg,29,51.042916166,3.64711773029
9031,Gent,Moerstraat,22,51.0374786701,3.59783599456
9031,Gent,Luchterenstraat,45,51.0595733353,3.6209085859
9031,Gent,Flonkedreef,28,51.0491845478,3.6401589912
9031,Gent,Paradijskouter,22,51.0545061499,3.64418269476
9031,Gent,Krommehamlaan,22,51.0312767538,3.67707294379
9031,Gent,Poekstraat,12,51.0695516909,3.61204078127
9031,Gent,Zandloperstraat,237,51.0676055717,3.66749978565
9031,Gent,Adriaan Walckiersdreef,7,51.0530276111,3.66337264033
9031,Gent,Landegemstraat,10,51.0447592022,3.59179264715
9031,Gent,Varendriesstraat,36,51.0461500143,3.62834369925
9031,Gent,Pieter Hellebautstraat,15,51.0534790167,3.65685904648
9031,Gent,Luchterenstraat,10,51.0642894551,3.62233206681
9031,Gent,Moerstraat,75,51.0325125626,3.58361189865
9031,Gent,Abdijmolenstraat,24,51.0514810702,3.66182424338
9031,Gent,Beekstraat,90,51.066451885,3.64391539913
9031,Gent,Waterviolier,5,51.0340645921,3.62642235541
9031,Gent,Varendriesstraat,2,51.0480018068,3.6308490586
9031,Gent,Klaverdries,37,51.0523844736,3.65858845125
9031,Gent,Klaverdries,3,51.0514851755,3.65735015584
9031,Gent,Varendrieskouter,90,51.0487608475,3.63656973056
9031,Gent,Booiebos,29,51.0395450766,3.59676425333
9031,Gent,Heiebreestraat,31,51.0683995642,3.63680538459
9031,Gent,Keuzekouter,16,51.0313338176,3.63439282096
9031,Gent,Abdijmolenstraat,34,51.0513994006,3.66151670169
9031,Gent,Antoon Catriestraat,123,51.0580865595,3.64020566032
9031,Gent,Hof van Eden,7,51.0514977662,3.64018505225
9031,Gent,Prinsesselaan,8,51.0492385434,3.64764071153
9031,Gent,Kruisstraat,1B,51.0616464903,3.65714716354
9031,Gent,Sint-Gerolfstraat,35,51.0437867901,3.63401952335
9031,Gent,Keuzemeers,8,51.0281397922,3.63657699189
9031,Gent,Noordhoutstraat,106,51.0318860213,3.59575990775
9031,Gent,Rondehuisjesdreef,42,51.0530072337,3.65952575998
9031,Gent,Oudewee,26,51.0453467411,3.64435116145
9031,Gent,Rondehuisjesdreef,60,51.0536809648,3.66044962896
9031,Gent,Kerselaarstraat,22,51.0715787636,3.66605226962
9031,Gent,Boonstede,24,51.033832006,3.60363109228
9031,Gent,Groenewandeling,21,51.0555787143,3.65886651078
9031,Gent,Akkerwindelaan,4,51.0563849474,3.64916301855
9031,Gent,Varendrieskouter,99,51.0489581326,3.64555131629
9031,Gent,Ernest Solvynsdreef,18,51.0370806677,3.63218747203
9031,Gent,Keuzekouter,34,51.0296189663,3.6356017581
9031,Gent,Flonkedreef,4,51.0489745813,3.63794076032
9031,Gent,Treinstraat,13,51.0501400386,3.64845629642
9031,Gent,Ernest Solvynsdreef,36,51.0335375236,3.62889298081
9031,Gent,Keuze,26,51.0372024749,3.63069290647
9031,Gent,Mariakerksesteenweg,243,51.0645455371,3.65380107986
9031,Gent,Luchterenkerkweg,35,51.0547413037,3.65604098525
9031,Gent,Antoon Catriestraat,87,51.0560145403,3.64461779063
9031,Gent,Zeger van Kortrijkstraat,49,51.0578372586,3.6621550904
9031,Gent,Schepenstraat,10,51.0379724549,3.612166531
9031,Gent,Abdijmolenstraat,16,51.051531387,3.6620452601
9031,Gent,Beekstraat,143,51.0641928376,3.63759000009
9031,Gent,Droogveldeweg,2,51.0574323062,3.63080703535
9031,Gent,Luchterenhof,3,51.0612683522,3.63916060032
9031,Gent,Dosweg,42,51.0430907077,3.64615850921
9031,Gent,Tuinstraat,14,51.0514275273,3.65916588356
9031,Gent,Luchterenstraat,47,51.0591261549,3.6210142942
9031,Gent,Hof van Eden,44,51.0516277084,3.63849224783
9031,Gent,Oranjeboomstraat,27,51.070471306,3.66328479465
9031,Gent,Varendrieskouter,143,51.0484727663,3.6401586524
9031,Gent,Beekstraatkouter,73,51.0635590176,3.64097947174
9031,Gent,Oudewee,2,51.0467063832,3.64370723099
9031,Gent,Gijzelstraat,18,51.0671038275,3.62747552138
9031,Gent,Drongenstationstraat,69,51.0471245896,3.65588732926
9031,Gent,Rabouwstraat,5,51.0491422872,3.63096329751
9031,Gent,Halewijnstraat,24,51.049315601,3.62539572549
9031,Gent,Merendreesesteenweg,4,51.0653678195,3.62328456649
9031,Gent,Wilgetronkstraat,4,51.0690159789,3.66195487838
9031,Gent,Mariakerksesteenweg,69,51.0534645829,3.66133176941
9031,Gent,Keuze,2,51.0380211445,3.63105228935
9031,Gent,Noordhoutstraat,47,51.0381676791,3.60818136201
9031,Gent,Varendriesstraat,46,51.0459927615,3.6278241076
9031,Gent,Antoon Catriestraat,69,51.0553072371,3.64624119218
9031,Gent,Gaspeldoorndreef,7,51.0555077975,3.65025908296
9031,Gent,Steenhuisdreef,68,51.0528703375,3.66661773685
9031,Gent,Bollewerkstraat,37,51.0474337732,3.64368755952
9031,Gent,Zestiengemeten,6,51.0496339218,3.6541861041
9031,Gent,Beekstraatkouter,91,51.0632050494,3.63870102999
9031,Gent,Buisstraat,42,51.0427174759,3.64687880738
9031,Gent,Cipresdreef,12,51.0697965686,3.66429241419
9031,Gent,Baarleveldestraat,37,51.0431798219,3.6091412358
9031,Gent,Beekstraat,161,51.0637704035,3.6353996464
9031,Gent,Halewijnstationstraat,39,51.0503127573,3.61750394879
9031,Gent,Varendrieskouter,161,51.048337996,3.63810727907
9031,Gent,Prinsesselaan,10,51.0493048319,3.64755854336
9031,Gent,Varendrieskouter,11,51.0466502844,3.65244204248
9031,Gent,Luchterenkerkweg,17,51.0539228832,3.65698851106
9031,Gent,Mariakerksesteenweg,261,51.0657083524,3.65175035611
9031,Gent,Beekstraat,11,51.0731971308,3.66245908804
9031,Gent,Elshout,5,51.0518398846,3.64035686842
9031,Gent,Klaphof,1,51.0580053892,3.64627017791
9031,Gent,Bosstraat,58,51.0769578612,3.64253980244
9031,Gent,Treinstraat,31,51.0494295999,3.64606030465
9031,Gent,Gaverlandstraat,57,51.0318445192,3.60659961468
9031,Gent,Heiebreestraat,13,51.0675355611,3.63856860064
9031,Gent,Steenhuisdreef,33,51.0527052179,3.66491627381
9031,Gent,Paasleliedreef,12,51.0361947776,3.62638704051
9031,Gent,Varendrieskouter,115,51.0488794695,3.64410086798
9031,Gent,Halewijnstationstraat,85,51.0469758491,3.61493475267
9031,Gent,Oranjeboomstraat,3,51.0706569059,3.66881824776
9031,Gent,Beekstraat,115,51.0652529077,3.64066382564
9031,Gent,Sint-Gerolfstraat,81,51.0470869848,3.6288312998
9031,Gent,Oudewee,79,51.0463417455,3.64475589278
9031,Gent,Hazestropdreef,31,51.0340150567,3.60407819372
9031,Gent,Groenewandeling,74,51.0543457546,3.65522046315
9031,Gent,Rozenlaan,17,51.0552115489,3.64770308484
9031,Gent,Wallemeers,8,51.0645465094,3.64055925264
9031,Gent,Luchterenkerkweg,88,51.0555687028,3.65540494398
9031,Gent,Adolf Lootensstraat,38,51.0527243569,3.61286416337
9031,Gent,Abdijmolenstraat,80,51.0507073293,3.65827501401
9031,Gent,Schuiterstraat,11,51.0482196335,3.6478082766
9031,Gent,Varendrieskouter,133,51.0484986961,3.64135904555
9031,Gent,Halewijnkouter,22,51.048320976,3.6280750751
9031,Gent,Baarleboslaan,20,51.0349472605,3.60628382218
9031,Gent,Rodehoedstraat,40,51.0624777854,3.65632197127
9031,Gent,Alfons Bynlaan,12,51.0526587103,3.66103587013
9031,Gent,Drongenplein,1,51.0502259151,3.66498475688
9031,Gent,Varendriesstraat,9,51.0471720418,3.63068415299
9031,Gent,Rondehuisjesdreef,7,51.0512402531,3.660357604
9031,Gent,Zeger van Kortrijkstraat,39,51.0571681422,3.66198332044
9031,Gent,Varendrieskouter,28,51.049083514,3.64254977783
9031,Gent,Domien Ingelsstraat,45,51.0512575288,3.66615985342
9031,Gent,Moortelputstraat,26,51.0342464739,3.62127728424
9031,Gent,Keiskantstraat,4,51.04717003,3.64367381542
9031,Gent,Jean Pierre Baudetlaan,3,51.0673186191,3.66669643186
9031,Gent,Beekstraat,28,51.0730055902,3.66064814359
9031,Gent,Gavergrachtstraat,19,51.0674654089,3.6241407239
9031,Gent,Holisstraat,20,51.0547392999,3.64327066902
9031,Gent,Drongenplein,25,51.0503627855,3.66242271374
9031,Gent,Mariakerksesteenweg,196,51.0674287404,3.65012753821
9031,Gent,Steenhuisdreef,15,51.0522163037,3.66385052207
9031,Gent,Deinse Horsweg,41,51.0450967259,3.6513161392
9031,Gent,Buisstraat,30,51.0425436963,3.64764022825
9031,Gent,Joannes Schinckdreef,29,51.0665339946,3.62084007929
9031,Gent,Krommehamlaan,7,51.0328354614,3.67642080375
9031,Gent,Oudenaardegoed,5,51.0458790143,3.65394105386
9031,Gent,Eikvarenweg,20,51.0464815152,3.63889233126
9031,Gent,Raapstraat,31,51.0410978344,3.62790821691
9031,Gent,Mariakerksesteenweg,213,51.0624058153,3.65720624004
9031,Gent,Kroosvarenweg,4,51.0477086981,3.63955274902
9031,Gent,Fresiastraat,7,51.0517429771,3.65238869912
9031,Gent,Bollewerkstraat,45,51.047645479,3.64272437665
9031,Gent,Abdijmolenstraat,62,51.050904785,3.65982157903
9031,Gent,Klaverdries,10,51.0514500292,3.65799148611
9031,Gent,Sint-Aldegondestraat,27,51.0482405456,3.65364832066
9031,Gent,Dosweg,30,51.0433432213,3.64700990905
9031,Gent,Veerstraat,27,51.0514698919,3.66753994919
9031,Gent,Mariakerksesteenweg,125,51.0557387435,3.66030469005
9031,Gent,Koningsvarenweg,24,51.0467422282,3.64068397776
9031,Gent,Congregatiestraat,3,51.051857842,3.65315539211
9031,Gent,Klaverdries,45,51.0524133949,3.65828593516
9031,Gent,Noordgijzelstraat,45,51.0704694842,3.63034973865
9031,Gent,Mariakerksesteenweg,231,51.0637860714,3.65533712545
9031,Gent,Moortelputstraat,2,51.0367249478,3.62150308281
9031,Gent,Esdoornstraat,12,51.0713534875,3.66452895697
9031,Gent,Oude-Abdijstraat,40,51.0496490708,3.65994269452
9031,Gent,Landegemstraat,8A,51.0441086555,3.59095054575
9031,Gent,Brouwerijstraat,58,51.0369787974,3.62682345342
9031,Gent,Luchterenkouter,10,51.0620059171,3.64042414782
9031,Gent,Bernard Hamelinckstraat,16,51.0677621548,3.63799809206
9031,Gent,Weerdestraat,9,51.0511610673,3.61155631104
9031,Gent,Mariakerksesteenweg,107,51.0554235944,3.66041229505
9031,Gent,Vinkendal,38,51.0632712273,3.63587723449
9031,Gent,Buisstraat,12,51.0429539256,3.64895648642
9031,Gent,Koninginnelaan,34,51.0546140186,3.66321710294
9031,Gent,Zandloperstraat,245,51.0676168033,3.66719658597
9031,Gent,Dosweg,12,51.0437359245,3.64834028576
9031,Gent,Hindestraat,16,51.0485603251,3.65019293278
9031,Gent,Hazestropdreef,13,51.0337257091,3.60589909038
9031,Gent,Emiel Poetoustraat,21,51.0721881093,3.66784408423
9031,Gent,Luchterenstraat,37,51.0603004906,3.62113619647
9031,Gent,Leisbulkstraat,2,51.0456728391,3.62016990045
9031,Gent,Merendreesesteenweg,90,51.0692764043,3.60929428802
9031,Gent,Avennesdreef,54,51.0683583975,3.63564809378
9031,Gent,Baarlekouter,10,51.0425852888,3.62656084782
9031,Gent,Kerselaarstraat,29,51.0722030122,3.66512273093
9031,Gent,Vinderhoutsedam,21,51.0764709645,3.66040965545
9031,Gent,Adriaan Walckiersdreef,14,51.052822508,3.66416016714
9031,Gent,Groenewandeling,38,51.0556693345,3.65776357557
9031,Gent,Beekstraat,168,51.0638870188,3.63282010694
9031,Gent,Varendrieskouter,82,51.048720086,3.63792533513
9031,Gent,Luchterenkerkweg,240,51.0622369991,3.63970571345
9031,Gent,Schuiterstraat,46,51.0464583537,3.64703108216
9031,Gent,Halewijnstationstraat,32,51.0523569694,3.617295735
9031,Gent,Meulenaarshoek,15,51.0546346966,3.65808265564
9031,Gent,Vliegpleinkouter,27,51.0696371117,3.66800739494
9031,Gent,Steenovenstraat,4,51.0652759444,3.63810921895
9031,Gent,Pieter Hellebautstraat,6,51.0536762722,3.65574797257
9031,Gent,Mahoniestraat,6,51.0712490471,3.66253156219
9031,Gent,Varendrieskouter,64,51.0489380968,3.6393509241
9031,Gent,Moortelputstraat,62,51.03606642,3.62975070203
9031,Gent,Schepenstraat,27,51.0371185634,3.61345867553
9031,Gent,Joannes Schinckdreef,40,51.0671374696,3.62094243619
9031,Gent,Gavergrachtstraat,103,51.0762572539,3.63007623029
9031,Gent,Beekstraat,64,51.0678273296,3.6477563614
9031,Gent,Steenhuisdreef,28A,51.0518050479,3.66520634284
9031,Gent,Bieldekensstraat,5,51.0477578455,3.65418691062
9031,Gent,Deinse Horsweg,23,51.046268116,3.65379964203
9031,Gent,Baarledorpstraat,29,51.0367037538,3.61784275954
9031,Gent,Baarleveldestraat,55,51.0442684865,3.60633503816
9031,Gent,Domien Ingelsstraat,20,51.0510366642,3.66558741034
9031,Gent,Akkerwindelaan,11,51.0556008054,3.64877996926
9031,Gent,Pachtgoeddreef,27,51.0595099582,3.66102492279
9031,Gent,Groenewandeling,2,51.0562845793,3.65988635652
9031,Gent,Rodeberg,3,51.0687537341,3.66652596484
9031,Gent,Mijlsteen,1,51.0538944536,3.65435345237
9031,Gent,Gaverlandstraat,29,51.0334227527,3.60848505764
9031,Gent,Gaspeldoorndreef,14,51.05523516,3.64980341699
9031,Gent,Klaverdries,47,51.0525367022,3.65810250414
9031,Gent,Kraaiaard,2,51.0521901747,3.62564362747
9031,Gent,Noordgijzelstraat,47,51.0706712486,3.63050036608
9031,Gent,Zeger van Kortrijkstraat,50,51.0580856354,3.66280078888
9031,Gent,Luchterenhof,10,51.0610546999,3.63720547694
9031,Gent,Hof van Eden,26,51.0512036233,3.63922379995
9031,Gent,Hoge Olm,4,51.0698911411,3.66572475429
9031,Gent,Emiel Poetoustraat,2,51.071203747,3.66758087592
9031,Gent,Halewijnstationstraat,14,51.0536365837,3.61723512738
9031,Gent,Baarledorpstraat,40,51.0370302817,3.61755137285
9031,Gent,Varendriesstraat,11,51.0469164896,3.63055755042
9031,Gent,Antoon Catriestraat,213,51.0632755304,3.63111682635
9031,Gent,Drongenstationstraat,34,51.048273211,3.65680310028
9031,Gent,Karel De Bondtlaan,25,51.0309899954,3.63212068265
9031,Gent,Antoon Catriestraat,80,51.0556945828,3.64654844204
9031,Gent,Landegemstraat,1,51.0416738441,3.59311745089
9031,Gent,Gavergrachtstraat,5,51.066306267,3.62394686717
9031,Gent,Mariakerksesteenweg,34,51.0534072038,3.66215188527
9031,Gent,Varendrieskouter,4,51.0494124107,3.64384589982
9031,Gent,Antoon Catriestraat,34,51.0542815266,3.65150878809
9031,Gent,Drongenstationstraat,70,51.0478368331,3.65477568395
9031,Gent,Abdijmolenstraat,31A,51.0506762828,3.66015177643
9031,Gent,Beekstraat,4,51.0749670962,3.66549471559
9031,Gent,Deinsesteenweg,109,51.0376423474,3.6284597409
9031,Gent,Bollewerkstraat,20,51.0481596696,3.64585485475
9031,Gent,Luchterenstraat,1,51.0646594492,3.62405152355
9031,Gent,Bollewerkstraat,73,51.0498742212,3.6412230232
9031,Gent,Kroonprinsstraat,6,51.0514806592,3.65246131144
9031,Gent,Pontstraat,1,51.0420306315,3.67719110961
9031,Gent,Antoon Catriestraat,184,51.0622418066,3.63453941097
9031,Gent,Jozef Boddaertstraat,17,51.0547729334,3.65234492772
9031,Gent,Noordhoutstraat,1,51.0401949864,3.61446394553
9031,Gent,Struisvarenweg,20,51.0473676921,3.63670330982
9031,Gent,Fresiastraat,26,51.0514547467,3.6506544117
9031,Gent,Mariakerksesteenweg,2,51.0515990799,3.66290125115
9031,Gent,Deinsesteenweg,13,51.0417513372,3.64239264072
9031,Gent,Antoon Catriestraat,62,51.0552340601,3.64903364483
9031,Gent,Luchterenkerkweg,53,51.0557082363,3.65307873858
9031,Gent,Oudewee,44,51.0444876995,3.64506589377
9031,Gent,Zandloperstraat,102,51.068296062,3.6692598654
9031,Gent,Doornplasstraat,104,51.0639297358,3.62435729209
9031,Gent,Lage Varenweg,13A,51.0445234858,3.62820298993
9031,Gent,Mariakerksesteenweg,48,51.0538566988,3.6620665166
9031,Gent,Schuiterstraat,4,51.0485487977,3.64726014285
9031,Gent,Drongenstationstraat,2,51.0493673097,3.65741426291
9031,Gent,Joannes Schinckdreef,3,51.0656750375,3.62342077158
9031,Gent,Varendrieskouter,46,51.0491249761,3.64140109007
9031,Gent,Baarleveldestraat,73,51.0456863567,3.60476071107
9031,Gent,Tuinstraat,7,51.0506146138,3.65868701889
9031,Gent,Baarleboslaan,19,51.0349522613,3.60526492264
9031,Gent,Antoon Catriestraat,166,51.0614428269,3.63650484204
9031,Gent,Beekstraat,46,51.0702631506,3.65467043993
9031,Gent,Oranjeboomstraat,10,51.0708611098,3.66533679753
9031,Gent,Rondehuisjesdreef,49,51.0526023004,3.65909859738
9031,Gent,Drongenstationstraat,52,51.0482630553,3.65597026147
9031,Gent,Zombeekstraat,40,51.0311222111,3.59695732598
9031,Gent,Oude-Abdijstraat,30,51.0497697532,3.66044387486
9031,Gent,Domien Ingelsstraat,47,51.0514734551,3.66641675561
9031,Gent,Drongenstationstraat,16,51.0488437691,3.65711630725
9031,Gent,Sint-Gerolfstraat,53,51.0453292885,3.63017927863
9031,Gent,Doornplasstraat,71,51.0586699459,3.62603607545
9031,Gent,Zandloperstraat,120,51.0679162349,3.66728697637
9031,Gent,Meirebeekstraat,7,51.0672808055,3.62312214231
9031,Gent,Oudewee,62,51.0459719014,3.64632056189
9031,Gent,Joannes Schinckdreef,22,51.0664188843,3.622720562
9031,Gent,Gavergrachtstraat,156,51.0805837473,3.6359772515
9031,Gent,Boskeetstraat,17,51.0636147104,3.62720520343
9031,Gent,Noordhoutstraat,55,51.0376653049,3.60731136624
9031,Gent,Mariakerksesteenweg,100,51.0574387845,3.66016629148
9031,Gent,Dosweg,5,51.0434827513,3.64902679033
9031,Gent,Kroonprinsstraat,25,51.0495204833,3.65038528265
9031,Gent,Merendreesesteenweg,18,51.065911178,3.62162898224
9031,Gent,Vliegpleinkouter,63,51.0683955521,3.66520533702
9031,Gent,Stroomkenskerkweg,99,51.0646183625,3.64133592603
9031,Gent,Boonstede,60,51.0352031975,3.60030515171
9031,Gent,Boskeetstraat,35,51.064432639,3.62436342143
9031,Gent,Gaverlandstraat,40,51.0331174444,3.60556013303
9031,Gent,Krommehamlaan,32,51.0305175405,3.6777832478
9031,Gent,Heiebreestraat,66,51.0704561285,3.63402694272
9031,Gent,Bollewerkstraat,47,51.0478782316,3.64255206131
9031,Gent,Rondehuisjesdreef,14,51.051791686,3.66055649495
9031,Gent,Gaverlandstraat,75,51.0304520111,3.60506624002
9031,Gent,Kruisstraat,67,51.0570526037,3.64734139702
9031,Gent,Vliegpleinkouter,45,51.0689267334,3.66747044181
9031,Gent,Buisstraat,5,51.0426966912,3.64944939505
9031,Gent,Drongenstationstraat,48,51.0481086263,3.65635837364
9031,Gent,Alfons Bynlaan,5,51.0523321643,3.66174636302
9031,Gent,Halewijnkouter,29,51.0475504953,3.62554680632
9031,Gent,Boelenaar,31,51.0528686891,3.65497867745
9031,Gent,Baarlewarande,21,51.0329803755,3.60229404344
9031,Gent,Noordhoutstraat,91,51.0346440097,3.59912756114
9031,Gent,Oude-Abdijstraat,12,51.0500666397,3.66169669572
9031,Gent,Gaverlandstraat,93,51.0288546315,3.604866181
9031,Gent,Zeger van Kortrijkstraat,14,51.0554330634,3.6623505364
9031,Gent,Buisstraat,19,51.042102811,3.64751525809
9031,Gent,Rondehuisjesdreef,32,51.0523801941,3.66001375662
9031,Gent,Vinkendal,13,51.0617042637,3.63778434357
9031,Gent,Oudewee,80,51.0466718614,3.64659227207
9031,Gent,Oude Gentweg,8,51.0507650178,3.66545371799
9031,Gent,Congregatiestraat,10,51.0519119725,3.65406192995
9031,Gent,Luchterenkerkweg,71,51.0558350439,3.65153463637
9031,Gent,Moerstraat,83,51.0323361025,3.5821430214
9031,Gent,Keuzekouter,69,51.0285308524,3.64035192194
9031,Gent,Krommehamlaan,14,51.0321300162,3.67627497726
9031,Gent,Baarleboslaan,37,51.0349677377,3.60168126821
9031,Gent,Veerstraat,10,51.0501017494,3.6654931972
9031,Gent,Varendriesstraat,28,51.0465033341,3.62847829742
9031,Gent,Avennesdreef,36,51.0672377787,3.63586366311
9031,Gent,Mariakerksesteenweg,87,51.054605113,3.6611157176
9031,Gent,Lage Varenweg,14,51.0453016884,3.62934705558
9031,Gent,Dosweg,19,51.0431464496,3.64789247219
9031,Gent,Sint-Aldegondestraat,10,51.0492551968,3.65420043778
9031,Gent,Klaverdries,27,51.0520605109,3.65903863134
9031,Gent,Paradijskouter,30,51.0541476076,3.64388258581
9031,Gent,Hazestropdreef,41,51.0344057021,3.60311702629
9031,Gent,Boelenaar,13,51.0527215811,3.65581869825
9031,Gent,Mahoniestraat,25,51.070894164,3.66316485041
9031,Gent,Vinkendal,31,51.062445775,3.63615848606
9031,Gent,Hoogland,14,51.0602765306,3.65997086819
9031,Gent,Koninginnelaan,52,51.054080034,3.65900475267
9031,Gent,Driesdreef,13,51.0708790205,3.6604878266
9031,Gent,Moerstraat,30,51.0381074286,3.59681118131
9031,Gent,Adolf Lootensstraat,13,51.0537860904,3.6157998779
9031,Gent,Zandloperstraat,227,51.067528135,3.66803781212
9031,Gent,Bernard Hamelinckstraat,9,51.0673158359,3.63650531178
9031,Gent,Halewijnstationstraat,111,51.044469858,3.61322008897
9031,Gent,Kijfmeers,10,51.0334615993,3.67742092055
9031,Gent,Esdoornstraat,5,51.0712085591,3.66401363191
9031,Gent,Industriepark-Drongen,2,51.0406005579,3.60713305132
9031,Gent,Zandloperstraat,209,51.0677217254,3.66890948545
9031,Gent,Bassebeekwegel,15,51.0550151611,3.65929781256
9031,Gent,Industriepark-Drongen,16,51.0435186034,3.59474988822
9031,Gent,Karel De Bondtlaan,6,51.0336427391,3.63155333719
9031,Gent,Novicenstraat,20,51.0665856723,3.6383675561
9031,Gent,Baarledorpstraat,93,51.0350837759,3.61358115136
9031,Gent,Paradijskouter,12,51.0553218536,3.6447403238
9031,Gent,Esdoornstraat,19,51.0721349241,3.66449851274
9031,Gent,Zandloperstraat,94,51.0683840085,3.66958355964
9031,Gent,Flonkedreef,18,51.0493798728,3.63948780153
9031,Gent,Moortelputstraat,44,51.0340529566,3.62355277438
9031,Gent,Veerstraat,63,51.0522966193,3.66883742789
9031,Gent,Boonstede,42,51.0345296442,3.60186907677
9031,Gent,Zeger van Kortrijkstraat,32,51.0566749814,3.66280778608
9031,Gent,Moerstraat,12,51.0366227229,3.59932646266
9031,Gent,Pachtgoeddreef,45,51.0595725102,3.66198198657
9031,Gent,Antoon Catriestraat,9,51.0506054004,3.65635477543
9031,Gent,Hazestropdreef,8,51.0341751647,3.60572967187
9031,Gent,Mijlsteen,8,51.0545640492,3.65478040291
9031,Gent,Noordhoutstraat,96,51.0333257943,3.59535136863
9031,Gent,Baarleboslaan,14,51.0346721758,3.60678316204
9031,Gent,Rondehuisjesdreef,37,51.0517311267,3.6597086676
9031,Gent,Halewijnstraat,12,51.0488714112,3.62657634318
9031,Gent,Kijfmeers,22,51.0326943016,3.67810186052
9031,Gent,Moerstraat,95,51.0305348654,3.58119943741
9031,Gent,Koninginnelaan,54,51.0540302433,3.65888698246
9031,Gent,Koningsvarenweg,16,51.0473490852,3.63989561662
9031,Gent,Deinse Horsweg,53,51.0440746309,3.6481762226
9031,Gent,Baarleveldestraat,25,51.0421213748,3.61037914031
9031,Gent,Renpaardlaan,16,51.0712131804,3.62850098144
9031,Gent,Luchterenkouter,5,51.0627140388,3.64123026719
9031,Gent,Baarleboslaan,32,51.0354244044,3.60540621869
9031,Gent,Avennesdreef,59,51.0675926088,3.63484058215
9031,Gent,Novicenstraat,3,51.066424909,3.63659314472
9031,Gent,Slingerstraat,5,51.0420451978,3.64571163521
9031,Gent,Kroosvarenweg,9,51.0481231483,3.64048995664
9031,Gent,Halewijnstraat,30,51.0497563125,3.62409320333
9031,Gent,Bollewerkstraat,25,51.0470671359,3.64583135516
9031,Gent,Schuiterstraat,16,51.0478303983,3.64741224833
9031,Gent,Hoogland,9,51.06060993,3.66116607096
9031,Gent,Adolf Lootensstraat,6,51.0542467938,3.61617957084
9031,Gent,Groenewandeling,31,51.0553029962,3.6583117114
9031,Gent,Driesdreef,6,51.0714747148,3.65906255371
9031,Gent,Bieldekensstraat,14,51.0486077719,3.64964457278
9031,Gent,Jozef Boddaertstraat,6,51.0552900448,3.65319609649
9031,Gent,Boelenaar,6,51.052966385,3.65577803235
9031,Gent,Lage Varenweg,9,51.0448519415,3.62900207061
9031,Gent,Klaverdries,5,51.0519511773,3.6575577259
9031,Gent,Steenovenstraat,11,51.0658792917,3.63815002347
9031,Gent,Steenhuisdreef,21,51.0522611437,3.66429896853
9031,Gent,Noordgijzelstraat,5,51.0674215654,3.62814246875
9031,Gent,Waterviolier,3,51.0342251758,3.6259566042
9031,Gent,Baarlewarande,41,51.0339688857,3.60076536116
9031,Gent,Noordhoutstraat,132,51.0296520488,3.59086988144
9031,Gent,Moerstraat,77,51.0323611419,3.58547062354
9031,Gent,Adriaan Walckiersdreef,5,51.0529476992,3.66322294583
9031,Gent,Abdijmolenstraat,26,51.0514642698,3.66175090445
9031,Gent,Emiel Poetoustraat,13,51.0720709353,3.66680866984
9031,Gent,Boonstede,12,51.0334894914,3.60447384059
9031,Gent,Oudewee,48,51.0442955883,3.64522572069
9031,Gent,Groenewandeling,48,51.0553830248,3.65716757883
9031,Gent,Keuze,36,51.0367249561,3.63105187951
9031,Gent,Halewijnstationstraat,93,51.0463099483,3.61451864724
9031,Gent,Baarledorpstraat,32,51.037366823,3.61780162145
9031,Gent,Luchterenkerkweg,27,51.0543520807,3.65660901206
9031,Gent,Treinstraat,21,51.0498973447,3.64728315646
9031,Gent,Domien Ingelsstraat,25,51.051583641,3.66495038244
9031,Gent,Baarleboslaan,116,51.0357548298,3.60094553122
9031,Gent,Kerselaarstraat,14,51.0711542104,3.66634086386
9031,Gent,Groenewandeling,13,51.0556883222,3.65943880873
9031,Gent,Ernest Solvynsdreef,26,51.0343554199,3.63023191163
9031,Gent,Leegte,13,51.0634219791,3.65861010119
9031,Gent,Boonstede,30,51.0341159305,3.60293086061
9031,Gent,De Kemmeterlaan,4,51.0504872197,3.65232404279
9031,Gent,Bosstraat,13,51.0687064859,3.64505556199
9031,Gent,Oudewee,18,51.0457290827,3.64403308964
9031,Gent,Heiebreestraat,58,51.0700193658,3.63489799744
9031,Gent,Halewijnkouter,3,51.0479480819,3.6305094926
9031,Gent,Halewijnkouter,42,51.0480738199,3.62516999598
9031,Gent,Antoon Catriestraat,79,51.0554978174,3.64575814763
9031,Gent,Baarledorpstraat,14,51.0374631532,3.61909512457
9031,Gent,Gaverlandstraat,67,51.0311162354,3.60537018828
9031,Gent,Luchterenstraat,8,51.0644282476,3.6228288838
9031,Gent,Kasteleinstraat,5,51.0569232089,3.66081867094
9031,Gent,Elshout,19,51.0526424723,3.63784631026
9031,Gent,Mariakerksesteenweg,131,51.0558756243,3.66018052462
9031,Gent,Oudewee,36,51.0448701322,3.64474768966
9031,Gent,Baarledorpstraat,49,51.0358687273,3.61754703982
9031,Gent,Avennesdreef,77,51.0694424873,3.63399733395
9031,Gent,Keuze,18,51.037380471,3.63063635063
9031,Gent,Drongenplein,6,51.0506314053,3.66442444987
9031,Gent,Gaverlandstraat,32,51.0336874192,3.60649735858
9031,Gent,Baarlewarande,2,51.0322305491,3.60486731962
9031,Gent,Beekstraat,151,51.0640482575,3.63691818955
9031,Gent,Varendrieskouter,151,51.048423178,3.63936436067
9031,Gent,Heiebreestraat,23,51.0682691748,3.63787104796
9031,Gent,Pontstraat,8,51.0366093571,3.67577350181
9031,Gent,Avennesdreef,24,51.0657207742,3.63679589548
9031,Gent,Vinkendal,6,51.0622155486,3.63764911573
9031,Gent,Varendrieskouter,105,51.0490845194,3.644803636
9031,Gent,Joannes Schinckdreef,39,51.066784801,3.61986307404
9031,Gent,Bollewerkstraat,53,51.0481962462,3.64234291199
9031,Gent,Baarleveldestraat,78,51.0428076251,3.61249156597
9031,Gent,Baarleboslaan,60,51.0367855313,3.60516133833
9031,Gent,Antoon Catriestraat,44,51.054684585,3.6507957368
9031,Gent,Schepenstraat,5,51.0390295568,3.61107993788
9031,Gent,Kruisstraat,75,51.0567508866,3.64699786612
9031,Gent,Sint-Gerolfstraat,5,51.0423047922,3.63920080252
9031,Gent,Kruisstraat,9,51.0612658101,3.65618235006
9031,Gent,Luchterenstraat,25,51.0617854665,3.62247383059
9031,Gent,Struisvarenweg,12,51.0479924181,3.63729122998
9031,Gent,Oudewee,100,51.0465716557,3.64517431226
9031,Gent,Sint-Gerolfstraat,71,51.046645465,3.62900954423
9031,Gent,Beekstraat,87,51.0656686095,3.64480248532
9031,Gent,Sint-Aldegondestraat,15,51.0492188626,3.65520699351
9031,Gent,Holisstraat,8,51.0553920558,3.64383237586
9031,Gent,Beekstraat,123,51.0650961642,3.63969372892
9031,Gent,Varendrieskouter,87,51.0486876063,3.64633729638
9031,Gent,Varendrieskouter,123,51.0488007251,3.6429613225
9031,Gent,Halewijnkouter,14,51.0483057019,3.62935098132
9031,Gent,Oudenaardegoed,19,51.0452265203,3.65420056293
9031,Gent,Gavergrachtstraat,42,51.06834856,3.62544369657
9031,Gent,Doornplasstraat,98,51.063143574,3.62519135216
9031,Gent,Antoon Catriestraat,97,51.0562523452,3.64324894524
9031,Gent,Bollewerkstraat,78,51.0505610329,3.63805763068
9031,Gent,Hazestropdreef,21,51.0336939125,3.60484831167
9031,Gent,Deinsesteenweg,94,51.0386626775,3.63143343574
9031,Gent,Dosweg,24,51.0434697965,3.64743660566
9031,Gent,Veerstraat,35,51.0516601088,3.66779738619
9031,Gent,Gaverlandstraat,49,51.0322457283,3.60693467162
9031,Gent,Groenewandeling,66,51.0545625551,3.65567742961
9031,Gent,Ter Rivieren,10,51.0335769155,3.62592311173
9031,Gent,Raapstraat,23,51.0404588506,3.62847812147
9031,Gent,Bollewerkstraat,96,51.0499431804,3.63699749895
9031,Gent,Varendrieskouter,16,51.0491649126,3.64306806023
9031,Gent,Buisstraat,24,51.0426186607,3.64810949325
9031,Gent,Beekstraat,16,51.0737226053,3.66216735328
9031,Gent,Tuinstraat,2,51.0506208993,3.65916369737
9031,Gent,Drongenstationstraat,7,51.0485209604,3.65830874228
9031,Gent,Moortelputstraat,18,51.0352119511,3.62149156725
9031,Gent,Antoon Catriestraat,161,51.059433709,3.6373744405
9031,Gent,Oude-Abdijstraat,50,51.0495902194,3.65923008022
9031,Gent,Abdijmolenstraat,9,51.0512014191,3.66208047349
9031,Gent,Mariakerksesteenweg,7,51.0518218906,3.66202490382
9031,Gent,Moortelputstraat,36,51.0347097949,3.62305202801
9031,Gent,Baarledorpstraat,39,51.0365844798,3.61740795899
9031,Gent,Treinstraat,8,51.0507723813,3.64887343258
9031,Gent,Krommehamlaan,19,51.031987259,3.67723866358
9031,Gent,Emiel Poetoustraat,31,51.0715466659,3.66851544566
9031,Gent,Antoon Catriestraat,143,51.0589441572,3.6391754092
9031,Gent,Zandloperstraat,253,51.0675716447,3.66687382949
9031,Gent,Joannes Schinckdreef,50,51.0673320614,3.61993207696
9031,Gent,Pachtgoeddreef,5,51.0585620596,3.66093939587
9031,Gent,Abdijmolenstraat,90,51.0509595367,3.65779212974
9031,Gent,Noordhoutstraat,114,51.0314995297,3.59480969538
9031,Gent,Henri de Sagherstraat,20,51.0548988028,3.66368335474
9031,Gent,Baarleveer,5,51.0364991002,3.61933154139
9031,Gent,Boelenaar,41,51.0531712602,3.65380467322
9031,Gent,Adolf Lootensstraat,19A,51.0527950682,3.61542914936
9031,Gent,Varendrieskouter,34,51.0493740736,3.64220328271
9031,Gent,Brouwersgracht,7,51.0568165974,3.64792357021
9031,Gent,Veerstraat,17,51.0516091049,3.66696039133
9031,Gent,Baarleveldestraat,96,51.0453141492,3.60643409975
9031,Gent,Beekstraat,34,51.0728028094,3.65997744632
9031,Gent,Deinse Horsweg,71,51.0433099731,3.64573560862
9031,Gent,Halewijnkouter,32,51.0481151305,3.62627614827
9031,Gent,Schuiterstraat,34,51.0470225134,3.64821929809
9031,Gent,Meulenaarshoek,8,51.0546899468,3.65867387843
9031,Gent,Adolf Petitstraat,20,51.0508635549,3.66213306242
9031,Gent,Drongenplein,17,51.0507118511,3.66337028638
9031,Gent,Baarleboslaan,42,51.035856622,3.60475474037
9031,Gent,Fresiastraat,39,51.0507243407,3.65051828286
9031,Gent,Gaverlandstraat,39,51.0323068751,3.60844100376
9031,Gent,Schepenstraat,17,51.0382443878,3.61250305288
9031,Gent,Vinkendal,41,51.0627701404,3.63562800995
9031,Gent,Esdoornstraat,20,51.0719564245,3.66465372608
9031,Gent,Karel De Bondtlaan,17,51.0316328951,3.63121101585
9031,Gent,Vliegpleinkouter,17,51.0697049301,3.66854384259
9031,Gent,Adolf Petitstraat,19,51.0507911673,3.66170929233
9031,Gent,Beekstraat,158,51.0640114262,3.63374187428
9031,Gent,Rondehuisjesdreef,20,51.0520338673,3.66037826331
9031,Gent,Cipresdreef,5,51.0691279539,3.66438422542
9031,Gent,Verschansingsstraat,3,51.071250514,3.6693412903
9031,Gent,Klaphof,20,51.0577808167,3.6436892794
9031,Gent,Luchterenstraat,43,51.059772344,3.62096275227
9031,Gent,Halewijnstationstraat,118,51.045401756,3.61289190265
9031,Gent,Drongenstationstraat,28,51.0487624754,3.65667957791
9031,Gent,Luchterenkerkweg,169,51.0625610273,3.63818880837
9031,Gent,Avennesdreef,52,51.068184104,3.63550501119
9031,Gent,Pachtgoeddreef,17,51.0588477803,3.66072139795
9031,Gent,Krommehamlaan,20,51.0315347731,3.67683191584
9031,Gent,Eikvarenweg,30,51.0460619785,3.63803582164
9031,Gent,Mariakerksesteenweg,28,51.0531080323,3.66236092383
9031,Gent,Gavergrachtstraat,85,51.0749984707,3.6292998613
9031,Gent,Hof van Eden,36,51.0515744314,3.63838097764
9031,Gent,Luchterenkerkweg,234,51.0617670733,3.64010446821
9031,Gent,De Kemmeterlaan,21,51.0491442168,3.6514531003
9031,Gent,Luchterenkerkweg,10,51.0538532501,3.65818664935
9031,Gent,Oude-Abdijstraat,5,51.0489068905,3.65955089868
9031,Gent,Paradijskouter,3,51.0553060135,3.64558695325
9031,Gent,Meirebeekstraat,32,51.0683892848,3.61701861332
9031,Gent,Heiebreestraat,41,51.0692619631,3.63507751173
9031,Gent,Halewijnkouter,59,51.0471899146,3.62136353752
9031,Gent,Mariakerksesteenweg,245A,51.0646785953,3.6535665103
9031,Gent,Halewijnkouter,121,51.0492341866,3.61032559816
9031,Gent,Luchterenkerkweg,45,51.0554847425,3.65452874179
9031,Gent,Mariakerksesteenweg,116A,51.0596957371,3.65991218577
9031,Gent,Pachtgoeddreef,35,51.060150107,3.66068359413
9031,Gent,Alfons Bynlaan,20,51.0524978171,3.66072409976
9031,Gent,Oudewee,54,51.0456498344,3.64685259117
9031,Gent,Antoon Catriestraat,90,51.0565317382,3.64506366496
9031,Gent,Hof van Eden,48,51.0522706623,3.63983429922
9031,Gent,Eikvarenweg,12,51.0471621304,3.63869362724
9031,Gent,Kloosterstraat,13,51.0393992961,3.61647009571
9031,Gent,Noordhoutstraat,25,51.0394795691,3.61073045554
9031,Gent,Keuzekouter,44,51.0286763905,3.63765143456
9031,Gent,Halewijnstationstraat,22,51.0530336716,3.61733494069
9031,Gent,Groenewandeling,41,51.0551294124,3.65795376974
9031,Gent,Boonstede,19,51.0338072504,3.6025602377
9031,Gent,Schepenstraat,35,51.0372692941,3.6119695774
9031,Gent,Novicenstraat,14,51.0664177681,3.63806543806
9031,Gent,Noordhoutstraat,61,51.0374050065,3.60645470272
9031,Gent,Mariakerksesteenweg,194,51.067293302,3.6504424909
9031,Gent,Oudewee,72,51.0463814355,3.64608222698
9031,Gent,Meirebeekstraat,14,51.0682705124,3.62117330568
9031,Gent,Karel De Bondtlaan,1,51.0325367691,3.63156788418
9031,Gent,Vliegpleinkouter,71,51.0678980685,3.66425377609
9031,Gent,Bassebeekwegel,21,51.0552657084,3.65913583811
9031,Gent,Mariakerksesteenweg,99,51.0551637473,3.66068751124
9031,Gent,Paasleliedreef,5,51.0357311411,3.6265502189
9031,Gent,Moerstraat,42,51.0390472382,3.5952830186
9031,Gent,Moortelputstraat,7,51.0363889563,3.62218938332
9031,Gent,Hof van Eden,18,51.0513799394,3.63886621247
9031,Gent,Vliegpleinkouter,35,51.0695342764,3.66772030022
9031,Gent,Zeger van Kortrijkstraat,26,51.0562013203,3.6631210205
9031,Gent,Doornplasstraat,63,51.0583894245,3.62752786055
9031,Gent,Antoon Catriestraat,205,51.0623946921,3.63228649045
9031,Gent,Luchterenkerkweg,252,51.0627521663,3.63907870986
9031,Gent,Steenhuisdreef,56,51.0523739839,3.66623167765
9031,Gent,Oudenaardegoed,12,51.0448959391,3.65183928055
9031,Gent,Ernest Solvynsdreef,6,51.0377929646,3.63258633502
9031,Gent,Oudewee,90,51.0468194203,3.64604181548
9031,Gent,Poekstraat,32,51.0723058247,3.61461997019
9031,Gent,Baarleveldestraat,61,51.0444988096,3.60586469976
9031,Gent,Luchterenkerkweg,116,51.0564479225,3.65258233024
9031,Gent,Jean-Baptiste d'Hanedreef,4,51.0533704359,3.66278199479
9031,Gent,Ter Rivieren,27,51.0343483238,3.62424567038
9031,Gent,Fresiastraat,14,51.0522654867,3.65140587572
9031,Gent,Avennesdreef,7,51.0644245832,3.63342567243
9031,Gent,Fresiastraat,32,51.0511822857,3.65009480993
9031,Gent,Lage Varenweg,22,51.0452066225,3.62829386715
9031,Gent,Mariakerksesteenweg,141,51.0560817951,3.66002350245
9031,Gent,Baarleboslaan,49,51.0353942225,3.60063592553
9031,Gent,Baarlewarande,31,51.0333491303,3.6017699234
9031,Gent,Schepenstraat,53,51.0387765191,3.61032748237
9031,Gent,Doornplasstraat,81,51.0596967664,3.62551681902
9031,Gent,Gaverlandstraat,85,51.0294025361,3.60497642598
9031,Gent,Mariakerksesteenweg,82,51.0559930767,3.66095254206
9031,Gent,Zeger van Kortrijkstraat,44,51.057586386,3.66272872059
9031,Gent,Vliegpleinkouter,53,51.0690440147,3.66651362199
9031,Gent,Koningsvarenweg,5,51.0476629224,3.64221427619
9031,Gent,Streepbosstraat,19,51.0374323588,3.59982916251
9031,Gent,Deinse Horsweg,17,51.0465789707,3.65454158478
9031,Gent,Bollewerkstraat,5,51.047755413,3.64695462649
9031,Gent,Halewijnkouter,39,51.0469825739,3.62458237335
9031,Gent,Flonkedreef,26,51.0493378497,3.64007702773
9031,Gent,Luchterenkerkweg,81,51.0566580063,3.64943682324
9031,Gent,Gaverlandstraat,50,51.0317599848,3.60462308304
9031,Gent,Brouwerijstraat,38,51.0373621282,3.62507221978
9031,Gent,Rabouwstraat,12,51.0496983659,3.63182492633
9031,Gent,Nevelseheerweg,3,51.0467272998,3.6203401518
9031,Gent,Hof van Eden,2,51.0519265067,3.64003105447
9031,Gent,Bollewerkstraat,61,51.0493207351,3.64165860802
9031,Gent,Steenhuisdreef,74,51.0530577278,3.66679263984
9031,Gent,Paradijskouter,24,51.054427291,3.64414982594
9031,Gent,Brouwersgracht,11,51.056668654,3.64767708778
9031,Gent,Schuiterstraat,52,51.0462313668,3.64650180523
9031,Gent,Drongenstationstraat,64,51.047999094,3.65508795267
9031,Gent,Moerstraat,24,51.0376359044,3.59757619296
9031,Gent,Gaspeldoorndreef,20,51.0550579179,3.65076705068
9031,Gent,Antoon Catriestraat,196,51.0625381156,3.63346042831
9031,Gent,Zandloperstraat,235,51.067606976,3.66756967299
9031,Gent,Halewijnstraat,9,51.0488622354,3.62509159373
9031,Gent,Zandloperstraat,110,51.0682576088,3.66850584697
9031,Gent,Sint-Gerolfstraat,78,51.047888669,3.62913366468
9031,Gent,Varendriesstraat,34,51.0460382625,3.62847038752
9031,Gent,Halewijnstraat,65,51.0512365589,3.6202539869
9031,Gent,Rozenlaan,10,51.0564932411,3.64801027731
9031,Gent,Heiebreestraat,94,51.0724628743,3.62990579747
9031,Gent,Kroonprinsstraat,35,51.0492317293,3.64964540567
9031,Gent,Vinkendal,23,51.0620701791,3.63660387798
9031,Gent,Oude-Abdijstraat,22,51.0500670557,3.66092698657
9031,Gent,Wallemeers,15,51.0645885424,3.63957837215
9031,Gent,Klaverdries,35,51.0523669139,3.65865803266
9031,Gent,Joannes Schinckdreef,49,51.0669694591,3.61884702743
9031,Gent,Moortelputstraat,54,51.0353718476,3.62769549317
9031,Gent,Jan-Baptist Lombaertdreef,6,51.0435507541,3.64953467499
9031,Gent,Jozef Boddaertstraat,23,51.0554695533,3.65186258435
9031,Gent,Drongenstationstraat,46,51.048174711,3.65649441801
9031,Gent,Pachtgoeddreef,53,51.0589322449,3.66255965573
9031,Gent,Baarledorpstraat,85,51.0354269083,3.61463493949
9031,Gent,Gavergrachtstraat,67,51.074377491,3.62646611176
9031,Gent,Varendrieskouter,52,51.0489363324,3.64092740394
9031,Gent,Mariakerksesteenweg,11,51.0519098207,3.66202728543
9031,Gent,Gavergrachtstraat,32,51.0677440572,3.62527737857
9031,Gent,Moortelputstraat,48,51.0348047101,3.62534106332
9031,Gent,Boelenaar,23,51.052776731,3.65539511791
9031,Gent,Zandloperstraat,217,51.0677324208,3.66833365007
9031,Gent,Drongenstationstraat,11,51.0479560467,3.65860352819
9031,Gent,Raapstraat,41,51.0413727839,3.62764492423
9031,Gent,Antoon Catriestraat,178,51.0620295867,3.63496128417
9031,Gent,Adolf Lootensstraat,23,51.0525648439,3.61412084191
9031,Gent,Driesdreef,23,51.0697407039,3.66111655677
9031,Gent,Kroonprinsstraat,17,51.049829257,3.65061957257
9031,Gent,Joannes Schinckdreef,14,51.0668087894,3.6235796349
9031,Gent,Varendrieskouter,70,51.0488377586,3.63885433755
9031,Gent,Veerstraat,53,51.0520093384,3.66838632628
9031,Gent,Oudewee,7,51.0460628991,3.64450779131
9031,Gent,Oude Gentweg,10,51.0507273475,3.66551318507
9031,Gent,Merendreesesteenweg,26,51.0661289994,3.6206660746
9031,Gent,Boskeetstraat,27,51.0641700635,3.62537591948
9031,Gent,Klaverdries,17,51.051619527,3.65850677334
9031,Gent,Pieter Hellebautstraat,1,51.054093536,3.65617564174
9031,Gent,Deinse Horsweg,35,51.045415367,3.65200545018
9031,Gent,Joannes Schinckdreef,32,51.0669311633,3.62172256335
9031,Gent,Varendriesstraat,16,51.0472777779,3.63002719933
9031,Gent,Droogveldeweg,7,51.0582580272,3.63123136671
9031,Gent,Boonstede,9,51.033265949,3.60371575261
9031,Gent,Domien Ingelsstraat,5,51.0509413691,3.6642607689
9031,Gent,Baarlewarande,13,51.0326560634,3.60275470022
9031,Gent,Dosweg,40,51.0431326565,3.6463000304
9031,Gent,Luchterenhof,1,51.0614786101,3.63969797586
9031,Gent,Beekstraatkouter,75,51.0635137727,3.64053793453
9031,Gent,Mariakerksesteenweg,123,51.0556441112,3.66011442149
9031,Gent,Karel De Bondtlaan,10,51.0332510655,3.63119353152
9031,Gent,Jean Fobelaan,8,51.0717285539,3.6283458695
9031,Gent,Hof van Eden,46,51.0521551873,3.63959335081
9031,Gent,Noordgijzelstraat,43,51.0702742999,3.63020200499
9031,Gent,Gijzelstraat,16,51.066957237,3.62772280446
9031,Gent,Varendrieskouter,141,51.0484830897,3.64033091019
9031,Gent,Tuinstraat,12,51.0513438771,3.6592025206
9031,Gent,Bosstraat,21,51.0698777566,3.64493230631
9031,Gent,Koningsvarenweg,26,51.0466050522,3.64024773679
9031,Gent,Wilgetronkstraat,6,51.0690417463,3.66224968326
9031,Gent,Zestiengemeten,4,51.0500530585,3.65465476761
9031,Gent,Domien Ingelsstraat,17,51.0514585918,3.66463293282
9031,Gent,Merendreesesteenweg,6,51.0654348335,3.62304967279
9031,Gent,Veerstraat,78,51.0521151028,3.66956109871
9031,Gent,Bernard Hamelinckstraat,7,51.0671206482,3.63654403128
9031,Gent,Avennesdreef,69,51.0684502849,3.63436459264
9031,Gent,Bollewerkstraat,139,51.0486190459,3.63537742154
9031,Gent,Luchterenkerkweg,152,51.0582514945,3.64723549147
9031,Gent,Kijfmeers,12,51.0333465537,3.67753139521
9031,Gent,Bollewerkstraat,35,51.0472192751,3.64435842942
9031,Gent,Klaverdries,43,51.052386225,3.65834197056
9031,Gent,Vinderhoutsedam,4,51.0743767237,3.66313833918
9031,Gent,Buisstraat,40,51.0426288804,3.64694405469
9031,Gent,Beekstraatkouter,93,51.0631778572,3.63841799405
9031,Gent,Halewijnstraat,22,51.049220118,3.62574978467
9031,Gent,Cipresdreef,14,51.069973021,3.66423097652
9031,Gent,Baarleveldestraat,35,51.043056976,3.60971960234
9031,Gent,Halewijnkouter,50,51.0479651369,3.62454294884
9031,Gent,Moortelputstraat,11,51.0360539908,3.62279695628
9031,Gent,Baarleboslaan,108,51.0358390998,3.6019042477
9031,Gent,Mariakerksesteenweg,105,51.0553018374,3.66021088459
9031,Gent,Brouwerijstraat,1,51.0379833285,3.62264447701
9031,Gent,Koninginnelaan,44,51.0544119931,3.65970417276
9031,Gent,Gaverlandstraat,59,51.0313611913,3.60693892944
9031,Gent,Sint-Aldegondestraat,5,51.0500894176,3.65538940392
9031,Gent,Schuiterstraat,26,51.0474726503,3.64772564989
9031,Gent,Steenhuisdreef,31,51.052644286,3.66478340745
9031,Gent,Paasleliedreef,14,51.0360737113,3.62597663213
9031,Gent,Adolf Petitstraat,12,51.0507365211,3.66222069251
9031,Gent,Baarledorpstraat,95,51.034899068,3.61302410725
9031,Gent,Abdijmolenstraat,36,51.0513761678,3.66142007031
9031,Gent,Keuzekouter,18,51.0311843731,3.63454513566
9031,Gent,Groenewandeling,76,51.0542915781,3.65510647143
9031,Gent,Booiebos,27,51.0395618502,3.59770632796
9031,Gent,Dosweg,3,51.0435287274,3.64918065933
9031,Gent,Halewijnstationstraat,65,51.0481779945,3.61611520213
9031,Gent,Kruisstraat,19,51.0610241848,3.65551442868
9031,Gent,Varendriesstraat,7,51.0473049098,3.63114454051
9031,Gent,Buisstraat,3,51.042825021,3.64964933934
9031,Gent,Baarleboslaan,22,51.0350377929,3.60611839117
9031,Gent,Domien Ingelsstraat,43,51.0512211179,3.6659932486
9031,Gent,Boonstede,22,51.0337576739,3.60381279734
9031,Gent,Oudewee,28,51.0452513126,3.64443064052
9031,Gent,Kruisstraat,65,51.0571162788,3.64743455772
9031,Gent,Gaverlandstraat,77,51.0302113996,3.60550210996
9031,Gent,Kerselaarstraat,24,51.0716420312,3.66603434095
9031,Gent,Groenewandeling,23,51.0555385301,3.6587467371
9031,Gent,Ernest Solvynsdreef,16,51.0371839528,3.63227324883
9031,Gent,Flonkedreef,6,51.0490573414,3.63822569584
9031,Gent,Treinstraat,11,51.0502181513,3.64876457532
9031,Gent,Halewijnstationstraat,19,51.0537213081,3.61803234646
9031,Gent,Gaverlandstraat,95,51.0285933039,3.60487956397
9031,Gent,Klaverdries,9F,51.052028802,3.6576995981
9031,Gent,Keuze,28,51.0371299322,3.63085117002
9031,Gent,Abdijmolenstraat,18,51.051519752,3.66199380675
9031,Gent,Baarleveer,15,51.0357574402,3.61987834069
9031,Gent,Noordhoutstraat,88,51.0344679563,3.59748504676
9031,Gent,Deinse Horsweg,6,51.0465576348,3.65309844963
9031,Gent,Ernest Solvynsdreef,34,51.0337165854,3.62904925914
9031,Gent,Steenhuisdreef,13,51.0521634762,3.66373522177
9031,Gent,Bollewerkstraat,43,51.0475196091,3.64318866694
9031,Gent,Mariakerksesteenweg,241,51.0643624002,3.6538563748
9031,Gent,Luchterenkerkweg,37,51.0548039793,3.65595502334
9031,Gent,Ernest Solvynsdreef,51,51.0318616254,3.62836401823
9031,Gent,Nevelseheerweg,39,51.0451949813,3.61520611798
9031,Gent,Oude Gentweg,6,51.0508069433,3.6653993212
9031,Gent,Mariakerksesteenweg,215,51.0626056605,3.65696996268
9031,Gent,Beekstraat,141,51.064238709,3.63781169152
9031,Gent,Avennesdreef,87,51.0687138469,3.63541853047
9031,Gent,Alfons Bynlaan,27,51.052039426,3.6609746279
9031,Gent,Elshout,29,51.0518423295,3.63626755413
9031,Gent,Antoon Catriestraat,89,51.0561124354,3.64431060921
9031,Gent,Oudenaardegoed,29,51.0443598216,3.65281716125
9031,Gent,Eikvarenweg,40,51.0453410185,3.63923894091
9031,Gent,Veerstraat,25,51.051712464,3.66718389995
9031,Gent,Dosweg,32,51.0433009067,3.64686725146
9031,Gent,Oude-Abdijstraat,42,51.0495539159,3.65988994045
9031,Gent,Sint-Aldegondestraat,25,51.0484571788,3.65394307301
9031,Gent,Renpaardlaan,4,51.0705874286,3.62658326757
9031,Gent,Poekstraat,5,51.0698935161,3.60975397529
9031,Gent,Antoon Catriestraat,72,51.0554099499,3.64710154118
9031,Gent,Adolf Lootensstraat,51,51.0540437213,3.60801213998
9031,Gent,Kroonprinsstraat,8,51.0514275827,3.6520702002
9031,Gent,Mariakerksesteenweg,233,51.0638605663,3.65502071433
9031,Gent,Mariakerksesteenweg,90,51.0567487348,3.6604608638
9031,Gent,Baarleveldestraat,88,51.045095259,3.60802097912
9031,Gent,Henri de Sagherstraat,8,51.0555521343,3.66408715758
9031,Gent,Struisvarenweg,22,51.0471822207,3.63681587394
9031,Gent,Heilighuisdreef,4,51.0433574938,3.65110021479
9031,Gent,Dosweg,14,51.0436940654,3.64819833178
9031,Gent,Joannes Schinckdreef,5,51.0657503298,3.62321556178
9031,Gent,Koninginnelaan,36,51.0546226558,3.66257256754
9031,Gent,Heiebreestraat,15,51.067722237,3.638476235
9031,Gent,Lage Varenweg,19,51.0447504338,3.62729645158
9031,Gent,Joannes Schinckdreef,42,51.0671816138,3.62074498965
9031,Gent,Pieter Hellebautstraat,10,51.0535534131,3.65591571846
9031,Gent,Sint-Gerolfstraat,61,51.0457145447,3.6296294555
9031,Gent,Emiel Poetoustraat,23,51.0723090131,3.66805558774
9031,Gent,Luchterenstraat,35,51.0604550327,3.62125198566
9031,Gent,Hazestropdreef,11,51.0337912199,3.6060206326
9031,Gent,Bosstraat,1,51.0679318711,3.64738808599
9031,Gent,Noordhoutstraat,122,51.0326290415,3.58993527615
9031,Gent,Varendrieskouter,113,51.04892063,3.64427464774
9031,Gent,Bollewerkstraat,88,51.0500963024,3.63758240524
9031,Gent,Baarleboslaan,50,51.0360788386,3.60580902552
9031,Gent,Antoon Catriestraat,54,51.0549163238,3.6499830347
9031,Gent,Streepbosstraat,12,51.0380759491,3.60153128874
9031,Gent,Oudewee,11,51.0458834046,3.64468725292
9031,Gent,Oranjeboomstraat,5,51.0705985881,3.66857970368
9031,Gent,Merendreesesteenweg,52,51.0668439797,3.6173093557
9031,Gent,Halewijnstraat,2,51.0485048826,3.62700000528
9031,Gent,Joannes Schinckdreef,60,51.0676198803,3.61888183779
9031,Gent,Halewijnkouter,24,51.0483270826,3.62781656538
9031,Gent,Hof van Eden,9,51.0512893074,3.63990947055
9031,Gent,Baarledorpstraat,5,51.0368652397,3.61954354366
9031,Gent,Beekstraat,131,51.0643817325,3.63850878272
9031,Gent,Varendrieskouter,131,51.0485902436,3.64164170851
9031,Gent,Pieter Hellebautstraat,8,51.0536241601,3.65582664054
9031,Gent,Krommehamlaan,29,51.031171764,3.67796306323
9031,Gent,Varendrieskouter,79,51.0483997636,3.64808488137
9031,Gent,Beekstraat,26,51.0730539425,3.66090110965
9031,Gent,Kroonprinsstraat,45,51.0489783243,3.64896860029
9031,Gent,Mahoniestraat,8,51.0710454758,3.66261267883
9031,Gent,Bassebeekstraat,13,51.0578932738,3.65634463268
9031,Gent,Noordhoutstraat,104,51.0321997604,3.59588418018
9031,Gent,Buisstraat,14,51.0428754982,3.64884689489
9031,Gent,Keiskantstraat,6,51.0471635334,3.64343604535
9031,Gent,Luchterenstraat,17,51.0629450282,3.62283282203
9031,Gent,Deinse Horsweg,61,51.0437042859,3.6470181789
9031,Gent,Akkerwindelaan,2,51.0564438675,3.64921374776
9031,Gent,Varendrieskouter,97,51.0489739727,3.64577426228
9031,Gent,Varendrieskouter,26,51.0490977313,3.64261045369
9031,Gent,Antoon Catriestraat,151,51.0591296176,3.63837827374
9031,Gent,Moortelputstraat,28,51.0351140659,3.62187607661
9031,Gent,Luchterenhof,12,51.0612907712,3.63768566318
9031,Gent,Rondehuisjesdreef,29,51.0515682916,3.65992663322
9031,Gent,Deinse Horsweg,43,51.0450286212,3.65104124794
9031,Gent,Buisstraat,32,51.0425184983,3.6474887534
9031,Gent,Raapstraat,33,51.0411736772,3.62788947907
9031,Gent,Baarledorpstraat,30A,51.0374202687,3.61816206031
9031,Gent,Fresiastraat,5,51.0518007256,3.65249834824
9031,Gent,Kroonprinsstraat,10,51.0512073449,3.65193736713
9031,Gent,Henri de Sagherstraat,10,51.0559039793,3.66353115248
9031,Gent,Congregatiestraat,5,51.0519941096,3.65294622211
9031,Gent,Antoon Catriestraat,36,51.0543136792,3.65116412975
9031,Gent,Boelenaar,15,51.0527338393,3.65574976642
9031,Gent,Gavergrachtstraat,93,51.0752291766,3.62949270734
9031,Gent,Mariakerksesteenweg,36,51.0534240005,3.66222465693
9031,Gent,Doornplasstraat,8,51.0540342172,3.63486646054
9031,Gent,Varendrieskouter,6,51.0494079336,3.64362947935
9031,Gent,Landegemstraat,3,51.041737061,3.59194657345
9031,Gent,Weegbreestraat,16,51.0340980337,3.62828035242
9031,Gent,Rondehuisjesdreef,30,51.0522920168,3.66016470289
9031,Gent,Beekstraat,6,51.0748644526,3.6649694372
9031,Gent,Groenewandeling,51,51.054935603,3.65758116146
9031,Gent,Abdijmolenstraat,33A,51.0506479706,3.66003283293
9031,Gent,Bollewerkstraat,104,51.0492745014,3.63542705848
9031,Gent,Luchterenkerkweg,8,51.0538254399,3.65824084208
9031,Gent,Steenhuisdreef,38,51.052443324,3.66536248571
9031,Gent,Esdoornstraat,10,51.0715536022,3.66486253474
9031,Gent,Driesdreef,15,51.0707015292,3.66060051735
9031,Gent,Veerstraat,43,51.0520160688,3.66805149038
9031,Gent,Brouwerijstraat,56,51.0371861166,3.62659860422
9031,Gent,De Kemmeterlaan,13,51.0498219896,3.65238042401
9031,Gent,Oudewee,46,51.0443906596,3.6451465356
9031,Gent,Kattegaver,5,51.0576710974,3.62714397155
9031,Gent,Beekstraat,148,51.064346964,3.63538262853
9031,Gent,Tuinstraat,19,51.0510289214,3.65852086216
9031,Gent,Luchterenkerkweg,260,51.0631630573,3.63814746159
9031,Gent,Krommehamlaan,30,51.0307343411,3.67757990058
9031,Gent,Bassebeekwegel,13,51.0549351967,3.659364349
9031,Gent,Varendrieskouter,44,51.0490511577,3.64167548477
9031,Gent,Luchterenkerkweg,55,51.0557456085,3.65273427636
9031,Gent,Baarleveldestraat,122,51.0482997928,3.60253483329
9031,Gent,Beekstraat,44,51.0705035473,3.65535762666
9031,Gent,Veerstraat,5,51.050598798,3.66525669038
9031,Gent,Pontstraat,17,51.0354403662,3.67672021507
9031,Gent,Kijfmeers,19,51.0326625427,3.67734602925
9031,Gent,Novicenstraat,22,51.0666756464,3.63852579809
9031,Gent,Zeger van Kortrijkstraat,34,51.0568429661,3.66272837272
9031,Gent,Noordhoutstraat,17,51.0402846536,3.61168004151
9031,Gent,Veerstraat,61,51.0522819723,3.66874750874
9031,Gent,Antoon Catriestraat,18,51.0526144327,3.6546013159
9031,Gent,Schuiterstraat,6,51.0485009089,3.64716133701
9031,Gent,Halewijnkouter,49,51.0471162647,3.62243784186
9031,Gent,Moerstraat,50,51.0401417413,3.59365983842
9031,Gent,Pachtgoeddreef,43,51.0597292325,3.66183840183
9031,Gent,Vinderhoutsedam,23,51.0766475446,3.66019022586
9031,Gent,Doornplasstraat,73,51.0590968573,3.62616553136
9031,Gent,Poekstraat,42,51.0746666202,3.62035328938
9031,Gent,Lage Varenweg,2,51.0451228674,3.63017540271
9031,Gent,Adriaan Walckiersdreef,16,51.0529229769,3.66439555682
9031,Gent,Oudewee,64,51.0460481572,3.64619275291
9031,Gent,Keuzekouter,54,51.0283751517,3.63920324145
9031,Gent,Abdijmolenstraat,72,51.0507222046,3.6593571228
9031,Gent,Schuiterstraat,44,51.046532264,3.64715144411
9031,Gent,Luchterenkerkweg,242,51.0623558922,3.63955450319
9031,Gent,Vliegpleinkouter,25,51.0696566436,3.66807216309
9031,Gent,Meulenaarshoek,17,51.0544711553,3.65816800504
9031,Gent,Vliegpleinkouter,61,51.0684525375,3.66524942279
9031,Gent,Kromveldestraat,1,51.0448118975,3.59802633527
9031,Gent,Halewijnstationstraat,30,51.0525023843,3.61750206259
9031,Gent,Schepenstraat,25,51.0375124129,3.61341996134
9031,Gent,Luchterenkerkweg,20,51.0540249582,3.65793501454
9031,Gent,Luchterenkerkweg,91,51.0575958566,3.64731634076
9031,Gent,Rondehuisjesdreef,9,51.0512782324,3.6603051158
9031,Gent,Doornplasstraat,91,51.0604257755,3.62468544571
9031,Gent,Noordhoutstraat,71,51.0371971823,3.60358469599
9031,Gent,Noordhoutstraat,35,51.0387709414,3.60925178117
9031,Gent,Pachtgoeddreef,25,51.059349656,3.66117098865
9031,Gent,Akkerwindelaan,13,51.0554402371,3.64836480671
9031,Gent,Kruisstraat,12,51.0615860939,3.65577976323
9031,Gent,Gaspeldoorndreef,12,51.0553313986,3.6494877192
9031,Gent,Meirebeekstraat,24,51.0687078496,3.61945993758
9031,Gent,Zeger van Kortrijkstraat,16,51.0556345432,3.66249041691
9031,Gent,Varendrieskouter,31A,51.0469032442,3.65071276857
9031,Gent,Schepenstraat,43,51.0379221845,3.61041488275
9031,Gent,Halewijnstationstraat,12,51.0538423398,3.6173462147
9031,Gent,Baarleboslaan,39,51.0350460556,3.60149093541
9031,Gent,Hof van Eden,28,51.0511071835,3.63932813117
9031,Gent,Kroosvarenweg,2,51.0476977262,3.63917414768
9031,Gent,Oudewee,82,51.0467585464,3.6467288368
9031,Gent,Wallemeers,6,51.064348442,3.64062681515
9031,Gent,Abdijmolenstraat,54,51.0509615381,3.66033514887
9031,Gent,Eikvarenweg,22,51.0465970217,3.63836859142
9031,Gent,Hoogland,2,51.0607172341,3.65981413177
9031,Gent,Mijlsteen,17,51.055109382,3.65453446526
9031,Gent,Baarleveldestraat,104,51.0460266085,3.6056909398
9031,Gent,Hoge Olm,6,51.0700665948,3.6656313771
9031,Gent,Luchterenkerkweg,73,51.0558687599,3.65140261094
9031,Gent,Oudenaardegoed,3,51.0457682256,3.6537121538
9031,Gent,Vinkendal,51,51.0630886373,3.63512272601
9031,Gent,Baarledorpstraat,60,51.0369457528,3.61612367205
9031,Gent,Vinkendal,15,51.0616306942,3.63758991528
9031,Gent,Kloosterstraat,6D,51.0388447491,3.61925196186
9031,Gent,Mariakerksesteenweg,89,51.0546711607,3.66111172457
9031,Gent,Varendriesstraat,26,51.0462839854,3.62883514087
9031,Gent,Klaverdries,25,51.0519494066,3.65893477391
9031,Gent,Avennesdreef,34,51.0670650576,3.63591572985
9031,Gent,Drongenstationstraat,72,51.0477510673,3.65470026693
9031,Gent,Moerstraat,32,51.0382635342,3.59655780753
9031,Gent,Lage Varenweg,12,51.0452749483,3.62954113221
9031,Gent,Gavergrachtstraat,3,51.0661747116,3.62391186628
9031,Gent,Vinkendal,33,51.0625203461,3.63603620526
9031,Gent,Hof van Eden,11,51.0512995465,3.63947189276
9031,Gent,Bollewerkstraat,71,51.0497215419,3.64127488218
9031,Gent,Dosweg,39,51.0422691304,3.64522920845
9031,Gent,Gaspeldoorndreef,9,51.0554915178,3.65070035556
9031,Gent,Antoon Catriestraat,186,51.0622878808,3.63441728962
9031,Gent,Zandloperstraat,225,51.0675270748,3.66810145876
9031,Gent,Hoogland,12,51.0603976384,3.66037843606
9031,Gent,Rabouwstraat,3,51.0488440833,3.63097355597
9031,Gent,Esdoornstraat,7,51.0713829571,3.66390927505
9031,Gent,Industriepark-Drongen,18,51.0432523284,3.59332617518
9031,Gent,Treinstraat,28,51.0500670828,3.64637592224
9031,Gent,Elshout,3,51.051756632,3.64052973764
9031,Gent,Fresiastraat,24,51.0515694821,3.65091051267
9031,Gent,Boonstede,40,51.0344527258,3.60206736786
9031,Gent,Raapstraat,51,51.041751324,3.62737257449
9031,Gent,Rozenlaan,8,51.0565675244,3.64814777728
9031,Gent,Baarleveldestraat,71,51.0451680987,3.60502171265
9031,Gent,Merendreesesteenweg,87,51.0683267517,3.60856607665
9031,Gent,Luchterenkerkweg,47,51.0555734114,3.65423755806
9031,Gent,Zandloperstraat,207,51.0677211064,3.66898696478
9031,Gent,Tuinstraat,9,51.0506738491,3.65873104592
9031,Gent,Antoon Catriestraat,168,51.0615935829,3.63630291422
9031,Gent,Drongenstationstraat,54,51.0483276734,3.65572983344
9031,Gent,Moerstraat,14,51.0367082096,3.59905059759
9031,Gent,Zandloperstraat,92,51.0683954784,3.66966842121
9031,Gent,Avennesdreef,16,51.0650087367,3.63624693062
9031,Gent,Moortelputstraat,46,51.0347276205,3.62407996482
9031,Gent,Flonkedreef,16,51.0494478738,3.63924743442
9031,Gent,Zandloperstraat,100,51.0686777775,3.66902246193
9031,Gent,Rozenlaan,20,51.0557703018,3.64724333066
9031,Gent,Baarleboslaan,3,51.0340538904,3.60692380916
9031,Gent,Gavergrachtstraat,154,51.0805427558,3.63590482552
9031,Gent,Oude-Abdijstraat,32,51.0496978961,3.66042356897
9031,Gent,Noordhoutstraat,53,51.0377502532,3.60750589109
9031,Gent,Meirebeekstraat,5,51.067507369,3.6232978717
9031,Gent,Joannes Schinckdreef,24,51.0665382153,3.62248568444
9031,Gent,Prinsesselaan,6,51.0491589778,3.64775674079
9031,Gent,Halewijnkouter,60,51.048107054,3.62332935197
9031,Gent,Sint-Gerolfstraat,68,51.0473097336,3.62950346305
9031,Gent,Varendrieskouter,80,51.0487358937,3.63808267608
9031,Gent,Merendreesesteenweg,16,51.0657739933,3.6218407465
9031,Gent,Steenovenstraat,2,51.0651598136,3.63787891775
9031,Gent,Kroonprinsstraat,27,51.0495133735,3.65019214792
9031,Gent,Keuzemeers,6,51.0282743778,3.6365212902
9031,Gent,Deinse Horsweg,25,51.0461503566,3.65356271832
9031,Gent,Boskeetstraat,37,51.06483126,3.62392724286
9031,Gent,Gaverlandstraat,42,51.0330087492,3.60551656735
9031,Gent,Gavergrachtstraat,101,51.0760765859,3.63027999774
9031,Gent,Sint-Gerolfstraat,33,51.0440103539,3.63492836474
9031,Gent,Eikvarenweg,3,51.0479825302,3.63917741322
9031,Gent,Rondehuisjesdreef,12,51.0517078532,3.66065260584
9031,Gent,Moortelputstraat,64,51.03614752,3.62999693318
9031,Gent,Varendrieskouter,62,51.0488525401,3.63948531464
9031,Gent,Bieldekensstraat,3,51.0476815352,3.65435164785
9031,Gent,Merendreesesteenweg,34,51.0663379752,3.61976949694
9031,Gent,Adolf Lootensstraat,33,51.0520039003,3.61282900902
9031,Gent,Alfons Bynlaan,7,51.0522821593,3.66169734212
9031,Gent,Rodeberg,5,51.0685941429,3.6666717446
9031,Gent,Boelenaar,33,51.0528973125,3.65482149582
9031,Gent,Groenewandeling,4,51.0562605663,3.65970500204
9031,Gent,Baarlewarande,23,51.033054928,3.60218803794
9031,Gent,Oude-Abdijstraat,14,51.0501496089,3.66142646771
9031,Gent,Wijkbosstraat,1,51.0429237216,3.61513727065
9031,Gent,Moerstraat,85,51.032176908,3.58180781743
9031,Gent,Treinstraat,1,51.050465871,3.65018951744
9031,Gent,Ter Rivieren,1,51.0351594433,3.62795548187
9031,Gent,Emiel Poetoustraat,4,51.0713535943,3.66745920759
9031,Gent,Krommehamlaan,12,51.0322846816,3.67613012958
9031,Gent,Joannes Schinckdreef,8,51.0662585571,3.62315382757
9031,Gent,Alfons Bynlaan,35,51.0519041142,3.66071638645
9031,Gent,Dosweg,17,51.043192524,3.64804747824
9031,Gent,Buisstraat,26,51.0425964357,3.64794428313
9031,Gent,Boelenaar,2C,51.0529354114,3.65658790427
9031,Gent,Groenewandeling,59,51.0547809483,3.65718742257
9031,Gent,Beekstraat,14,51.073952567,3.66247023754
9031,Gent,Baarledorpstraat,78,51.0362956098,3.61488172967
9031,Gent,Pachtgoeddreef,59,51.0586779981,3.66291524681
9031,Gent,Dosweg,35,51.042477684,3.64585924769
9031,Gent,Krommehamlaan,2,51.0332266129,3.67524727337
9031,Gent,Leegte,11,51.0633246306,3.65846178719
9031,Gent,Elshout,54,51.0533171255,3.63606478166
9031,Gent,Zandloperstraat,259,51.0675806724,3.66638191037
9031,Gent,Kroonprinsstraat,11,51.0500595569,3.65104646014
9031,Gent,Antoon Catriestraat,20,51.0526106672,3.6547365815
9031,Gent,Beekstraat,32,51.072900379,3.66025278106
9031,Gent,Halewijnkouter,25,51.0475364079,3.62596459118
9031,Gent,Halewijnstationstraat,100,51.0470165312,3.6139730601
9031,Gent,Drongenplein,4,51.0505427608,3.66473897218
9031,Gent,Rondehuisjesdreef,2,51.0513082366,3.66118505896
9031,Gent,Lammeken,6,51.0364689449,3.62062704289
9031,Gent,Gavergrachtstraat,142,51.078868141,3.63431476191
9031,Gent,Kruisstraat,64,51.0586265618,3.6484023828
9031,Gent,Baarlewarande,15,51.0327601886,3.60260672624
9031,Gent,Rondehuisjesdreef,17,51.0514789486,3.66010797297
9031,Gent,Novicenstraat,1,51.0662213237,3.63633624674
9031,Gent,Sint-Gerolfstraat,51,51.0452256982,3.63034633077
9031,Gent,Petrus Christusdreef,3,51.0356903759,3.61667292738
9031,Gent,Bollewerkstraat,51,51.0480994984,3.64241229507
9031,Gent,Rondehuisjesdreef,35,51.0516729853,3.65978670599
9031,Gent,Mariakerksesteenweg,102,51.0576233816,3.66008419108
9031,Gent,Moerstraat,97,51.0303090635,3.58054276023
9031,Gent,Alfons Bynlaan,2,51.0528462417,3.66144265666
9031,Gent,Boskeetstraat,19,51.0637345327,3.62633265752
9031,Gent,Vliegpleinkouter,59,51.0684951941,3.66543825157
9031,Gent,Ter Rivieren,19,51.0332533173,3.62537052215
9031,Gent,Koningsvarenweg,3,51.0478321784,3.64209528122
9031,Gent,Avennesdreef,57,51.0674008468,3.63489523419
9031,Gent,Koninginnelaan,56,51.0539772532,3.65876041801
9031,Gent,Heiebreestraat,87,51.0712295429,3.6304520406
9031,Gent,Deinse Horsweg,55,51.0439911887,3.64789344966
9031,Gent,Paradijskouter,88,51.0509176792,3.63966110422
9031,Gent,Lage Varenweg,20,51.0452598062,3.62867505939
9031,Gent,Slingerstraat,7,51.0419246823,3.6459367945
9031,Gent,Bollewerkstraat,129,51.0491018248,3.63644103981
9031,Gent,Mahoniestraat,11,51.0714878794,3.66191399903
9031,Gent,Groenewandeling,77,51.0539163425,3.65532598855
9031,Gent,Luchterenkouter,7,51.0623958567,3.64136802159
9031,Gent,Hof van Eden,4,51.0517579401,3.63983942515
9031,Gent,Koningsvarenweg,27,51.0475941956,3.64131718661
9031,Gent,Baarledorpstraat,8,51.0375693168,3.61985850773
9031,Gent,Buisstraat,2,51.0433569082,3.64964687964
9031,Gent,Pieter Hellebautstraat,11,51.0537211792,3.65655955566
9031,Gent,Waterviolier,1,51.0343818873,3.62553282668
9031,Gent,Baarlewarande,43,51.0341929693,3.60043064193
9031,Gent,Bernard Hamelinckstraat,4,51.0670491587,3.63730800037
9031,Gent,Adriaan Walckiersdreef,18,51.0531046114,3.66458451503
9031,Gent,Eikvarenweg,6,51.0479350958,3.63848520645
9031,Gent,Ernest Solvynsdreef,15,51.0343012426,3.63121278715
9031,Gent,Alfons Bynlaan,17,51.0520076372,3.66142964679
9031,Gent,Luchterenstraat,14,51.0635282877,3.62218399342
9031,Gent,Abdijmolenstraat,28,51.0514464233,3.66168300096
9031,Gent,Antoon Catriestraat,91,51.0561993679,3.64409203032
9031,Gent,Zombeekstraat,25,51.0293005802,3.60058968489
9031,Gent,Varendrieskouter,58,51.0488804141,3.63995165498
9031,Gent,Prinsesselaan,22,51.0496887053,3.64709283992
9031,Gent,Domien Ingelsstraat,23,51.0515034419,3.66479741393
9031,Gent,Luchterenkerkweg,12,51.0538803914,3.65812590578
9031,Gent,Boonstede,27,51.0342707797,3.60143205973
9031,Gent,Halewijnkouter,53,51.0472266573,3.62185623549
9031,Gent,Raapstraat,69,51.0433266206,3.62692812654
9031,Gent,Joannes Schinckdreef,43,51.0668739508,3.61946288893
9031,Gent,Bassebeekwegel,10,51.0548516028,3.66018788506
9031,Gent,Mariakerksesteenweg,255,51.0652093132,3.65263123772
9031,Gent,Kerselaarstraat,16,51.0712173801,3.66627628046
9031,Gent,Noordhoutstraat,121,51.0298794333,3.59449346038
9031,Gent,Mariakerksesteenweg,273,51.0665026007,3.65035375386
9031,Gent,Emiel Poetoustraat,33,51.0713947352,3.66860432546
9031,Gent,Keuze,30,51.037039127,3.63073440309
9031,Gent,Zandloperstraat,187,51.0680963722,3.67008777547
9031,Gent,Varendrieskouter,219,51.0479827942,3.6318911315
9031,Gent,Jozef Boddaertstraat,4,51.0554274021,3.6534183603
9031,Gent,Baarledorpstraat,25,51.0367420933,3.61806142859
9031,Gent,Luchterenkerkweg,30,51.0542028993,3.65770339402
9031,Gent,Baarleveer,7,51.0364652243,3.6193337941
9031,Gent,Mariakerksesteenweg,137,51.0560075581,3.6600858161
9031,Gent,Landegemstraat,6,51.0428216631,3.59195012172
9031,Gent,Beekstraatkouter,78,51.0637193774,3.63846190476
9031,Gent,Steenovenstraat,9,51.0657179396,3.63788989465
9031,Gent,Adriaan Walckiersdreef,11,51.0534214408,3.66477272658
9031,Gent,Jean Fobelaan,5,51.0721928719,3.62853514683
9031,Gent,Karel De Bondtlaan,64,51.0314729971,3.63387727902
9031,Gent,Keuzemeers,22,51.0270337771,3.6383374785
9031,Gent,Varendrieskouter,76,51.0487777226,3.63839192236
9031,Gent,Antoon Catriestraat,73,51.0552709601,3.64604235091
9031,Gent,Sint-Aldegondestraat,6,51.049478516,3.65459007878
9031,Gent,Brouwersgracht,5,51.0568912274,3.6480442344
9031,Gent,Keuzekouter,19,51.032956791,3.63420842762
9031,Gent,Gaverlandstraat,25,51.0332320407,3.60955184053
9031,Gent,Oude-Abdijstraat,52,51.0495813256,3.65909658433
9031,Gent,Deinse Horsweg,20,51.0459643406,3.65190065092
9031,Gent,Pontstraat,6,51.0368246211,3.67590576586
9031,Gent,Keuze,12,51.0374890369,3.63064647451
9031,Gent,Akkerwindelaan,1,51.0561964826,3.64964146135
9031,Gent,Oudewee,21,51.0454833222,3.64519083594
9031,Gent,De Kemmeterlaan,10,51.0499940973,3.65172332385
9031,Gent,Mijlsteen,6,51.05445423,3.65439954237
9031,Gent,Varendrieskouter,175,51.0482590431,3.63681316808
9031,Gent,Drongenstationstraat,38,51.0483547819,3.65669019571
9031,Gent,Baarleveldestraat,76,51.0426864766,3.61283247042
9031,Gent,Halewijnkouter,96,51.0479849689,3.61869300748
9031,Gent,Heiebreestraat,105,51.0728095609,3.62835231826
9031,Gent,Karel De Bondtlaan,46,51.0306585826,3.6313345512
9031,Gent,Steenhuisdreef,18,51.0519774568,3.66445227523
9031,Gent,Schepenstraat,7,51.0391305891,3.61140025974
9031,Gent,Beekstraat,166,51.06400086,3.63295555667
9031,Gent,Sint-Gerolfstraat,7,51.042265238,3.63880857349
9031,Gent,Fresiastraat,19,51.0512595472,3.65138619539
9031,Gent,Schuiterstraat,23,51.0480277464,3.64812297687
9031,Gent,Antoon Catriestraat,190,51.0624024917,3.63402704319
9031,Gent,Steenhuisdreef,36,51.0521391547,3.66562377442
9031,Gent,Congregatiestraat,15,51.0533645999,3.65184673395
9031,Gent,Kroosvarenweg,7,51.0481938048,3.64018438273
9031,Gent,Karel De Bondtlaan,11,51.0319814024,3.63064882522
9031,Gent,Baarleboslaan,8,51.0344489565,3.60718484797
9031,Gent,Oranjeboomstraat,41,51.0703362362,3.66080051267
9031,Gent,Zandloperstraat,106,51.0682888932,3.66893025701
9031,Gent,Kruisstraat,82,51.0572323397,3.64670146071
9031,Gent,Kromveldestraat,4,51.044797945,3.59878007351
9031,Gent,Klaphof,22,51.0579571784,3.64352693376
9031,Gent,Beekstraat,121,51.0651392382,3.64003074198
9031,Gent,Nevelseheerweg,9,51.0467291979,3.6196340722
9031,Gent,Bollewerkstraat,23,51.0471158814,3.6459670789
9031,Gent,Vierhekkensstraat,9E,51.0508807974,3.66289567274
9031,Gent,Raapstraat,87,51.0448527517,3.62627095306
9031,Gent,Steenhuisdreef,3,51.0519275769,3.66322105267
9031,Gent,Baarleveldestraat,58,51.0420563146,3.61552852484
9031,Gent,Bollewerkstraat,76,51.0505508279,3.63841276781
9031,Gent,Halewijnstraat,27,51.0500318877,3.62204012349
9031,Gent,Beekstraatkouter,96,51.0636349406,3.63677542762
9031,Gent,Luchterenkerkweg,236,51.0618897605,3.63991254528
9031,Gent,Bollewerkstraat,94,51.0500267895,3.63710016079
9031,Gent,Oude-Abdijstraat,7,51.0488678129,3.65943568835
9031,Gent,Elshout,48,51.0540723636,3.63817215657
9031,Gent,Meirebeekstraat,30,51.0685781482,3.61739908914
9031,Gent,Tuinstraat,4,51.0510912253,3.65943311318
9031,Gent,Paradijskouter,1,51.0553678809,3.64567828178
9031,Gent,Abdijmolenstraat,46,51.0510715045,3.66093833678
9031,Gent,Halewijnstationstraat,99,51.0458229586,3.61420448611
9031,Gent,Driesdreef,34,51.070523201,3.66004990438
9031,Gent,Schuiterstraat,7,51.0483151397,3.64779996147
9031,Gent,Antoon Catriestraat,172,51.061890118,3.63593736363
9031,Gent,Wallemeers,5,51.0640764764,3.63996567794
9031,Gent,Adolf Lootensstraat,25,51.0522855745,3.61376065035
9031,Gent,Mariakerksesteenweg,94B,51.0567130085,3.66046939172
9031,Gent,Baarledorpstraat,61,51.036225813,3.61622619896
9031,Gent,Bosstraat,4,51.0687196163,3.64722828321
9031,Gent,Boelenaar,25,51.0528006216,3.65530247556
9031,Gent,Oudewee,56,51.0457254965,3.64673049725
9031,Gent,Antoon Catriestraat,37,51.054250313,3.65004374543
9031,Gent,Oudewee,74,51.0464471822,3.64621982588
9031,Gent,Veerstraat,51,51.0519864289,3.66834316892
9031,Gent,Baarledorpstraat,43,51.0365145725,3.6172435488
9031,Gent,Sint-Gerolfstraat,58,51.046438533,3.63044429415
9031,Gent,Verschansingsstraat,17,51.0724964818,3.66874409144
9031,Gent,Wilgetronkstraat,24,51.0703201962,3.66256369117
9031,Gent,Brouwerijstraat,46,51.0375462612,3.62544741772
9031,Gent,Karel De Bondtlaan,28,51.0322622323,3.62937231103
9031,Gent,Luchterenstraat,39,51.0601151646,3.62111333557
9031,Gent,Joannes Schinckdreef,25,51.0664713511,3.62125324642
9031,Gent,Varendrieskouter,7,51.0467946439,3.65270679554
9031,Gent,Moortelputstraat,19,51.0356095787,3.62241765688
9031,Gent,Avennesdreef,39,51.0659693026,3.63572044845
9031,Gent,Keuzekouter,55,51.0290733829,3.63829229094
9031,Gent,Doornplasstraat,74,51.0607470775,3.62527333717
9031,Gent,Gaverlandstraat,61,51.0317837527,3.60589135626
9031,Gent,Groenewandeling,52,51.0553541662,3.65682455699
9031,Gent,Holisstraat,14,51.0549160571,3.64364034323
9031,Gent,Baarlewarande,8,51.032899948,3.60341891859
9031,Gent,Moortelputstraat,5,51.036567107,3.6221152567
9031,Gent,Driesdreef,16,51.0704732922,3.65910484038
9031,Gent,Baarleveldestraat,112,51.0467209965,3.60419921884
9031,Gent,Zeger van Kortrijkstraat,28,51.0563543245,3.6629867773
9031,Gent,Antoon Catriestraat,154,51.0604131848,3.63743175292
9031,Gent,Mariakerksesteenweg,183,51.0588946855,3.65926729193
9031,Gent,Beekstraatkouter,25,51.0655822611,3.64664190812
9031,Gent,Boskeetstraat,30,51.0644317234,3.62674316842
9031,Gent,Meirebeekstraat,12,51.0681865396,3.62149765753
9031,Gent,Kruisstraat,11,51.0613066996,3.6559423593
9031,Gent,Zandloperstraat,88,51.0688152341,3.66816094087
9031,Gent,Oudewee,92,51.0467303548,3.64583968938
9031,Gent,Schepenstraat,15,51.0384117677,3.61229232387
9031,Gent,Hazestropdreef,18,51.0342295286,3.60472709248
9031,Gent,Brouwerijstraat,64,51.0365139379,3.62819327148
9031,Gent,Keuzekouter,20,51.0307150637,3.63421804629
9031,Gent,Oudenaardegoed,18,51.0442339525,3.65208926198
9031,Gent,Halewijnstationstraat,11,51.0543906089,3.61861781583
9031,Gent,Abdijmolenstraat,82,51.0507559104,3.65820681845
9031,Gent,Streepbosstraat,17,51.0375434147,3.60005518256
9031,Gent,Schepenstraat,51,51.0386270318,3.60993751389
9031,Gent,Hoogland,3,51.0607644748,3.65997147226
9031,Gent,Halewijnstationstraat,107,51.044762567,3.61346064307
9031,Gent,Mariakerksesteenweg,119,51.0555947346,3.66051425749
9031,Gent,Beekstraat,85,51.0657248579,3.64506212174
9031,Gent,Vlaamse-Hefboomweg,4,51.0545325881,3.65193568814
9031,Gent,Henri de Sagherstraat,13,51.0552599397,3.66367421034
9031,Gent,Oudenaardegoed,2,51.0457326508,3.65270876641
9031,Gent,Poekstraat,25,51.0722891393,3.61323462058
9031,Gent,Koningsvarenweg,10,51.047821276,3.64067776107
9031,Gent,Luchterenkerkweg,83,51.056723333,3.6492262858
9031,Gent,Noordhoutstraat,50,51.0379704425,3.6035826192
9031,Gent,Flonkedreef,24,51.0494394137,3.63998716906
9031,Gent,Verschansingsstraat,1,51.0710596451,3.66941262793
9031,Gent,Mariakerksesteenweg,147,51.0564153481,3.65992688306
9031,Gent,Moerstraat,26,51.0377928141,3.59732181301
9031,Gent,Meulenaarshoek,18,51.0544106791,3.65803741751
9031,Gent,Deinsesteenweg,96,51.0386194983,3.63121311235
9031,Gent,Groenewandeling,70,51.0544541097,3.65544887523
9031,Gent,Ter Rivieren,12,51.0336751159,3.62550098084
9031,Gent,Abdijmolenstraat,64,51.0509005776,3.65966005495
9031,Gent,Varendrieskouter,41,51.0470796858,3.6517287124
9031,Gent,Jozef Boddaertstraat,21,51.05531069,3.65165206474
9031,Gent,Rodeberg,6,51.0683902532,3.66608085558
9031,Gent,Boonstede,10,51.0334171622,3.60465964475
9031,Gent,Hof van Eden,21,51.0511211703,3.63875572022
9031,Gent,Groenewandeling,7,51.0557675171,3.65966282888
9031,Gent,Emiel Poetoustraat,15,51.0720321771,3.66710845851
9031,Gent,Mariakerksesteenweg,13,51.0519559798,3.66203457591
9031,Gent,Drongenstationstraat,13,51.0479031433,3.65850635688
9031,Gent,Abdijmolenstraat,11,51.0511849767,3.66202181939
9031,Gent,Keuze,19,51.0369848761,3.6314742368
9031,Gent,Schepenstraat,33,51.0370215315,3.61237365288
9031,Gent,Eikvarenweg,58,51.0460482394,3.64008612496
9031,Gent,Varendrieskouter,115A,51.0488583165,3.64399394989
9031,Gent,Heiebreestraat,9,51.0672060112,3.63884438332
9031,Gent,Vierhekkensstraat,14,51.0511804549,3.66312804965
9031,Gent,Prinsesselaan,5,51.0493898004,3.64659230218
9031,Gent,Halewijnkouter,61,51.047023303,3.62137175735
9031,Gent,Klaverdries,15,51.0517208874,3.65836589495
9031,Gent,Zandloperstraat,118A,51.0679584049,3.66759109043
9031,Gent,Deinse Horsweg,37,51.0453089711,3.65177520627
9031,Gent,Vliegpleinkouter,24,51.0698529786,3.66760466896
9031,Gent,Droogveldeweg,5,51.0581189632,3.63101602762
9031,Gent,Luchterenkerkweg,19,51.0540570871,3.6569873276
9031,Gent,Luchterenkouter,15,51.0629409376,3.63992115076
9031,Gent,Kerselaarstraat,9,51.0702875891,3.66619591861
9031,Gent,Keuzemeers,5,51.0284115638,3.63752142499
9031,Gent,Halewijnstationstraat,28,51.0526136622,3.61742982094
9031,Gent,Luchterenkerkweg,5,51.0536405127,3.65764161534
9031,Gent,Noordhoutstraat,32,51.0385202379,3.60735864054
9031,Gent,Baarleboslaan,96,51.0352718829,3.6021005861
9031,Gent,Oranjeboomstraat,31,51.0705003877,3.66251132135
9031,Gent,Moerstraat,44,51.0392071597,3.59502258491
9031,Gent,Meulenaarshoek,2,51.0542047612,3.65844489637
9031,Gent,Rondehuisjesdreef,53,51.052781662,3.65884871081
9031,Gent,Rabouwstraat,2,51.0486935695,3.6317159462
9031,Gent,Zestiengemeten,1,51.0508653669,3.65583325644
9031,Gent,Bassebeekwegel,27,51.0556273191,3.65896647362
9031,Gent,Luchterenkerkweg,254,51.0628314059,3.63898403549
9031,Gent,Hoogland,11,51.0604455255,3.66053876188
9031,Gent,Luchterenkerkweg,118,51.0565947188,3.65228639644
9031,Gent,Kruisstraat,28,51.0610417318,3.65421047973
9031,Gent,Steenhuisdreef,54,51.0523494572,3.66617371239
9031,Gent,Domien Ingelsstraat,7,51.0509904559,3.66429169225
9031,Gent,Jean-Baptiste d'Hanedreef,6,51.0538182567,3.66292742992
9031,Gent,Doornplasstraat,109,51.0622287331,3.62422341548
9031,Gent,Merendreesesteenweg,103,51.0692795221,3.60614108929
9031,Gent,Fresiastraat,12,51.051882453,3.65161326695
9031,Gent,Steenhuisdreef,48,51.0522790559,3.66599021353
9031,Gent,Halewijnstationstraat,3,51.0547512214,3.61887976057
9031,Gent,Noordhoutstraat,85,51.036015252,3.60148347713
9031,Gent,Baarleboslaan,25,51.0349866606,3.60423399475
9031,Gent,Halewijnstraat,10,51.048849696,3.62665398386
9031,Gent,Avennesdreef,5,51.0642900881,3.6334233618
9031,Gent,Deinse Horsweg,3,51.0466954765,3.6560574285
9031,Gent,Vinderhoutsedam,17,51.0759633727,3.66089436681
9031,Gent,Baarlewarande,33,51.0334229039,3.60166863369
9031,Gent,Antoon Catriestraat,134,51.0590964659,3.64053272609
9031,Gent,Tuinstraat,20,51.0514521904,3.65876802507
9031,Gent,Zeger van Kortrijkstraat,46,51.0577604925,3.66274093077
9031,Gent,Mariakerksesteenweg,84,51.0562881502,3.66098973284
9031,Gent,Amand Casier de ter Bekenlaan,49,51.0757766245,3.66556246549
9031,Gent,Antoon Catriestraat,19,51.0508336929,3.65599161797
9031,Gent,Baarleboslaan,78,51.0359504251,3.60401281957
9031,Gent,Kruisstraat,3,51.0612287861,3.65674995073
9031,Gent,Adolf Petitstraat,17,51.0507489791,3.66174957712
9031,Gent,Bollewerkstraat,7,51.0476729087,3.64692823137
9031,Gent,Kroonprinsstraat,28,51.0501173509,3.64926043571
9031,Gent,Mariakerksesteenweg,31,51.0524446636,3.66200837694
9031,Gent,Steenhuisdreef,72,51.0529480219,3.66680170033
9031,Gent,Schuiterstraat,41,51.0467491564,3.64863292681
9031,Gent,Beekstraat,138,51.064548072,3.63626768909
9031,Gent,Drongenstationstraat,31,51.0480754371,3.65726345872
9031,Gent,Baarleveldestraat,41,51.0435185366,3.60880534474
9031,Gent,Struisvarenweg,7,51.047285805,3.63787797439
9031,Gent,Deinsesteenweg,104,51.039040548,3.63016262887
9031,Gent,Varendrieskouter,129,51.0486341235,3.64189145552
9031,Gent,Gaverlandstraat,43,51.0322514531,3.60784869607
9031,Gent,Sint-Gerolfstraat,76,51.0476998178,3.6291648831
9031,Gent,Oude-Abdijstraat,24,51.0501936139,3.66059562861
9031,Gent,Antoon Catriestraat,189,51.0618012558,3.63348883041
9031,Gent,Antoon Catriestraat,116,51.0578646317,3.64278891631
9031,Gent,Schuiterstraat,15,51.0481688083,3.6479348419
9031,Gent,Krommehamlaan,27,51.0313456984,3.67783861117
9031,Gent,Varendrieskouter,137,51.0483500782,3.64077265105
9031,Gent,Driesdreef,7,51.071419391,3.66022239751
9031,Gent,Oude-Abdijstraat,34,51.0497961335,3.66016651574
9031,Gent,Vliegpleinkouter,67,51.0682117683,3.66476124935
9031,Gent,Varendrieskouter,33,51.0469978789,3.65093036347
9031,Gent,Holisstraat,5,51.0547209357,3.64420219326
9031,Gent,Dosweg,1,51.0436803536,3.64942702074
9031,Gent,Rozenlaan,13,51.0558894439,3.6478660932
9031,Gent,Kroonprinsstraat,21,51.0496613139,3.65055697168
9031,Gent,Noordhoutstraat,59,51.037423823,3.60683451307
9031,Gent,Meirebeekstraat,29,51.0678238089,3.61992264369
9031,Gent,Heiebreestraat,97,51.0721357189,3.62929784393
9031,Gent,Groenewandeling,69,51.0542234417,3.65596899213
9031,Gent,Beekstraat,24,51.0731886282,3.66110026261
9031,Gent,Varendriesstraat,5,51.0476645645,3.63121460363
9031,Gent,Gavergrachtstraat,15,51.067109069,3.62405493912
9031,Gent,Buisstraat,16,51.0428048169,3.64871037684
9031,Gent,Kruisstraat,90,51.0568124288,3.64603810763
9031,Gent,Domien Ingelsstraat,41,51.051381822,3.66555170855
9031,Gent,Baarlewarande,1,51.0319232187,3.60470396299
9031,Gent,Moortelputstraat,22,51.0346971637,3.62095900572
9031,Gent,Schuiterstraat,33,51.0474540365,3.64882801933
9031,Gent,Booiebos,3,51.0417936495,3.60406616609
9031,Gent,Halewijnkouter,35,51.0474375475,3.62491313042
9031,Gent,Blauwpoortstraat,2,51.0252212993,3.59410401514
9031,Gent,Deinse Horsweg,45,51.0448055004,3.65052388722
9031,Gent,Boskeetstraat,29,51.064275708,3.62497978539
9031,Gent,Rondehuisjesdreef,27,51.051599055,3.66007948583
9031,Gent,Noordhoutstraat,95,51.0339487136,3.60016690255
9031,Gent,Oude-Abdijstraat,16,51.050109255,3.66130799187
9031,Gent,Steenhuisdreef,11,51.0521181181,3.66363635356
9031,Gent,Baarlewarande,25,51.033131708,3.60207900176
9031,Gent,Moerstraat,87,51.0317735517,3.58209102012
9031,Gent,Halewijnstationstraat,54,51.0505977196,3.61671397446
9031,Gent,Oude Gentweg,4,51.0508534299,3.66534100512
9031,Gent,Alfons Bynlaan,25,51.0520675473,3.66103196528
9031,Gent,Antoon Catriestraat,30,51.0540052839,3.65186359998
9031,Gent,Bollewerkstraat,15,51.047455816,3.64657605177
9031,Gent,Buisstraat,34,51.0424912389,3.64733830861
9031,Gent,Bollewerkstraat,41,51.0474911533,3.64335596052
9031,Gent,Flonkedreef,39,51.049761533,3.64034112302
9031,Gent,Paradijskouter,78,51.051277358,3.64031783743
9031,Gent,Koningsvarenweg,37,51.0469365168,3.64138757915
9031,Gent,Avennesdreef,32,51.0668949613,3.6359851607
9031,Gent,Mahoniestraat,21,51.0714141568,3.66324875922
9031,Gent,Lage Varenweg,10,51.0452547211,3.6296843393
9031,Gent,Veerstraat,23,51.0514455311,3.66740396827
9031,Gent,Bollewerkstraat,119,51.0493803077,3.63709129002
9031,Gent,Ter Rivieren,29,51.0345985154,3.62440465326
9031,Gent,Veerstraat,76,51.0520492702,3.66951045189
9031,Gent,Domien Ingelsstraat,15,51.0511638301,3.66469298512
9031,Gent,Raapstraat,2,51.0391872876,3.63202089726
9031,Gent,Esdoornstraat,1,51.0708530599,3.66422886476
9031,Gent,Kijfmeers,14,51.0332698553,3.67760480709
9031,Gent,Esdoornstraat,16,51.0716766521,3.66421276321
9031,Gent,Avennesdreef,67,51.0682712296,3.63456871214
9031,Gent,Klaverdries,41,51.0523902517,3.65841350671
9031,Gent,Wallemeers,14,51.0646506325,3.64041796781
9031,Gent,Henri de Sagherstraat,6,51.0552561404,3.6644524708
9031,Gent,Mariakerksesteenweg,235,51.0640141449,3.65477499675
9031,Gent,Dosweg,25,51.0430085925,3.64742873357
9031,Gent,Adriaan Walckiersdreef,4,51.0524404693,3.66327451354
9031,Gent,Brouwerijstraat,18,51.0369886577,3.62375474145
9031,Gent,Avennesdreef,49,51.0668781336,3.63508575629
9031,Gent,Hindestraat,12,51.0487455741,3.65064673809
9031,Gent,Koninginnelaan,46,51.0543574584,3.65941032487
9031,Gent,Brouwerijstraat,36,51.0372643064,3.62498409047
9031,Gent,Koninginnelaan,38,51.0546778115,3.66183091146
9031,Gent,Zandloperstraat,249,51.0675873357,3.66704836519
9031,Gent,Baarleboslaan,106,51.0359837244,3.60216436144
9031,Gent,Baarledorpstraat,88,51.0362289761,3.6140916501
9031,Gent,Domien Ingelsstraat,37A,51.0512072583,3.66490540702
9031,Gent,Industriepark-Drongen,6,51.0433434112,3.60074444562
9031,Gent,Avennesdreef,14,51.0649420222,3.63596978208
9031,Gent,Halewijnkouter,17,51.0478570678,3.62759425345
9031,Gent,Luchterenstraat,24,51.0625652785,3.62115139713
9031,Gent,Pachtgoeddreef,49,51.0592579033,3.66227031185
9031,Gent,Mariakerksesteenweg,112,51.0585969636,3.65995577413
9031,Gent,Halewijnkouter,43,51.0472525515,3.62313516757
9031,Gent,Noordhoutstraat,128,51.0300584709,3.59234316387
9031,Gent,Merendreesesteenweg,50,51.0667507803,3.61763713413
9031,Gent,Abdijmolenstraat,38,51.0513547334,3.66135350484
9031,Gent,Hof van Eden,38,51.0516799834,3.63860139456
9031,Gent,Booiebos,16,51.0411223347,3.59630635669
9031,Gent,Varendrieskouter,86,51.0486863056,3.63752255247
9031,Gent,Mariakerksesteenweg,283,51.0671867061,3.64888232625
9031,Gent,Lage Varenweg,4,51.0452134474,3.62994053427
9031,Gent,Oudewee,31,51.045217381,3.64572727763
9031,Gent,Noordhoutstraat,111,51.0338339393,3.59712965135
9031,Gent,Antoon Catriestraat,101,51.0567497676,3.64325564679
9031,Gent,Heiebreestraat,26,51.0683193855,3.63883730095
9031,Gent,Varendrieskouter,68,51.0488573225,3.6390087684
9031,Gent,Adolf Petitstraat,8,51.0506494811,3.6623068633
9031,Gent,Bieldekensstraat,9,51.0479936409,3.65334262445
9031,Gent,Bassebeekstraat,11,51.0580155204,3.65731116378
9031,Gent,Gaverlandstraat,35,51.0329745271,3.60800974468
9031,Gent,Kerselaarstraat,26,51.071786433,3.66604002141
9031,Gent,Boskeetstraat,40,51.0646147819,3.62557800215
9031,Gent,Flonkedreef,8,51.0491393537,3.63852062702
9031,Gent,Zandloperstraat,195,51.0679657811,3.66956069899
9031,Gent,Vinkendal,7,51.0618516715,3.63818774839
9031,Gent,Keuze,22,51.0372936482,3.63065311677
9031,Gent,De Kemmeterlaan,20,51.0492282691,3.65074444573
9031,Gent,Gaspeldoorndreef,18,51.0550874405,3.65046321925
9031,Gent,Ernest Solvynsdreef,44,51.0345932659,3.62699424158
9031,Gent,Brouwersgracht,19,51.0563661918,3.64718223195
9031,Gent,Akkerwindelaan,15,51.0554121774,3.6482596896
9031,Gent,Luchterenhof,14,51.0614325309,3.63825106213
9031,Gent,Luchterenkerkweg,22,51.0540601938,3.65788983696
9031,Gent,Elshout,25A,51.0519499725,3.63749057455
9031,Gent,Antoon Catriestraat,83,51.0558052669,3.64510084876
9031,Gent,Gaverlandstraat,61A,51.0314941432,3.60599344017
9031,Gent,Avennesdreef,85,51.0687136923,3.63488778512
9031,Gent,Koningsvarenweg,45,51.0463143755,3.64079273266
9031,Gent,Zwanenberg,1,51.0345680833,3.6225204999
9031,Gent,Jean Fobelaan,19,51.0706232463,3.629940533
9031,Gent,Mariakerksesteenweg,247,51.0648444743,3.6532743732
9031,Gent,Luchterenkerkweg,101,51.0581173546,3.64639540184
9031,Gent,Heiebreestraat,2,51.0666076057,3.64171405362
9031,Gent,Baarledorpstraat,17,51.0369320118,3.61853701891
9031,Gent,Adolf Petitstraat,10,51.0506809203,3.6623179413
9031,Gent,Karel De Bondtlaan,21,51.0315284865,3.63173614264
9031,Gent,Fresiastraat,29,51.0509796892,3.65074797899
9031,Gent,Antoon Catriestraat,65,51.0549469714,3.64633375476
9031,Gent,Bollewerkstraat,68,51.0498708189,3.64198322235
9031,Gent,Varendrieskouter,147,51.0484517098,3.63982070357
9031,Gent,Keuzemeers,20A,51.0275751893,3.63856595676
9031,Gent,Gijzelstraat,14,51.0669316889,3.6294532109
9031,Gent,Beekstraat,156,51.0640417908,3.63418606863
9031,Gent,Antoon Catriestraat,208,51.0630656876,3.63249291963
9031,Gent,Struisvarenweg,24,51.0470093834,3.63696531787
9031,Gent,Prinsesselaan,14,51.0494197623,3.64741915045
9031,Gent,Merendreesesteenweg,8,51.0655116104,3.62278081139
9031,Gent,Bollewerkstraat,33,51.0471503508,3.64464043337
9031,Gent,Rabouwstraat,9,51.0496849699,3.63086162204
9031,Gent,Wilgetronkstraat,8,51.0691293305,3.66255468483
9031,Gent,Zombeekstraat,17,51.0289205308,3.60180833225
9031,Gent,Meulenaarshoek,9,51.0548313258,3.6588939549
9031,Gent,Varendriesstraat,42,51.0461548751,3.62811573884
9031,Gent,Kerselaarstraat,2,51.0697481413,3.66679983006
9031,Gent,Oudewee,110,51.0468941298,3.64434391976
9031,Gent,Baarleveldestraat,86,51.0445267896,3.60801053107
9031,Gent,Beekstraatkouter,68,51.0638983545,3.63927526805
9031,Gent,Steenhuisdreef,28,51.0521556912,3.66479445816
9031,Gent,Gaspeldoorndreef,3,51.0558102613,3.65062343881
9031,Gent,Noordhoutstraat,5,51.0401425346,3.61389543824
9031,Gent,Antoon Catriestraat,180,51.0621014521,3.63477998618
9031,Gent,Mariakerksesteenweg,265,51.0659674415,3.65129485307
9031,Gent,Varendrieskouter,15,51.0465206482,3.65217421372
9031,Gent,Vliegpleinkouter,39,51.0694045098,3.66766631406
9031,Gent,Drongenstationstraat,6,51.0488123024,3.6577862109
9031,Gent,Bollewerkstraat,86,51.0504403697,3.63742999531
9031,Gent,Varendrieskouter,165,51.0483148071,3.63775981033
9031,Gent,Antoon Catriestraat,162,51.0610697438,3.63670353912
9031,Gent,Antoon Catriestraat,47,51.0544744307,3.64902891415
9031,Gent,Baarleveldestraat,33,51.0430654369,3.60944211517
9031,Gent,Elshout,9,51.0523297515,3.63996987099
9031,Gent,Mariakerksesteenweg,6,51.0518522703,3.66292467694
9031,Gent,Gaverlandstraat,17,51.0337609354,3.61052228672
9031,Gent,Oudewee,13,51.0457901874,3.64477553949
9031,Gent,Beekstraatkouter,86,51.0636725488,3.63772280698
9031,Gent,Antoon Catriestraat,12,51.0523708677,3.65582717364
9031,Gent,Varendrieskouter,37A,51.0472762891,3.65143406902
9031,Gent,Beekstraat,174,51.0639353038,3.63227481642
9031,Gent,Goubaulaan,28,51.0500488043,3.67075839933
9031,Gent,Oranjeboomstraat,7,51.0705794375,3.66835198866
9031,Gent,Beekstraat,59,51.0680797504,3.64961191832
9031,Gent,Karel De Bondtlaan,56,51.0308436032,3.63329396154
9031,Gent,Krommehamlaan,10,51.0325173153,3.67591398736
9031,Gent,Moortelputstraat,29,51.035831013,3.62432633442
9031,Gent,Joannes Schinckdreef,35,51.066694091,3.62025843181
9031,Gent,Vliegpleinkouter,50,51.0680814029,3.66316300378
9031,Gent,Deinse Horsweg,47,51.0446646019,3.65006088422
9031,Gent,Poekstraat,17,51.0714885263,3.61052728718
9031,Gent,Sint-Gerolfstraat,66,51.0471412209,3.62949528393
9031,Gent,Boskeetstraat,22,51.0640534294,3.62768330057
9031,Gent,Avennesdreef,42,51.0677227204,3.63574264972
9031,Gent,Abdijmolenstraat,74,51.05053842,3.65924552604
