PKANCODE,COMMUNE_NL,STREET_NL,HUISNR,LAT,LON
9080,Lochristi,Molenberglaan,27,51.0788364151,3.88979993428
9080,Lochristi,Rivierstraat,38,51.0755821239,3.88126232225
9080,Lochristi,Kerkstraat,26,51.1300188941,3.86234078392
9080,Lochristi,Toleindestraat,57,51.0806598227,3.88641726591
9080,Lochristi,Gloxinialaan,9,51.084022479,3.80139311296
9080,Lochristi,Dorp-West,3,51.0959493133,3.83287418512
9080,Lochristi,Dorpsstraat,120,51.1036275684,3.83949339049
9080,Lochristi,Ledebeekweg,155,51.0870085479,3.85762794865
9080,Lochristi,Lichtelarestraat,67,51.0832957011,3.81749639683
9080,Lochristi,Rietveldstraat,6,51.0676506179,3.86710710486
9080,Lochristi,Nieuwstraat,27,51.0888988113,3.82134786725
9080,Lochristi,Distelweg,8,51.1318134104,3.869942535
9080,Lochristi,Bastelare,54,51.0976163059,3.89898447481
9080,Lochristi,Burgemeester-Vermeulenlaan,21,51.0989539058,3.835476911
9080,Lochristi,Oosteinde,49,51.1344049187,3.86796871329
9080,Lochristi,Ruilare,158,51.1118202976,3.87221667397
9080,Lochristi,Stationsstraat,31,51.0926809663,3.82660873055
9080,Lochristi,Steenakkerlaan,38,51.0947203789,3.85492615349
9080,Lochristi,Zaffelare-Dorp,50,51.1316196017,3.85857088427
9080,Lochristi,Toleindestraat,218,51.0810957143,3.90257543999
9080,Lochristi,Vossenstraat,21,51.0579075593,3.85890149122
9080,Lochristi,Hoekskensstraat,82,51.1050653286,3.84022902178
9080,Lochristi,Veldekensstraat,83,51.0776172563,3.81758635479
9080,Lochristi,Pensionaatstraat,4,51.0817768349,3.85713147354
9080,Lochristi,Ledebeekweg,173,51.0870394205,3.85815655591
9080,Lochristi,Dorpsstraat,102,51.1034252366,3.83795368946
9080,Lochristi,Oude Veldstraat,49,51.1177872979,3.84746015498
9080,Lochristi,Zavel,57,51.1076947135,3.89102365498
9080,Lochristi,Lichtelarestraat,49,51.0858870967,3.81757792609
9080,Lochristi,Bosstraat,38,51.1067194581,3.84589768202
9080,Lochristi,Antwerpse Steenweg,79,51.0886281688,3.81052596012
9080,Lochristi,Gemete,21,51.1037076836,3.83292071551
9080,Lochristi,Rechtstraat,85,51.1280899272,3.84665623974
9080,Lochristi,Kerkstraat,24A,51.1298420058,3.86073141271
9080,Lochristi,Dahlialaan,6,51.0902597579,3.80594063598
9080,Lochristi,Dorp-Oost,80,51.0979178156,3.84067375435
9080,Lochristi,Lijsterbeslaan,13,51.0842205777,3.82292935803
9080,Lochristi,Toleindestraat,75,51.0809776589,3.88899414571
9080,Lochristi,Oude-Boomgaardlaan,15,51.1009144529,3.8287215821
9080,Lochristi,Oude Veldstraat,85,51.1188538259,3.85206119432
9080,Lochristi,Koning-Albertlaan,216,51.1110311787,3.81456572462
9080,Lochristi,Magretstraat,16,51.0693526566,3.87661781993
9080,Lochristi,Verleydonckstraat,3,51.1124623326,3.81399440826
9080,Lochristi,Molenstraat,12,51.1278005461,3.85642462426
9080,Lochristi,Dorpsstraat,84,51.1027626428,3.83607414937
9080,Lochristi,Boskapellaan,6,51.0877964817,3.84555205209
9080,Lochristi,Antwerpse Steenweg,161,51.0852616324,3.79976962279
9080,Lochristi,Smalle Heerweg,158,51.0919660045,3.79998261692
9080,Lochristi,Kasteeldreef,18,51.0903765976,3.82937054094
9080,Lochristi,Persijzerstraat,11,51.1265702586,3.88358274963
9080,Lochristi,Bevrijdingslaan,17,51.1056470632,3.82683377771
9080,Lochristi,Soldatenhoek,24,51.098966779,3.89033365719
9080,Lochristi,Hoekskensstraat,46,51.1019269836,3.8426821597
9080,Lochristi,Hospitaalstraat,13,51.0789062669,3.87621448319
9080,Lochristi,Dorp-West,144,51.0946996125,3.82488334222
9080,Lochristi,Zaffelare-Dorp,39,51.1324537267,3.86257372695
9080,Lochristi,Bevrijdingslaan,47,51.1067440767,3.83044900831
9080,Lochristi,Magretstraat,34,51.0688114803,3.87398709459
9080,Lochristi,Haanhoutstraat,35,51.0791967889,3.86977127213
9080,Lochristi,Berkenstraat,75,51.133717769,3.85673699328
9080,Lochristi,Heistraat,66,51.0795945473,3.89210868487
9080,Lochristi,Tuinwijk,36,51.1104512961,3.8996216302
9080,Lochristi,Denen,151,51.105245091,3.86703675813
9080,Lochristi,Heistraat,31,51.0794528427,3.88791038075
9080,Lochristi,Molenstraat,30,51.1233421758,3.85587580983
9080,Lochristi,Voordestraat,40A,51.0851811757,3.81076515239
9080,Lochristi,Koning-Albertlaan,91,51.1027164906,3.82744722948
9080,Lochristi,Boekweitlaan,34,51.096823911,3.82315086297
9080,Lochristi,Windgat,32,51.1376802225,3.8285628461
9080,Lochristi,Kouter,17,51.105246331,3.82755861224
9080,Lochristi,Toleindestraat,111,51.0810248635,3.89190347186
9080,Lochristi,Sint-Elooistraat,122,51.099337353,3.89657706042
9080,Lochristi,Haanhoutstraat,47,51.0794397353,3.86781222405
9080,Lochristi,Berkenstraat,57,51.1341583199,3.85773497873
9080,Lochristi,Dekenijstraat,2,51.0959382938,3.83308044797
9080,Lochristi,Bijlokelaan,53,51.0997737325,3.82536832564
9080,Lochristi,Tuinwijk,48,51.1104231173,3.89915824967
9080,Lochristi,Ruilare,176,51.1108764959,3.86990048958
9080,Lochristi,Zeveneken-Dorp,68,51.1071549421,3.89580754463
9080,Lochristi,Burgemeester-Vermeulenlaan,56,51.1005063424,3.83506618539
9080,Lochristi,Oudstrijderslaan,5,51.1045275961,3.83217386956
9080,Lochristi,Brandstraat,36,51.0706182346,3.8589373557
9080,Lochristi,Hoekskensstraat,64,51.1036091602,3.84140652861
9080,Lochristi,Ledebeekweg,191,51.0872443808,3.85861632858
9080,Lochristi,Smalle Heerweg,52,51.0933665068,3.81289186639
9080,Lochristi,Veldstraat,20,51.108360723,3.8072015673
9080,Lochristi,Dekenijstraat,26,51.0936741451,3.83318200975
9080,Lochristi,Sint-Elooistraat,104,51.100926631,3.89804767893
9080,Lochristi,Haanhoutstraat,17,51.0796020405,3.8718227426
9080,Lochristi,Bastelare,72,51.0974686792,3.89584699768
9080,Lochristi,Beervelde-Dorp,51,51.0802401352,3.87789351359
9080,Lochristi,Hoekskensstraat,18,51.1003287164,3.84397046379
9080,Lochristi,Rechtstraat,67,51.1282912978,3.84827008404
9080,Lochristi,Kastanjedreef,11,51.081800148,3.83182077222
9080,Lochristi,Kapiteinsstraat,27,51.1194154969,3.83048976102
9080,Lochristi,Heistraat,13,51.0789753487,3.88491955043
9080,Lochristi,Leemstraat,110,51.1268541027,3.88130509874
9080,Lochristi,Antwerpse Steenweg,133,51.0855769136,3.80235578183
9080,Lochristi,Rechtstraat,14,51.1303185773,3.85362587567
9080,Lochristi,Tomboslaan,37,51.0942917989,3.86074657744
9080,Lochristi,Rietveldstraat,41,51.0623380281,3.86486445119
9080,Lochristi,Dorp-West,55,51.0954578688,3.83063788238
9080,Lochristi,Oosteinde,14,51.1339306636,3.86530270015
9080,Lochristi,Populierenhof,8,51.0895544052,3.81916621088
9080,Lochristi,Toleindestraat,5,51.0802553521,3.88119655767
9080,Lochristi,Reigersstraat,22,51.0582891561,3.84025358248
9080,Lochristi,Kapiteinsstraat,10,51.1199599069,3.8307941478
9080,Lochristi,Busstraat,22,51.128599884,3.81806808282
9080,Lochristi,Smalle Heerweg,231,51.089033139,3.79983412063
9080,Lochristi,Koning-Albertlaan,38E,51.098669692,3.83220718055
9080,Lochristi,Reinaertlaan,29,51.0873536974,3.85556976263
9080,Lochristi,Ommegangstraat,98,51.0865070894,3.85434675413
9080,Lochristi,Acacialaan,38,51.0853247939,3.82238470538
9080,Lochristi,Hijfte-Center,4,51.1096646519,3.80903441813
9080,Lochristi,Ommegangstraat,116,51.0870273443,3.85601322209
9080,Lochristi,Antwerpse Steenweg,2,51.0936179384,3.82197901578
9080,Lochristi,Dam,66,51.1405654611,3.86610920181
9080,Lochristi,Koning-Albertlaan,126,51.1053856121,3.82521893178
9080,Lochristi,Dahlialaan,41,51.0895607478,3.8050323955
9080,Lochristi,Oude Slagmanstraat,7,51.1070758066,3.87024713124
9080,Lochristi,Denen,123,51.1068028226,3.86415347576
9080,Lochristi,Doornikstraat,15,51.0856441576,3.80847821007
9080,Lochristi,Smetsakkers,5,51.1028605423,3.82920569576
9080,Lochristi,Dorpsstraat,38,51.1009805933,3.83145642341
9080,Lochristi,Koningin Elisabethlaan,14,51.0981407052,3.83462989627
9080,Lochristi,Pauwstraat,45,51.0974118939,3.85418824701
9080,Lochristi,Bastelare,125,51.0975715026,3.8904208637
9080,Lochristi,Oude Veldstraat,39,51.1172016511,3.8449367881
9080,Lochristi,Bloembollenlaan,8,51.0848604741,3.80453123188
9080,Lochristi,Hijfte-Center,28,51.1107830593,3.81053357504
9080,Lochristi,Lichtelarestraat,39,51.0875129705,3.81744717306
9080,Lochristi,Doornikstraat,33,51.0846626113,3.80979969517
9080,Lochristi,Sint-Elooistraat,51,51.1049036572,3.8996391009
9080,Lochristi,Ruilare,89A,51.1152885067,3.8826346071
9080,Lochristi,Berkenstraat,5,51.1342750582,3.8589565343
9080,Lochristi,Langenakkerlaan,18,51.0984192024,3.85573755552
9080,Lochristi,Koning-Albertlaan,3,51.096439061,3.8312975548
9080,Lochristi,Antwerpse Steenweg,26,51.0923216816,3.81846982758
9080,Lochristi,Hijftestraat,145,51.1091335548,3.8089530942
9080,Lochristi,Beerveldse Baan,41,51.081396684,3.88102070398
9080,Lochristi,Moleneinde,29,51.1309424649,3.85717723505
9080,Lochristi,Dorp-West,73,51.0949852633,3.82926747966
9080,Lochristi,Koning-Albertlaan,108,51.104616724,3.8261446546
9080,Lochristi,Beervelde-Dorp,23,51.0802928264,3.87563264703
9080,Lochristi,Ruilare,70,51.1166599367,3.88580974171
9080,Lochristi,Fazantenstraat,22,51.0955342311,3.85039853528
9080,Lochristi,Berkenstraat,111,51.1327272893,3.85468884847
9080,Lochristi,Rechtstraat,39,51.1289084339,3.85143287298
9080,Lochristi,Dendermondse Steenweg,9,51.0515543336,3.85602625795
9080,Lochristi,Bosdreef,94,51.0882025024,3.84411065063
9080,Lochristi,Windgat,14,51.135304847,3.83000773488
9080,Lochristi,Tomboslaan,19,51.0953386512,3.8603894739
9080,Lochristi,Haanhoutstraat,88,51.0777359929,3.84947776358
9080,Lochristi,Gelei,3A,51.1337530465,3.83169632411
9080,Lochristi,Rechtstraat,121,51.1261201168,3.84186245374
9080,Lochristi,Hijftestraat,11,51.0964705543,3.82062849025
9080,Lochristi,Oosteinde,39,51.1341957363,3.86735132368
9080,Lochristi,Smalle Heerweg,70,51.0932420537,3.81010208822
9080,Lochristi,Smalle Heerweg,213,51.0897561076,3.80180964478
9080,Lochristi,Ledebeekweg,109,51.085937426,3.85403117125
9080,Lochristi,Vaarlaars,56,51.1019258644,3.83731308304
9080,Lochristi,Magerakkerlaan,26,51.0966061266,3.85731431638
9080,Lochristi,Rechtstraat,103,51.127668308,3.84486045431
9080,Lochristi,Kapelleken,20,51.0958125202,3.82513136663
9080,Lochristi,Pauwstraat,47,51.0973191577,3.85440154726
9080,Lochristi,Kleine Heidestraat,8,51.0645410708,3.88501068735
9080,Lochristi,Elf-Novemberlaan,4,51.1023923891,3.83321318137
9080,Lochristi,Pauwstraat,63,51.096635146,3.85612926929
9080,Lochristi,Antwerpse Steenweg,97,51.0879393557,3.80757281311
9080,Lochristi,Esdoornlaan,44,51.0869216157,3.82120170887
9080,Lochristi,Lieskensakker,13,51.103085321,3.83876508345
9080,Lochristi,Hortensialaan,41,51.0914076692,3.82405115311
9080,Lochristi,Rapaartakkerlaan,24,51.0961516735,3.86006844238
9080,Lochristi,Denen,87,51.1031840042,3.86041478254
9080,Lochristi,Slagmanstraat,35,51.111067701,3.86724937466
9080,Lochristi,Oude Veldstraat,156,51.1239863915,3.88022139931
9080,Lochristi,Stationsstraat,102,51.0849003962,3.83197989365
9080,Lochristi,Esdoornlaan,9,51.0853856699,3.82427605901
9080,Lochristi,Moleneinde,40,51.1306041801,3.85536661781
9080,Lochristi,Brugstraat,2,51.0649891631,3.8980553429
9080,Lochristi,Antwerpse Steenweg,143,51.0848044867,3.80106608431
9080,Lochristi,Kouter,45,51.1056813698,3.83046294395
9080,Lochristi,Ertbuerhoek,11,51.0689255626,3.86172744947
9080,Lochristi,Sparrenlaan,21,51.0832716636,3.80511724323
9080,Lochristi,Zeveneken-Dorp,122,51.1067848117,3.89034756652
9080,Lochristi,Dam,102,51.1443517433,3.86519981186
9080,Lochristi,Zavel,29,51.1082024169,3.8888744717
9080,Lochristi,Moleneinde,5,51.1312180029,3.8580565341
9080,Lochristi,Rostijnenstraat,23,51.1102624886,3.80349983951
9080,Lochristi,Dorp-Oost,9,51.096869969,3.83406351727
9080,Lochristi,Rechtstraat,156,51.1245843545,3.83814616081
9080,Lochristi,Lieskensakker,31,51.1013785607,3.83940274648
9080,Lochristi,Kerkstraat,54,51.1270163335,3.86490712959
9080,Lochristi,Beerveldse Baan,6,51.0990729255,3.87339004484
9080,Lochristi,Lindestraat,36,51.1210922879,3.81902928647
9080,Lochristi,Palingstraat,20,51.0919683869,3.81086125872
9080,Lochristi,Denen,69,51.1023840553,3.85695579163
9080,Lochristi,Azaleastraat,18,51.1358197563,3.86038645671
9080,Lochristi,Azalealaan,9,51.0928656046,3.81804462109
9080,Lochristi,Goed ten Pauw,10,51.0959202476,3.85379451032
9080,Lochristi,Kanunnik Petrus Jozef Triestlaan,21,51.1351712985,3.86097199853
9080,Lochristi,Leemstraat,4,51.1353848091,3.87420467405
9080,Lochristi,Bosdreef,76,51.0900470223,3.84297164766
9080,Lochristi,Bosdam,28,51.1362342125,3.87372148692
9080,Lochristi,Oude-Boomgaardlaan,33,51.1006963287,3.82721888967
9080,Lochristi,Pauwstraat,81,51.094936744,3.858532799
9080,Lochristi,Zeveneken-Dorp,104,51.106974935,3.89319850556
9080,Lochristi,Hanselaarstraat,3,51.0812281848,3.903799271
9080,Lochristi,Boekweitlaan,44,51.0969758092,3.82334181491
9080,Lochristi,Reinaertlaan,5,51.0882937867,3.85472605741
9080,Lochristi,Magretstraat,44,51.0665877678,3.87016635758
9080,Lochristi,Stationsstraat,120,51.0826656962,3.83312423977
9080,Lochristi,Bastelare,107,51.0974703086,3.89113697172
9080,Lochristi,Schoolstraat,24,51.0963066008,3.82837159616
9080,Lochristi,Begonialaan,7,51.0926070547,3.81717292719
9080,Lochristi,Rivierstraat,57B,51.0727087785,3.88241955757
9080,Lochristi,Ommegangstraat,134,51.0876061704,3.85778042463
9080,Lochristi,Slagmanstraat,17,51.1088754103,3.86869765248
9080,Lochristi,Dorp-West,91,51.0944162417,3.82667371409
9080,Lochristi,Magerakkerlaan,2,51.0981744643,3.85481486398
9080,Lochristi,Magretstraat,9,51.0692324497,3.87777772102
9080,Lochristi,Dorp-West,134,51.0949230616,3.82640347081
9080,Lochristi,Zaffelare-Dorp,49,51.1320386986,3.86181632453
9080,Lochristi,Kasteelstraat,2,51.0797245154,3.87940715448
9080,Lochristi,Koningin Astridlaan,8,51.1000219937,3.83242310484
9080,Lochristi,Zevestraat,9,51.0598583967,3.8668510382
9080,Lochristi,Beeweg,6,51.1259426919,3.8811244668
9080,Lochristi,Kerrebroekstraat,7,51.0769501276,3.92122055564
9080,Lochristi,Kloosterstraat,37,51.0774225142,3.87522007709
9080,Lochristi,Lindestraat,2,51.1218308667,3.82990606772
9080,Lochristi,Dahlialaan,23,51.0897198983,3.80545583062
9080,Lochristi,Rechtstraat,50,51.1291015099,3.84970976329
9080,Lochristi,Hoekskensstraat,99,51.1119087532,3.83712774772
9080,Lochristi,Elf-Novemberlaan,28,51.1043856897,3.83123172207
9080,Lochristi,Pachtgoed,19,51.1331347786,3.85747042584
9080,Lochristi,Ommegangstraat,144,51.087819327,3.8587219644
9080,Lochristi,Oudstrijderslaan,22,51.1052394927,3.83212701434
9080,Lochristi,Oude Veldstraat,221,51.12333358,3.87264056675
9080,Lochristi,Kasteeldreef,11,51.0933298373,3.82787194211
9080,Lochristi,Smalle Heerweg,151,51.091250027,3.8097120551
9080,Lochristi,Hijfte-Center,8B,51.1098747478,3.80949456714
9080,Lochristi,Oud-Hoflaan,16,51.101782146,3.82701044465
9080,Lochristi,Molenberglaan,20,51.0783343886,3.88893959523
9080,Lochristi,Kallestraat,8,51.1106269434,3.89623955622
9080,Lochristi,Klein Gent,2,51.0599598991,3.86649548125
9080,Lochristi,Persijzerstraat,18,51.1261208551,3.88328643399
9080,Lochristi,Hijftestraat,46,51.0984609956,3.82012464725
9080,Lochristi,Antwerpse Steenweg,62,51.0908857264,3.81421553304
9080,Lochristi,Dorp-Oost,97,51.0988978689,3.84242082355
9080,Lochristi,Tuinwijk,54,51.110306978,3.89886382505
9080,Lochristi,Oude Rivierstraat,5,51.0686066405,3.88172867528
9080,Lochristi,Steenakkerlaan,13,51.0947608646,3.85603016635
9080,Lochristi,Heistraat,38,51.079008532,3.88758387432
9080,Lochristi,Verleydonckstraat,20,51.1124656837,3.81603204865
9080,Lochristi,Koning-Albertlaan,172,51.1090932721,3.8195954713
9080,Lochristi,Ommegangstraat,27,51.0859600996,3.84905045167
9080,Lochristi,Beervelde-Dorp,86,51.0798868557,3.88060074995
9080,Lochristi,Boekweitlaan,9,51.0980180682,3.82106534777
9080,Lochristi,Dorp-West,20,51.0963766229,3.83239263383
9080,Lochristi,Stationsstraat,6,51.0921707678,3.82626092252
9080,Lochristi,Vossenstraat,28,51.0546808434,3.85369274571
9080,Lochristi,Hortensialaan,23,51.0927834934,3.82384743693
9080,Lochristi,Pauwstraat,10,51.0987907982,3.84801389168
9080,Lochristi,Berkenstraat,29,51.1345584091,3.85839910445
9080,Lochristi,Ruilare,151,51.1116829,3.87334026589
9080,Lochristi,Burgemeester-Vermeulenlaan,28,51.0991040885,3.83604910975
9080,Lochristi,Rozenlaan,9,51.0945756877,3.8234681317
9080,Lochristi,Tuinwijk,72,51.1102276799,3.89793430027
9080,Lochristi,Veldstraat,55,51.102004646,3.79771318076
9080,Lochristi,Beeweg,84,51.1225061972,3.8674555863
9080,Lochristi,Graslaan,27,51.0977409337,3.82552069095
9080,Lochristi,Ruilare,16,51.1193649346,3.89535037186
9080,Lochristi,Koning Leopold III-laan,36,51.1006854986,3.83308208861
9080,Lochristi,Bosstraat,31,51.1090841348,3.85016636308
9080,Lochristi,Beervelde-Dorp,68,51.079801178,3.87940378486
9080,Lochristi,Dam,94B,51.1425286463,3.86377247559
9080,Lochristi,Oude Veldstraat,184,51.1276992528,3.8965388453
9080,Lochristi,Dam,6,51.1356013128,3.86910933283
9080,Lochristi,Gaverveld,8,51.0992564575,3.89563506764
9080,Lochristi,Zaffelare-Dorp,85,51.1314657648,3.85891643117
9080,Lochristi,Beeweg,38,51.1244047418,3.87526947106
9080,Lochristi,Haanhoutstraat,71,51.0783147809,3.85991697713
9080,Lochristi,Bastelare,89,51.0978297302,3.89315191692
9080,Lochristi,Kastanjedreef,18,51.0818308033,3.82935694466
9080,Lochristi,Zeveneken-Dorp,15,51.1076880551,3.900472358
9080,Lochristi,Toleindestraat,192,51.0806031035,3.8983349738
9080,Lochristi,Dendermondse Steenweg,26,51.058687994,3.83752921971
9080,Lochristi,Oude Veldstraat,138,51.1236629566,3.87573837549
9080,Lochristi,Koning-Albertlaan,154,51.1080491783,3.8224595466
9080,Lochristi,Molenstraat,19,51.1254690633,3.85637701803
9080,Lochristi,Lijsterbeslaan,6,51.0848463838,3.82384075337
9080,Lochristi,Hoekskensstraat,11,51.1000542956,3.84346814718
9080,Lochristi,Koning Leopold III-laan,2,51.0988334358,3.83069787117
9080,Lochristi,Bisschop-Pieter-Damantlaan,35,51.0870195921,3.85301605177
9080,Lochristi,Rivierstraat,66,51.0727825824,3.88104803916
9080,Lochristi,Molenstraat,37,51.1220492088,3.85527594114
9080,Lochristi,Leemstraat,109,51.1272386904,3.88172963896
9080,Lochristi,Hijftestraat,82,51.1042123879,3.81762141519
9080,Lochristi,Bastelare,36,51.0967927061,3.90028953066
9080,Lochristi,Zaffelare-Dorp,67,51.1319240896,3.86047693505
9080,Lochristi,Dam,38,51.1373169251,3.86738887921
9080,Lochristi,Hospitaalstraat,6,51.0795412564,3.87595664778
9080,Lochristi,Bijlokelaan,17,51.0992706949,3.82190013939
9080,Lochristi,Ledebeekweg,127,51.0862882847,3.85554204661
9080,Lochristi,Ranonkelweg,8,51.1322193947,3.86882600747
9080,Lochristi,Kapiteinsstraat,3,51.1159087463,3.83362147105
9080,Lochristi,Smalle Heerweg,16,51.0948045453,3.81848817866
9080,Lochristi,Oude Veldstraat,14,51.1163854441,3.84335595104
9080,Lochristi,'t Jongestraat,1,51.1386946753,3.84824490663
9080,Lochristi,Kapelaanwegel,7,51.0854588184,3.85237757772
9080,Lochristi,Lisdoddeweg,13,51.1313854905,3.87071955109
9080,Lochristi,Bastelare,141A,51.0955453146,3.88291753053
9080,Lochristi,Lichtelarestraat,14,51.0894345031,3.81535903838
9080,Lochristi,Haanhoutstraat,53,51.079432677,3.86680667067
9080,Lochristi,Toleindestraat,128,51.0805269625,3.89063717174
9080,Lochristi,Bastelare,2,51.0979076053,3.90475130297
9080,Lochristi,Rivierstraat,31,51.0765861137,3.88198146905
9080,Lochristi,Bastelare,48,51.0975128517,3.90032186945
9080,Lochristi,Lichtelarestraat,50,51.086384773,3.81733642871
9080,Lochristi,Kastanjedreef,4,51.082304397,3.83197040432
9080,Lochristi,Draaiboomstraat,1,51.068627471,3.84005319612
9080,Lochristi,Oude Veldstraat,50,51.1189024122,3.85421358427
9080,Lochristi,Zeveneken-Dorp,33,51.1077630472,3.89950449659
9080,Lochristi,Oud-Hoflaan,34,51.1013406653,3.82561468953
9080,Lochristi,Kerkwegelakker,24,51.0935121874,3.83574987408
9080,Lochristi,Nerenhoek,55,51.1322552106,3.8375799823
9080,Lochristi,Rietveldstraat,58,51.0628532866,3.86385563404
9080,Lochristi,Kerkstraat,89,51.1244592521,3.8665317662
9080,Lochristi,Koedreef,13,51.1316446047,3.85475746225
9080,Lochristi,Smalle Heerweg,87,51.0934008997,3.81473931121
9080,Lochristi,Beukendreef,60,51.0839265825,3.8240077326
9080,Lochristi,Burgemeester-Vermeulenlaan,74,51.1012166397,3.83426785495
9080,Lochristi,Persijzerstraat,64,51.1268806282,3.8874029956
9080,Lochristi,Voordestraat,66,51.0825591696,3.80614978889
9080,Lochristi,Bosdreef,41,51.0920338314,3.84225675247
9080,Lochristi,Azalealaan,26,51.0936761854,3.81785993506
9080,Lochristi,Oosteinde,32,51.1348560734,3.86767242389
9080,Lochristi,Hijftestraat,18,51.096500394,3.82136390447
9080,Lochristi,Koedreef,31,51.1344907045,3.85247639244
9080,Lochristi,Zaffelare-Dorp,14,51.1323718462,3.86062779295
9080,Lochristi,Sint-Elooistraat,86,51.1014868572,3.8975601975
9080,Lochristi,Lichtelarestraat,32,51.0876858183,3.81665598927
9080,Lochristi,Tulpenlaan,2,51.0958748223,3.82312595032
9080,Lochristi,Ledebeekweg,110,51.0855865917,3.85405372411
9080,Lochristi,Persijzerstraat,46,51.1267938155,3.88577771249
9080,Lochristi,Denen,9,51.1000161181,3.84730713142
9080,Lochristi,Haanhoutstraat,106,51.0763225659,3.84693393389
9080,Lochristi,Eikstraat,2,51.1064176623,3.88064891702
9080,Lochristi,Cootveld,19A,51.0727671483,3.91171364817
9080,Lochristi,Halve Dreef,17,51.1049282988,3.89069707625
9080,Lochristi,Beukendreef,42,51.0855324494,3.82661699606
9080,Lochristi,Boskapellaan,94,51.0894746215,3.85597414863
9080,Lochristi,Smalle Heerweg,69,51.0935045305,3.81581025588
9080,Lochristi,Magretstraat,79,51.065582047,3.87156771827
9080,Lochristi,Doornikstraat,8,51.08675106,3.8073211564
9080,Lochristi,Doornzelestraat,15,51.1152060207,3.81192622262
9080,Lochristi,Braamstraat,1,51.0940506196,3.82165734653
9080,Lochristi,Dorp-Oost,158,51.0991485222,3.8454837111
9080,Lochristi,Antwerpse Steenweg,115,51.0868125597,3.80547510834
9080,Lochristi,Rechtstraat,138,51.1255982955,3.84083242234
9080,Lochristi,Ommegangstraat,63,51.0877561581,3.85708641128
9080,Lochristi,Parochiedreef,34,51.0773165301,3.87221871508
9080,Lochristi,Bijlokelaan,35,51.0990604411,3.82333822674
9080,Lochristi,Toleindestraat,22,51.0800299718,3.88217086589
9080,Lochristi,Boskapellaan,76,51.0886635109,3.85384020377
9080,Lochristi,Ruilare,69,51.1158716769,3.8857387567
9080,Lochristi,Lieskensakker,38,51.1000631548,3.84114052676
9080,Lochristi,Bijlokelaan,1,51.0990437546,3.82016321601
9080,Lochristi,Tollekenswegel,37,51.0815287174,3.89510102163
9080,Lochristi,Breestraat,2,51.05735058,3.86402047649
9080,Lochristi,Zavel,22,51.1076786255,3.88794485847
9080,Lochristi,Hijftestraat,4,51.0958274965,3.82165970696
9080,Lochristi,Pauwstraat,144,51.0933941924,3.86209413014
9080,Lochristi,Azaleastraat,11,51.1355010818,3.85981827912
9080,Lochristi,Moleneinde,22,51.1315279047,3.85591050111
9080,Lochristi,Vijfweegse,4,51.0645967848,3.88133624925
9080,Lochristi,Pelikaanweg,15,51.0966466483,3.85095752754
9080,Lochristi,Graslaan,10,51.0981938213,3.82460747571
9080,Lochristi,Kerkstraat,115,51.1226556072,3.86720473835
9080,Lochristi,Ommegangstraat,45,51.0864370991,3.85186454174
9080,Lochristi,Windgat,50,51.1414447742,3.82259758675
9080,Lochristi,Schoolstraat,42,51.0977608074,3.82742087629
9080,Lochristi,Dorpsstraat,31,51.1004543601,3.8277322267
9080,Lochristi,Koning-Albertlaan,73,51.1012591395,3.82902684588
9080,Lochristi,Vitsakkerlaan,11,51.0984879562,3.85198288956
9080,Lochristi,Hijftestraat,117,51.1070322917,3.81239814702
9080,Lochristi,Leemstraat,74,51.130299058,3.87907818903
9080,Lochristi,Denen,109A,51.104786098,3.86321772914
9080,Lochristi,Dorpsstraat,66,51.1022777556,3.83461709782
9080,Lochristi,Slagmanstraat,71,51.1195625193,3.86290441559
9080,Lochristi,Dorp-Oost,26,51.0965025842,3.83545415625
9080,Lochristi,Bosdam,27A,51.1361949096,3.87455401514
9080,Lochristi,Koning-Albertlaan,20,51.0977874558,3.83118770988
9080,Lochristi,Berkenstraat,93,51.1329104103,3.85545788737
9080,Lochristi,Pauwstraat,98,51.0965669504,3.85347233537
9080,Lochristi,Sint-Elooistraat,15,51.106613266,3.89911879209
9080,Lochristi,Dijkgracht,6,51.1344745786,3.86951869195
9080,Lochristi,Oude-Boomgaardlaan,8,51.1011243881,3.82737612403
9080,Lochristi,Goed ten Pauw,3,51.0960069447,3.85450561306
9080,Lochristi,Pauwstraat,27,51.0983101905,3.85129346059
9080,Lochristi,Bosdreef,2A,51.0967567561,3.8375794733
9080,Lochristi,Antwerpse Steenweg,80,51.0903306913,3.81242818703
9080,Lochristi,Boekweitlaan,26,51.0971993353,3.82280986415
9080,Lochristi,Tomboslaan,12,51.0946320245,3.85990951375
9080,Lochristi,Slagmanstraat,47,51.1165677132,3.86392236432
9080,Lochristi,Begoniastraat,7,51.1345300612,3.86014287498
9080,Lochristi,Bastelare,100,51.0969803358,3.89131898773
9080,Lochristi,Dorp-Oost,79,51.0984003938,3.8404633053
9080,Lochristi,Leemstraat,92,51.1286396019,3.88005124502
9080,Lochristi,Ommegangstraat,10,51.0865389394,3.84539583193
9080,Lochristi,Leemstraat,21,51.1350190063,3.87552740021
9080,Lochristi,Sint-Elooistraat,130,51.0986227107,3.89637012544
9080,Lochristi,Reinaertlaan,22,51.0874672494,3.85487186381
9080,Lochristi,Ertbuerhoek,4,51.06955975,3.85997455218
9080,Lochristi,Canadastraat,22,51.1358997691,3.85924115272
9080,Lochristi,Bommel,3,51.1432022805,3.85005370231
9080,Lochristi,Boskapellaan,58,51.0882436972,3.85114165294
9080,Lochristi,Sint-Elooistraat,68,51.1041078403,3.89850270934
9080,Lochristi,Koning-Albertlaan,55,51.1002596479,3.82969552756
9080,Lochristi,Bommelslaan,10,51.0888917997,3.85612540421
9080,Lochristi,Parochiedreef,16,51.0787153186,3.87262499646
9080,Lochristi,Platanendreef,6,51.0836879799,3.82877410486
9080,Lochristi,Moleneinde,57,51.1302355017,3.85535666349
9080,Lochristi,Schoolstraat,60,51.0992238109,3.82688044198
9080,Lochristi,Lieskensakker,6,51.1028275594,3.83907525354
9080,Lochristi,Tollekenswegel,5,51.0811734968,3.89322928678
9080,Lochristi,Molenberglaan,3,51.0781256426,3.88571673893
9080,Lochristi,Hijfte-Center,21,51.1104647103,3.80864386226
9080,Lochristi,Cijnsakkerweg,10,51.0861430002,3.81207703052
9080,Lochristi,Sint-Elooistraat,33,51.1057811402,3.8994081372
9080,Lochristi,Esdoornlaan,26,51.0869429944,3.82393767134
9080,Lochristi,Persijzerstraat,82,51.1280511622,3.89041368791
9080,Lochristi,Rietveldstraat,23,51.0642755785,3.86443119149
9080,Lochristi,Sint-Baafsdreef,28,51.0870673322,3.828204332
9080,Lochristi,Sparrenlaan,28,51.0833913133,3.80415903451
9080,Lochristi,Nieuwstraat,3,51.0899705177,3.82545997563
9080,Lochristi,Slagmanstraat,53,51.1166652015,3.86355513025
9080,Lochristi,Toleindestraat,93,51.0809640406,3.89042293006
9080,Lochristi,Koning-Albertlaan,208,51.1106482682,3.81487684885
9080,Lochristi,Toleindestraat,85,51.0809196947,3.88986125863
9080,Lochristi,Ranonkelweg,1,51.1326800467,3.86922310901
9080,Lochristi,Pauwstraat,3,51.0993497644,3.84708370416
9080,Lochristi,Dorp-West,19,51.0957918934,3.83213709486
9080,Lochristi,Ledebeekweg,183,51.0869139208,3.85877749818
9080,Lochristi,Goed ten Pauw,17,51.0948085763,3.85354750318
9080,Lochristi,Kapelstraat,65,51.1206315738,3.85878552492
9080,Lochristi,Berkenstraat,49,51.1338842988,3.85780897831
9080,Lochristi,Burgemeester-Vermeulenlaan,11,51.0982218757,3.83566412941
9080,Lochristi,Koedreef,17A,51.1325843194,3.85422382037
9080,Lochristi,Zavel,67,51.1074035236,3.89179282823
9080,Lochristi,Steenakkerlaan,4,51.0957584379,3.85585807328
9080,Lochristi,Nieuwstraat,17,51.089379473,3.8234100362
9080,Lochristi,Dorp-West,37,51.0955563123,3.83125258648
9080,Lochristi,Soldatenhoek,16,51.0988293362,3.8911994857
9080,Lochristi,Bijlokelaan,45,51.099157245,3.82423237133
9080,Lochristi,Oude Veldstraat,57,51.1181798066,3.84885871984
9080,Lochristi,Rechtstraat,107A,51.1261858144,3.84381870726
9080,Lochristi,Heistraat,58,51.0794083824,3.89064116919
9080,Lochristi,Toleindestraat,67,51.0806856142,3.88753881761
9080,Lochristi,Sint-Elooistraat,6,51.106917527,3.89868566635
9080,Lochristi,Kloosterstraat,20,51.0778321415,3.8753695895
9080,Lochristi,Stationsstraat,23,51.0930615743,3.82635680282
9080,Lochristi,Tollekenswegel,6C,51.0810263773,3.89504801953
9080,Lochristi,Oud-Hoflaan,9,51.1014932693,3.82735029923
9080,Lochristi,Brandstraat,35C,51.0697984277,3.85852110968
9080,Lochristi,Antwerpse Steenweg,151,51.0853425766,3.80003952567
9080,Lochristi,Ledebeekweg,165,51.0873386736,3.85792978182
9080,Lochristi,Gaverveld,1,51.0998789987,3.89670451225
9080,Lochristi,Koning-Albertlaan,83,51.1015774982,3.82856759206
9080,Lochristi,Persijzerstraat,21,51.1269329327,3.88486933479
9080,Lochristi,Bisschop-Pieter-Damantlaan,8,51.086976363,3.84810317295
9080,Lochristi,Berkenstraat,85,51.1333365927,3.85602125391
9080,Lochristi,Molenberglaan,19,51.0786929277,3.8885112455
9080,Lochristi,Brandstraat,35A,51.0700014285,3.85892252465
9080,Lochristi,Veldstraat,12,51.1087118819,3.80740069139
9080,Lochristi,Pelikaanweg,6,51.0969119557,3.85238330199
9080,Lochristi,Zaffelare-Dorp,29,51.1327342349,3.86319544478
9080,Lochristi,Molenberglaan,35,51.0790002972,3.89108956446
9080,Lochristi,Kerkstraat,36,51.129056642,3.86328789814
9080,Lochristi,Dam,23,51.1377798434,3.86783199348
9080,Lochristi,Bosakkers,78,51.0909391116,3.84670237863
9080,Lochristi,Lichtelarestraat,75,51.0825185,3.81763027756
9080,Lochristi,Bosstraat,4,51.1046172417,3.84131806982
9080,Lochristi,Nieuwstraat,35,51.0887692384,3.82089349538
9080,Lochristi,Poelinkstraat,2,51.0925071748,3.85994559553
9080,Lochristi,Gemete,11,51.1031074302,3.83318558288
9080,Lochristi,Beukendreef,34,51.0855833182,3.82761403688
9080,Lochristi,Elf-Novemberlaan,11,51.1027906631,3.83215723039
9080,Lochristi,Rietveldstraat,27A,51.0638376393,3.86462292706
9080,Lochristi,Hanselaarstraat,12,51.0804534102,3.90261137265
9080,Lochristi,Sint-Elooistraat,112,51.1004903122,3.89744059444
9080,Lochristi,Acacialaan,58,51.0861109671,3.82341242242
9080,Lochristi,Lijsterbeslaan,23,51.0838218349,3.82149556004
9080,Lochristi,Denen,115,51.1045115062,3.86408451199
9080,Lochristi,Slagmanstraat,8,51.1070198775,3.86928548323
9080,Lochristi,Veldstraat,30,51.1073321328,3.80646983504
9080,Lochristi,Kouter,27,51.1049779402,3.82893798767
9080,Lochristi,Haanhoutstraat,98,51.0778424127,3.84816932261
9080,Lochristi,Dekenijstraat,36,51.0932936453,3.83179815871
9080,Lochristi,Leemstraat,102,51.1276965861,3.88074949058
9080,Lochristi,Rechtstraat,75,51.1282606567,3.84762001746
9080,Lochristi,Rietveldstraat,38,51.0645751965,3.86367715803
9080,Lochristi,Denen,161,51.1059326489,3.86849677993
9080,Lochristi,Persijzerstraat,56,51.1270109424,3.8866692724
9080,Lochristi,Rechtstraat,22,51.130098437,3.85276015123
9080,Lochristi,Smalle Heerweg,9,51.0944226186,3.81885867764
9080,Lochristi,Denen,133,51.1047161243,3.8655659364
9080,Lochristi,Zaffelare-Dorp,40,51.1318525398,3.85907908039
9080,Lochristi,Zeveneken-Dorp,78,51.1071212638,3.89520932055
9080,Lochristi,Bevrijdingslaan,27,51.1064170969,3.82784135562
9080,Lochristi,Brandstraat,26,51.0712984048,3.85976233895
9080,Lochristi,Sint-Elooistraat,43,51.1053087684,3.89952067324
9080,Lochristi,Hospitaalstraat,23,51.078004482,3.87627847691
9080,Lochristi,Heistraat,76,51.0801652907,3.89381091332
9080,Lochristi,Kapiteinsstraat,17,51.1179903961,3.83229013567
9080,Lochristi,Nerenhoek,12,51.1291471297,3.84483203683
9080,Lochristi,Kastanjedreef,21,51.0815651779,3.83000690926
9080,Lochristi,Zeveneken-Dorp,96,51.1069285957,3.89349968517
9080,Lochristi,Hoekskensstraat,92,51.1074200003,3.83880552817
9080,Lochristi,Tuinwijk,2,51.1102213873,3.90101148996
9080,Lochristi,Boskapellaan,84,51.0889376106,3.85489783328
9080,Lochristi,Molenstraat,20,51.1257742939,3.85686706132
9080,Lochristi,Leemstraat,120,51.1261962131,3.88204846514
9080,Lochristi,Rechtstraat,57,51.1285015015,3.84966927851
9080,Lochristi,Busstraat,14,51.131394899,3.82254006096
9080,Lochristi,Zavel,49,51.1079164921,3.89025161187
9080,Lochristi,Magretstraat,24,51.0691413038,3.87517106725
9080,Lochristi,Rechtstraat,7,51.1299358277,3.85401737695
9080,Lochristi,Kerkstraat,80,51.1245361571,3.86590944008
9080,Lochristi,Hoekskensstraat,28,51.1007772192,3.84353484577
9080,Lochristi,Windgat,22,51.1365389726,3.82954302541
9080,Lochristi,Haanhoutstraat,27,51.0796006611,3.87094070641
9080,Lochristi,Beervelde-Dorp,61,51.0802115745,3.87852671116
9080,Lochristi,Toleindestraat,101,51.0809953626,3.89094335018
9080,Lochristi,Oosteinde,57,51.1346903959,3.86849699783
9080,Lochristi,Ruilare,186,51.1106178915,3.86905173956
9080,Lochristi,Toleindestraat,49,51.080713454,3.88585944361
9080,Lochristi,Koningin Elisabethlaan,22,51.0982844058,3.83509951105
9080,Lochristi,Berkenstraat,67,51.1334380062,3.85675119907
9080,Lochristi,Oosteinde,7,51.1335017693,3.86506258246
9080,Lochristi,Dam,94,51.1427213816,3.86333413156
9080,Lochristi,Ommegangstraat,88,51.0864034296,3.85374516702
9080,Lochristi,Boskapellaan,38,51.0877742829,3.84837990124
9080,Lochristi,Hijftestraat,48,51.098553996,3.82007815892
9080,Lochristi,Heistraat,23,51.0791323297,3.88622308106
9080,Lochristi,Voordestraat,4,51.086421416,3.81686785876
9080,Lochristi,Koedreef,17C,51.1330051677,3.85417976021
9080,Lochristi,Hoekstraat,20,51.1091587076,3.90066926587
9080,Lochristi,Oude Veldstraat,7,51.115416483,3.83608149192
9080,Lochristi,Lichtelarestraat,7,51.0902051005,3.81560071838
9080,Lochristi,Tuinwijk,26,51.1103206735,3.90007117915
9080,Lochristi,Fazantenstraat,40,51.095275127,3.84755108055
9080,Lochristi,Kanunnik Petrus Jozef Triestlaan,41,51.1360330732,3.86076518901
9080,Lochristi,Kallestraat,1,51.1094744339,3.89706240545
9080,Lochristi,Beeweg,58,51.123459562,3.87070749644
9080,Lochristi,Ommegangstraat,126,51.0874559444,3.85715334824
9080,Lochristi,Berkenstraat,14,51.1342197499,3.85974278236
9080,Lochristi,Antwerpse Steenweg,123,51.0864533044,3.80420375063
9080,Lochristi,Dorp-West,83,51.0947275322,3.82818326322
9080,Lochristi,Antwerpse Steenweg,36,51.092790915,3.81643034487
9080,Lochristi,Beervelde-Dorp,31,51.0802557767,3.87649055457
9080,Lochristi,Doornikstraat,25,51.0849313273,3.80957869563
9080,Lochristi,Acacialaan,4,51.0828525352,3.81901823795
9080,Lochristi,Beerveldse Baan,38,51.0805601327,3.87997010584
9080,Lochristi,Bochtenstraat,6,51.0721747233,3.84256016136
9080,Lochristi,Berkenstraat,101,51.1334550353,3.85460727403
9080,Lochristi,Toleindestraat,39,51.0805267445,3.88511116196
9080,Lochristi,Kerkstraat,44,51.1279525948,3.86405908093
9080,Lochristi,Ommegangstraat,108,51.0868648331,3.85560195264
9080,Lochristi,Koning-Albertlaan,116,51.1049358173,3.82576943782
9080,Lochristi,Ruilare,60,51.1170533897,3.88779470433
9080,Lochristi,Kapelleken,12,51.096332194,3.82660127857
9080,Lochristi,Stationsstraat,94,51.0864929745,3.83045645771
9080,Lochristi,Rapaartakkerlaan,16,51.0960801322,3.8590496704
9080,Lochristi,Ledebeekweg,137,51.0864784457,3.85606904324
9080,Lochristi,Haanhoutstraat,10,51.0800530611,3.87204571437
9080,Lochristi,Esdoornlaan,54,51.0860896761,3.8209885025
9080,Lochristi,Kloosterstraat,5,51.0783308466,3.87977446818
9080,Lochristi,Hoogbastelare,10,51.0987905958,3.89490440886
9080,Lochristi,Oude Veldstraat,166,51.1253317385,3.88241670746
9080,Lochristi,Oudburgweg,15,51.0867881967,3.85714380192
9080,Lochristi,Parelhoenstraat,8,51.0984177876,3.84728824497
9080,Lochristi,Bosakkers,25,51.0903880019,3.84506034105
9080,Lochristi,Denen,95,51.1033337038,3.86171884488
9080,Lochristi,Dorp-Oost,54,51.0977896201,3.83968716187
9080,Lochristi,Denen,143,51.1053474423,3.86624664646
9080,Lochristi,Bevrijdingslaan,10,51.1052124978,3.82708053976
9080,Lochristi,Zavel,39,51.1082028522,3.8892915588
9080,Lochristi,Kluizestraat,12,51.1335090176,3.86837690629
9080,Lochristi,Smalle Heerweg,133,51.0923194204,3.81109174544
9080,Lochristi,Schoolstraat,16,51.0960236081,3.82874102749
9080,Lochristi,Lozen Boer,13A,51.1075907404,3.87487971993
9080,Lochristi,Zaffelare-Dorp,93,51.1313283862,3.85851420104
9080,Lochristi,Hijftestraat,21,51.0973731145,3.82011883839
9080,Lochristi,Pauwstraat,160,51.0946230039,3.87101595146
9080,Lochristi,Graslaan,3,51.0989743907,3.82481368925
9080,Lochristi,Gelei,6,51.12638097,3.82728812782
9080,Lochristi,Berkenstraat,39,51.1345061582,3.8578523339
9080,Lochristi,Koning-Albertlaan,37,51.0990723608,3.82996774459
9080,Lochristi,Smalle Heerweg,60,51.0952681815,3.80968277097
9080,Lochristi,Ruilare,115,51.1132998652,3.878887459
9080,Lochristi,Beervelde-Dorp,13,51.0800698661,3.87433566578
9080,Lochristi,Ledebeekweg,119,51.0861046652,3.85459794399
9080,Lochristi,Kerkstraat,62,51.1255382698,3.86532500902
9080,Lochristi,Stationsstraat,76,51.0875776874,3.82813578239
9080,Lochristi,Boerenkrijghof,7,51.1056251794,3.90053996842
9080,Lochristi,Beervelde-Dorp,43,51.080216905,3.87736574714
9080,Lochristi,Oude-Boomgaardlaan,1,51.1016316384,3.8279056501
9080,Lochristi,Palingstraat,12,51.0913010912,3.81140534231
9080,Lochristi,Langenakkerlaan,28,51.0980780483,3.85680971111
9080,Lochristi,Bastelare,80,51.097464466,3.89450497412
9080,Lochristi,Moleneinde,39,51.1306782739,3.85657382712
9080,Lochristi,Braamstraat,8,51.0942496736,3.82220860079
9080,Lochristi,Krommendonck,8,51.1354937235,3.86310890054
9080,Lochristi,Heistraat,4,51.0781839401,3.88255378311
9080,Lochristi,Bosdreef,31,51.0941155625,3.846274402
9080,Lochristi,Denen,24,51.100074905,3.84936688096
9080,Lochristi,Oosteinde,29,51.1339761974,3.8664763137
9080,Lochristi,Oude-Boomgaardlaan,25,51.1009408695,3.82787465541
9080,Lochristi,Kanunnik Petrus Jozef Triestlaan,11,51.1344773548,3.86120183898
9080,Lochristi,Kouter,10,51.1041652717,3.82827601264
9080,Lochristi,Hijfte-Center,18,51.1106404288,3.80994965694
9080,Lochristi,Doornikstraat,1,51.0875807869,3.80759295372
9080,Lochristi,Bastelare,117,51.0983143751,3.89018243056
9080,Lochristi,Roosbroeklaan,6,51.087645174,3.85333258413
9080,Lochristi,Bommelslaan,3,51.0897190723,3.85660435707
9080,Lochristi,Sint-Elooistraat,61,51.1010177607,3.89849434233
9080,Lochristi,Lichtelarestraat,29,51.0887528228,3.81669464826
9080,Lochristi,Sint-Baafsdreef,11,51.0863984639,3.82903129448
9080,Lochristi,Sparrenlaan,11,51.0843014363,3.8044172281
9080,Lochristi,Rechtstraat,131,51.1249875307,3.8412625566
9080,Lochristi,Denen,59,51.1023005292,3.85459252548
9080,Lochristi,Zeveneken-Dorp,112,51.1068251391,3.89207358523
9080,Lochristi,Bijlokelaan,8,51.0984511444,3.82077133092
9080,Lochristi,Rivierstraat,41,51.0756234698,3.88187118388
9080,Lochristi,Lindestraat,26,51.1209259259,3.82341742155
9080,Lochristi,Parochiedreef,9,51.0787807652,3.87314002484
9080,Lochristi,Rechtstraat,166,51.1240447658,3.83717025689
9080,Lochristi,Clivialaan,6,51.0925700732,3.8251885722
9080,Lochristi,Hoekskensstraat,107,51.1136756075,3.83678393012
9080,Lochristi,Rostijnenstraat,31,51.1100607959,3.80228478406
9080,Lochristi,Denen,77,51.1027174977,3.85848154456
9080,Lochristi,Ertbuerhoek,21,51.0678031439,3.86606756443
9080,Lochristi,Posthoornlaan,9,51.0891817392,3.85891694211
9080,Lochristi,Pauwstraat,53,51.0971025034,3.85507859815
9080,Lochristi,Nieuwstraat,25B,51.0888780384,3.82157876594
9080,Lochristi,Bastelare,135,51.0966545446,3.88659910434
9080,Lochristi,Leemstraat,18,51.134632841,3.87507456818
9080,Lochristi,Lieskensakker,23,51.1035429204,3.84012185289
9080,Lochristi,Kerkwegelakker,52,51.0937738561,3.8388646386
9080,Lochristi,Smalle Heerweg,221,51.0893314421,3.80077682385
9080,Lochristi,Lichtelarestraat,53I,51.085084331,3.81783885002
9080,Lochristi,Rechtstraat,148,51.1247863636,3.83949501239
9080,Lochristi,Bosdreef,13,51.0938893591,3.84074931271
9080,Lochristi,Koning-Albertlaan,19,51.0970025563,3.83101513574
9080,Lochristi,Beeweg,76,51.1225521418,3.86834881138
9080,Lochristi,Nerenhoek,46A,51.1322552519,3.8397532419
9080,Lochristi,Pauwstraat,71,51.0962400906,3.85708533955
9080,Lochristi,Denen,23A,51.1017665578,3.84851175579
9080,Lochristi,Koning-Albertlaan,134,51.1057232547,3.82489032006
9080,Lochristi,Kijkdorp,7,51.0779643159,3.87348914275
9080,Lochristi,Dorp-Oost,72,51.0976835217,3.84050408693
9080,Lochristi,Bosdam,18,51.135802857,3.87224786437
9080,Lochristi,Kapelleken,30,51.095551738,3.82281094865
9080,Lochristi,Schoolstraat,34,51.097106917,3.82778747302
9080,Lochristi,Stationsstraat,110,51.0842313062,3.83260553334
9080,Lochristi,Hanselaarstraat,37,51.0730843043,3.90005176134
9080,Lochristi,Cootveld,13,51.075964437,3.91454870838
9080,Lochristi,Kantschoolweg,6,51.1095785917,3.89831866384
9080,Lochristi,Bommelslaan,17,51.0886164568,3.85782378072
9080,Lochristi,Boskapellaan,13,51.087399838,3.84741080235
9080,Lochristi,Ommegangstraat,35,51.0862438837,3.8503587942
9080,Lochristi,Verleydonckstraat,12,51.112253661,3.81528940144
9080,Lochristi,Dorp-West,30,51.096257762,3.8318529544
9080,Lochristi,Windgat,29,51.1411727847,3.8239835322
9080,Lochristi,Kasteeldreef,21,51.0908088367,3.83028622368
9080,Lochristi,Smalle Heerweg,24,51.0945885571,3.81741324005
9080,Lochristi,Koning-Albertlaan,162,51.1085669625,3.82190003825
9080,Lochristi,Veldstraat,5,51.1088126088,3.80843330907
9080,Lochristi,Nerenhoek,19,51.1300774421,3.84330460769
9080,Lochristi,Heistraat,41,51.0795864714,3.88931535012
9080,Lochristi,Persijzerstraat,28,51.1262454482,3.88447104778
9080,Lochristi,Bosdreef,6,51.0953483424,3.83743699827
9080,Lochristi,Hortensialaan,31,51.0923207735,3.82350495768
9080,Lochristi,Dahlialaan,13,51.0901089424,3.80671865028
9080,Lochristi,Ruilare,24,51.1188355629,3.89420400127
9080,Lochristi,Kerkstraat,123,51.1218397961,3.86640633541
9080,Lochristi,Moleneinde,14,51.1313065511,3.85722696965
9080,Lochristi,Toleindestraat,182,51.0805653622,3.89703158907
9080,Lochristi,Dorp-Oost,133,51.1000008453,3.84586579147
9080,Lochristi,Hoekskensstraat,117,51.1151375263,3.83551727295
9080,Lochristi,Antwerpse Steenweg,72,51.0916212141,3.81310714435
9080,Lochristi,Hoekskensstraat,48,51.1020902894,3.84259594578
9080,Lochristi,Smalle Heerweg,161,51.0914802921,3.80869955791
9080,Lochristi,Elf-Novemberlaan,18,51.1032438704,3.83250926111
9080,Lochristi,Pauwstraat,88,51.0971564381,3.8534695589
9080,Lochristi,Verleydonckstraat,30,51.112803151,3.81751738333
9080,Lochristi,Vossenstraat,4,51.0601763596,3.86512534369
9080,Lochristi,Ruilare,161,51.1106405779,3.87071995346
9080,Lochristi,Oudburgweg,1,51.0872830466,3.85670907195
9080,Lochristi,Koning-Albertlaan,144,51.107449479,3.82307254414
9080,Lochristi,Vitsakkerlaan,2,51.0982768941,3.85342267817
9080,Lochristi,Burgemeester-Vermeulenlaan,18,51.0985997509,3.83635621952
9080,Lochristi,Kantschoolweg,25,51.1091114883,3.89731709346
9080,Lochristi,Hanselaarstraat,19,51.079965364,3.90328679703
9080,Lochristi,Dahlialaan,31,51.0891912708,3.80606324257
9080,Lochristi,Bevrijdingslaan,45,51.1069169073,3.83024569012
9080,Lochristi,Canadastraat,14,51.135544079,3.85932460811
9080,Lochristi,Rivierstraat,58,51.0736753945,3.88100877989
9080,Lochristi,Reinaertlaan,14,51.08782921,3.85453504774
9080,Lochristi,Pauwstraat,114,51.0961749489,3.85597299573
9080,Lochristi,Bosdreef,84,51.0890347106,3.84350456042
9080,Lochristi,Dorpsstraat,109,51.1035560699,3.83684454062
9080,Lochristi,Rietveldstraat,31,51.0634191851,3.86464140977
9080,Lochristi,Azaleastraat,2,51.1351504159,3.86054717683
9080,Lochristi,Ommegangstraat,17,51.0862488449,3.84728089271
9080,Lochristi,Hortensialaan,13,51.093290522,3.82411061176
9080,Lochristi,Rechtstraat,29,51.1293515547,3.85247353456
9080,Lochristi,Vossenstraat,18,51.0590336923,3.85931174011
9080,Lochristi,Hijftestraat,74,51.1034211141,3.8184566974
9080,Lochristi,Bastelare,79,51.0978028576,3.89525574153
9080,Lochristi,Molenberglaan,12,51.07805549,3.88726959584
9080,Lochristi,Sint-Niklaaslaan,6,51.09457381,3.83257716488
9080,Lochristi,Oud-Hoflaan,24,51.1016182352,3.82647280861
9080,Lochristi,Acacialaan,41,51.0849821088,3.8205383304
9080,Lochristi,Oude Veldstraat,213,51.1230990859,3.87170590328
9080,Lochristi,Zeveneken-Dorp,25,51.1076557524,3.8998524063
9080,Lochristi,Zaffelare-Dorp,22,51.1324960319,3.86001240905
9080,Lochristi,Hoekskensstraat,21,51.10052646,3.84303754355
9080,Lochristi,Zaffelare-Dorp,75,51.131388527,3.85999559467
9080,Lochristi,Ledebeekweg,94,51.0857221443,3.85283823669
9080,Lochristi,Nerenhoek,65A,51.1326525028,3.83593879707
9080,Lochristi,Vaarlaars,4,51.1028403915,3.84053526764
9080,Lochristi,Kastanjedreef,28,51.083051135,3.82844706795
9080,Lochristi,Dorp-West,108,51.0952987452,3.82782107206
9080,Lochristi,Bastelare,26,51.0960821834,3.90005452934
9080,Lochristi,Zeveneken-Dorp,61,51.1076745905,3.89796697522
9080,Lochristi,Begonialaan,16,51.0934336533,3.8170691183
9080,Lochristi,Tuinwijk,44,51.1106183484,3.89924653937
9080,Lochristi,Rivierstraat,23,51.0770755775,3.88198380266
9080,Lochristi,Eethoek,2,51.0647764996,3.90190696292
9080,Lochristi,Oud-Hoflaan,42,51.1010216513,3.82489354995
9080,Lochristi,Bisschop-Pieter-Damantlaan,27,51.0873481748,3.85187261123
9080,Lochristi,Graslaan,17,51.0981979141,3.82520331242
9080,Lochristi,Veldstraat,37,51.1060148308,3.80598762681
9080,Lochristi,Reigersstraat,7,51.0609924319,3.84264024584
9080,Lochristi,Ledebeekweg,209,51.0871055686,3.85981931365
9080,Lochristi,Nerenhoek,5,51.1285986041,3.84464475597
9080,Lochristi,Rivierstraat,76,51.0690179327,3.8808682299
9080,Lochristi,Haanhoutstraat,81,51.0773800415,3.8543465382
9080,Lochristi,Busstraat,7,51.1371633102,3.82434056738
9080,Lochristi,Bijlokelaan,53A,51.1003682061,3.82484746142
9080,Lochristi,Persijzerstraat,100,51.1286585243,3.89290312337
9080,Lochristi,Zeveneken-Dorp,41A,51.1076515526,3.89913464875
9080,Lochristi,Toleindestraat,14,51.079979691,3.88166179011
9080,Lochristi,Distelweg,1,51.1317330665,3.86952080336
9080,Lochristi,Zaffelare-Dorp,7,51.1320958462,3.86511172127
9080,Lochristi,Sint-Niklaaslaan,38,51.0947081196,3.83129501448
9080,Lochristi,Rechtstraat,40,51.1312055828,3.85035315287
9080,Lochristi,Bosdreef,104,51.0875969898,3.84453334539
9080,Lochristi,Toleindestraat,50,51.08011605,3.88469813338
9080,Lochristi,Langenakkerlaan,48,51.0974008786,3.85942245104
9080,Lochristi,Bosstraat,23,51.1066135157,3.84438561531
9080,Lochristi,Dorp-West,12,51.0965384397,3.8328708676
9080,Lochristi,Haanhoutstraat,63,51.0792304679,3.8646446113
9080,Lochristi,Krommendonck,27,51.1375293408,3.86504436066
9080,Lochristi,Lichtelarestraat,40,51.0870036798,3.8171266105
9080,Lochristi,Kerkstraat,42B,51.1281743972,3.86383841038
9080,Lochristi,Antwerpse Steenweg,54,51.0918540123,3.8138484942
9080,Lochristi,Koning Leopold III-laan,26,51.0997111464,3.83366986808
9080,Lochristi,Dorp-West,126,51.0950189973,3.82691740588
9080,Lochristi,Zaffelare-Dorp,57,51.1321064376,3.86117941672
9080,Lochristi,Toleindestraat,164,51.0803120265,3.89478124962
9080,Lochristi,Fazantenstraat,7,51.0960541296,3.85267027723
9080,Lochristi,Kapiteinsstraat,53,51.1210780644,3.82930056492
9080,Lochristi,Zavel,14,51.1076742852,3.88721039602
9080,Lochristi,Bijlokelaan,27,51.0990396374,3.82259081633
9080,Lochristi,Tuinwijk,62,51.1102639153,3.89850098213
9080,Lochristi,Beervelde-Dorp,78,51.0799894475,3.88008580126
9080,Lochristi,Toleindestraat,118,51.0805468787,3.88974048791
9080,Lochristi,Oosteinde,40,51.1352004815,3.86817064922
9080,Lochristi,Slagmanstraat,45,51.1164234889,3.86366028158
9080,Lochristi,Zavel,32,51.1075243325,3.88939403418
9080,Lochristi,Persijzerstraat,92,51.1284014486,3.89221318956
9080,Lochristi,Koning Leopold III-laan,26A,51.0997517396,3.83358231706
9080,Lochristi,Parochiedreef,24,51.0782871266,3.87252921427
9080,Lochristi,Koning Leopold III-laan,22A,51.0996208221,3.83323703712
9080,Lochristi,Kasselstraat,17,51.136286632,3.86525619816
9080,Lochristi,Kluizestraat,5,51.1343217052,3.86865352648
9080,Lochristi,Gaverveld,33,51.099249132,3.89271606117
9080,Lochristi,Smalle Heerweg,59,51.0937334768,3.81600111733
9080,Lochristi,Burgemeester-Vermeulenlaan,46,51.1000214212,3.83541249729
9080,Lochristi,Ruilare,77,51.1157167066,3.88450887368
9080,Lochristi,Vaarlaars,18,51.1021873253,3.83840618269
9080,Lochristi,Rechtstraat,141,51.1242066482,3.83957113336
9080,Lochristi,Hijftestraat,28,51.0972045295,3.8209038418
9080,Lochristi,Ledebeekweg,120,51.0857293661,3.85465844003
9080,Lochristi,Bijlokelaan,10,51.0983559441,3.82080870678
9080,Lochristi,Koning-Albertlaan,12,51.0974352051,3.83147070504
9080,Lochristi,Bevrijdingslaan,3,51.1044355681,3.8271373623
9080,Lochristi,Kapelstraat,30,51.121424513,3.8606481179
9080,Lochristi,Smalle Heerweg,77,51.0935782158,3.81538285755
9080,Lochristi,Dodemoerstraat,1,51.0770923965,3.85784532439
9080,Lochristi,Ruilare,95,51.114818104,3.88151899811
9080,Lochristi,Bloembollenlaan,15,51.0858324694,3.80383672972
9080,Lochristi,Ledebeekweg,102,51.0854958693,3.85355391048
9080,Lochristi,Schoolstraat,9,51.0958730438,3.82842713557
9080,Lochristi,Langenakkerlaan,21,51.0988448322,3.85569620134
9080,Lochristi,Hoogbastelare,3,51.0982978881,3.89471980955
9080,Lochristi,Tuinwijk,80,51.1101578398,3.89737181318
9080,Lochristi,Ommegangstraat,71,51.087911393,3.85760382086
9080,Lochristi,Dorpsstraat,58,51.1020312283,3.8340304031
9080,Lochristi,Haanhoutstraat,3,51.0797236459,3.87282337675
9080,Lochristi,Nerenhoek,65,51.1326485028,3.83648730553
9080,Lochristi,Kapelleken,5,51.0968839726,3.8272936835
9080,Lochristi,Oude Veldstraat,141,51.1203235037,3.85934362668
9080,Lochristi,Koning-Albertlaan,30,51.0983940877,3.83224660083
9080,Lochristi,Hijftestraat,125,51.1077082049,3.81127963255
9080,Lochristi,Braamstraat,10,51.0944326181,3.82211524808
9080,Lochristi,Krommendonck,10,51.1356437197,3.86350161385
9080,Lochristi,Gaverveld,15,51.0995242539,3.89496608151
9080,Lochristi,Verleydonckstraat,9A,51.1126248728,3.81533970545
9080,Lochristi,Oude Veldstraat,22,51.1168480679,3.84510855679
9080,Lochristi,Tulpenlaan,26,51.0963417113,3.8234562691
9080,Lochristi,Koedreef,23,51.1411555524,3.85578821792
9080,Lochristi,Eikstraat,26,51.1008922127,3.88182069036
9080,Lochristi,Hoekskensstraat,2,51.0996136752,3.84446402346
9080,Lochristi,Haanhoutstraat,114,51.0772570587,3.84451722667
9080,Lochristi,Oosteinde,22,51.1343847187,3.86657650898
9080,Lochristi,Azalealaan,36,51.093866622,3.81748512225
9080,Lochristi,Bosdreef,38,51.0930074441,3.84084975884
9080,Lochristi,Bastelare,97,51.0975839176,3.89222434417
9080,Lochristi,Bisschop-Pieter-Damantlaan,10,51.0868177662,3.84836141481
9080,Lochristi,Kouter,3,51.104139078,3.82722831671
9080,Lochristi,Hoekskensstraat,56,51.1029454521,3.84189887061
9080,Lochristi,Ommegangstraat,53,51.0874085993,3.85604073296
9080,Lochristi,Bastelare,145,51.0953684724,3.88216834952
9080,Lochristi,Doornzelestraat,25,51.1160628792,3.81443558073
9080,Lochristi,Magretstraat,89,51.0643233656,3.87134797369
9080,Lochristi,Persijzerstraat,74,51.1275667043,3.88882815035
9080,Lochristi,Toleindestraat,32,51.0801030275,3.8829504177
9080,Lochristi,Lieskensakker,41,51.1002121464,3.84046670092
9080,Lochristi,Moleneinde,49,51.1301964983,3.856021097
9080,Lochristi,Acacialaan,23,51.0838250565,3.81976964383
9080,Lochristi,Boskapellaan,66,51.0884196823,3.85214253382
9080,Lochristi,Zeveneken-Dorp,129,51.1073928064,3.89241149575
9080,Lochristi,Burgemeester-Vermeulenlaan,64,51.1008366524,3.83470021484
9080,Lochristi,Beukendreef,70,51.0835150396,3.82248574256
9080,Lochristi,Oudstrijderslaan,14,51.1045634757,3.8328102584
9080,Lochristi,Haanhoutstraat,72A,51.0784053461,3.85734839035
9080,Lochristi,Kluizestraat,19,51.1333765835,3.8689863685
9080,Lochristi,Leemstraat,11,51.1354865172,3.87488153715
9080,Lochristi,Voordestraat,37A,51.0813977361,3.80661285122
9080,Lochristi,Lieskensweg,7,51.1008871959,3.84172829865
9080,Lochristi,Sint-Elooistraat,25,51.1062353931,3.89916970183
9080,Lochristi,Leemstraat,46,51.13272612,3.8753329891
9080,Lochristi,Oude Veldstraat,93,51.11952117,3.85253514823
9080,Lochristi,Dorpsstraat,94,51.1031307368,3.83718989436
9080,Lochristi,Dorp-Oost,89,51.0986149176,3.84135828644
9080,Lochristi,Azaleastraat,21,51.1359237432,3.85967309084
9080,Lochristi,Voordestraat,58,51.0832722254,3.80765001152
9080,Lochristi,Kerkwegelakker,16,51.0924951681,3.83575017548
9080,Lochristi,Palingstraat,19,51.0914922084,3.81053220613
9080,Lochristi,Reinaertlaan,32,51.087114461,3.85516832513
9080,Lochristi,Hanselaarstraat,30,51.0790560784,3.90213695354
9080,Lochristi,Pauwstraat,17,51.0989250223,3.84950812512
9080,Lochristi,Bosdam,11,51.1350087848,3.87201383713
9080,Lochristi,Denen,42,51.100946795,3.8529045886
9080,Lochristi,Rechtstraat,93,51.1278499735,3.84607808427
9080,Lochristi,Zeveneken-Dorp,43,51.107803506,3.89905430463
9080,Lochristi,Sint-Elooistraat,78,51.1033084327,3.8971902074
9080,Lochristi,Beervelde-Dorp,38,51.0798998592,3.8762006096
9080,Lochristi,Populierenhof,1,51.0891889034,3.81991842497
9080,Lochristi,Rietveldstraat,13,51.0653899839,3.86458439599
9080,Lochristi,Rapaartakkerlaan,9,51.0965870974,3.85923358772
9080,Lochristi,Stationsstraat,41,51.0920203917,3.827046319
9080,Lochristi,Hellestraat,18,51.132339006,3.86792711032
9080,Lochristi,Lindestraat,44,51.1217292613,3.81800968811
9080,Lochristi,Stationsstraat,85B,51.088992644,3.83067107915
9080,Lochristi,Populierenhof,15,51.0894424737,3.81827500701
9080,Lochristi,Slagmanstraat,63,51.1191069932,3.86297518177
9080,Lochristi,Rivierstraat,37A,51.0760668385,3.881987008
9080,Lochristi,Veldstraat,55A,51.1017747991,3.7968409336
9080,Lochristi,Burgemeester-Vermeulenlaan,82,51.1015893588,3.83399747361
9080,Lochristi,Rostijnenstraat,6,51.110212923,3.807090807
9080,Lochristi,Oude Slagmanstraat,16,51.1076805148,3.87031579824
9080,Lochristi,Stationsstraat,109,51.0839487162,3.83328467827
9080,Lochristi,Dorpsstraat,23,51.1003890835,3.82747371515
9080,Lochristi,Pauwstraat,35,51.0980107412,3.85223213419
9080,Lochristi,Reinaertstraat,6,51.0652423824,3.86500526174
9080,Lochristi,Bosdam,64,51.1455978949,3.88531673244
9080,Lochristi,Kerkstraat,105,51.12327326,3.86714683937
9080,Lochristi,Beerveldse Baan,31,51.0821800346,3.88087939664
9080,Lochristi,Smalle Heerweg,143,51.0918111431,3.80935535214
9080,Lochristi,Kapelstraat,12,51.122059026,3.86412593324
9080,Lochristi,Leemstraat,64,51.1309621149,3.87860995308
9080,Lochristi,Hoekskensstraat,100,51.1092192231,3.83854197641
9080,Lochristi,Koning-Albertlaan,180,51.1091339866,3.81866711521
9080,Lochristi,Esdoornlaan,36,51.0871231508,3.82244336239
9080,Lochristi,Moleneinde,32,51.1307819441,3.85595853653
9080,Lochristi,Hijfte-Center,46,51.1115203466,3.81295598169
9080,Lochristi,Sparrenlaan,4,51.0853782645,3.80177744835
9080,Lochristi,Ruilare,143,51.1123476387,3.87424260253
9080,Lochristi,Dorpsstraat,76,51.1025922529,3.83546601409
9080,Lochristi,Dorp-Oost,36,51.0970244124,3.83707193239
9080,Lochristi,Smalle Heerweg,95,51.09299828,3.81345751285
9080,Lochristi,Koning-Albertlaan,65,51.1009673247,3.8292757739
9080,Lochristi,Cootveld,6,51.0798181672,3.91374288155
9080,Lochristi,Kanunnik Petrus Jozef Triestlaan,4,51.134770539,3.86247236386
9080,Lochristi,Soldatenhoek,26,51.0988888487,3.89006848751
9080,Lochristi,Brandstraat,36A,51.0709318282,3.85772361118
9080,Lochristi,Parelhoenstraat,3,51.0984787969,3.84832144424
9080,Lochristi,Rechtstraat,105,51.1273966074,3.84428066917
9080,Lochristi,Verleydonckstraat,29,51.1150268884,3.83285936965
9080,Lochristi,Hoekstraat,32,51.111046364,3.90134510759
9080,Lochristi,Oude Veldstraat,123,51.1199084273,3.85712547405
9080,Lochristi,Haanhoutstraat,33,51.079519093,3.86984603982
9080,Lochristi,Windgat,12,51.1352657813,3.83078513457
9080,Lochristi,Kloosterstraat,49,51.0771283784,3.87377852205
9080,Lochristi,Kleine Heidestraat,6,51.06469414,3.88531410964
9080,Lochristi,Bevrijdingslaan,15,51.1055402636,3.82657700473
9080,Lochristi,Zaffelare-Dorp,37,51.1325429758,3.86265519461
9080,Lochristi,Tuinwijk,34,51.1104726515,3.89956672473
9080,Lochristi,Hijftestraat,119,51.1071731896,3.81204421271
9080,Lochristi,Lieskensakker,15,51.1031384763,3.83905231773
9080,Lochristi,Voordestraat,68B,51.0818903538,3.8047505467
9080,Lochristi,Koning-Albertlaan,75,51.1013132945,3.82897682289
9080,Lochristi,Hospitaalstraat,11,51.079066236,3.87624890455
9080,Lochristi,Vijfweegse,2,51.0649955846,3.8824797913
9080,Lochristi,Dorpsstraat,64,51.1022106724,3.83441284115
9080,Lochristi,Orchideenhof,18,51.0886116345,3.8024874929
9080,Lochristi,Molenstraat,32,51.1230425518,3.8561190593
9080,Lochristi,Leemstraat,76,51.1300885575,3.87910453513
9080,Lochristi,Boekweitlaan,36,51.09690799,3.82319656459
9080,Lochristi,Windgat,30,51.1377358657,3.82881896195
9080,Lochristi,Oude Veldstraat,105,51.1194202788,3.85392780924
9080,Lochristi,Berkenstraat,20,51.1338046292,3.8588222205
9080,Lochristi,Leemstraat,94,51.1284576837,3.88022928253
9080,Lochristi,Beervelde-Dorp,1,51.0801391844,3.87320256835
9080,Lochristi,Sint-Elooistraat,53,51.1047697296,3.89970897736
9080,Lochristi,Kastanjedreef,31,51.0815023249,3.82856697544
9080,Lochristi,Beeweg,99,51.1222434537,3.86819828047
9080,Lochristi,Hoekstraat,78A,51.1199135654,3.9021387854
9080,Lochristi,Dorpsstraat,46,51.1015211457,3.8326128031
9080,Lochristi,Ruilare,54,51.117459181,3.88904048566
9080,Lochristi,Dorp-West,29,51.0955749275,3.83164936848
9080,Lochristi,Antwerpse Steenweg,141,51.0850107734,3.80134374468
9080,Lochristi,Begoniastraat,12,51.1342571871,3.86081833409
9080,Lochristi,Koning-Albertlaan,93,51.1028652232,3.82722377959
9080,Lochristi,Oude Veldstraat,108A,51.12160461,3.86732898341
9080,Lochristi,Lieskensakker,33,51.1012283674,3.83958619116
9080,Lochristi,Smalle Heerweg,54,51.093216578,3.8127219232
9080,Lochristi,Ruilare,121,51.1136333187,3.87788260339
9080,Lochristi,Oude Veldstraat,241,51.1244743973,3.87770545352
9080,Lochristi,Beerveldse Baan,8,51.0987650317,3.87389967958
9080,Lochristi,Burgemeester-Vermeulenlaan,58,51.1005635036,3.8350244165
9080,Lochristi,Koning-Albertlaan,57,51.1003317908,3.82968698733
9080,Lochristi,Boekweitlaan,42,51.0971292025,3.82338942191
9080,Lochristi,Bastelare,110,51.0965672742,3.88945068068
9080,Lochristi,Brandstraat,34,51.0707571829,3.859098495
9080,Lochristi,Oudstrijderslaan,3,51.1043049972,3.83232534043
9080,Lochristi,Kerkwegelakker,29,51.0941551753,3.83858524654
9080,Lochristi,Esdoornlaan,18,51.0859635314,3.82451939137
9080,Lochristi,Bevrijdingslaan,33,51.1067363448,3.82865712063
9080,Lochristi,Doornzelestraat,1,51.111602376,3.80944393204
9080,Lochristi,Bijlokelaan,29A,51.0990216532,3.82270609356
9080,Lochristi,Ertbuerhoek,2,51.0699071959,3.8595825622
9080,Lochristi,Hoekskensstraat,102,51.1093916613,3.8385084652
9080,Lochristi,Dekenijstraat,24,51.0939747819,3.83305280962
9080,Lochristi,Haanhoutstraat,15,51.0797053414,3.87191212085
9080,Lochristi,Sint-Elooistraat,71,51.0999963608,3.89757391305
9080,Lochristi,Heistraat,11,51.0790244262,3.88437092642
9080,Lochristi,Kastanjedreef,13,51.0817686597,3.83149889243
9080,Lochristi,Zeveneken-Dorp,106,51.1069329938,3.89309612518
9080,Lochristi,Rivierstraat,18,51.0768687277,3.88126220264
9080,Lochristi,Ruilare,90,51.1157518288,3.88297026277
9080,Lochristi,Zaffelare-Dorp,19,51.132915014,3.86391325272
9080,Lochristi,Voordestraat,42A,51.0846704696,3.81079564343
9080,Lochristi,Kapiteinsstraat,25,51.1192883329,3.83096997432
9080,Lochristi,Kouter,33,51.1052440505,3.82953603257
9080,Lochristi,Dorp-West,40,51.0960709865,3.83114546442
9080,Lochristi,Smalle Heerweg,233,51.0889146777,3.79970667223
9080,Lochristi,Nieuwstraat,25,51.0890719027,3.82227089711
9080,Lochristi,Gloxinialaan,7,51.0841557331,3.80166237792
9080,Lochristi,Oosteinde,12,51.1338422042,3.86517406965
9080,Lochristi,Bastelare,4,51.097982968,3.90428002157
9080,Lochristi,Ruilare,103,51.1143279021,3.88024809852
9080,Lochristi,Brandstraat,16,51.0725367096,3.86198984951
9080,Lochristi,Rostijnenstraat,1,51.1097194325,3.80737575396
9080,Lochristi,Ommegangstraat,96,51.0864765266,3.8542436144
9080,Lochristi,Persijzerstraat,31,51.1276480292,3.88597545636
9080,Lochristi,Koning-Albertlaan,38G,51.0988145193,3.83177523364
9080,Lochristi,Boskapellaan,74,51.0886216752,3.85354335444
9080,Lochristi,Ledebeekweg,153,51.086925527,3.85767823807
9080,Lochristi,Burgemeester-Vermeulenlaan,76,51.1013421202,3.83418704182
9080,Lochristi,Dorp-West,5,51.095938978,3.83283504609
9080,Lochristi,Haanhoutstraat,94A,51.0766445991,3.84877696033
9080,Lochristi,Nerenhoek,57,51.1324150515,3.83746401787
9080,Lochristi,Steenakkerlaan,18,51.0953942691,3.85496358172
9080,Lochristi,Rechtstraat,12,51.1301151919,3.85383983086
9080,Lochristi,Persijzerstraat,66,51.1266845282,3.88752257617
9080,Lochristi,Hoekstraat,76C,51.1194750903,3.90175295935
9080,Lochristi,Stationsstraat,11,51.09373416,3.82591234646
9080,Lochristi,Reinaertstraat,1,51.0660328122,3.86534642788
9080,Lochristi,Ruilare,156,51.1118667942,3.87252177714
9080,Lochristi,Ledebeekweg,100,51.0854772764,3.85343365788
9080,Lochristi,Hoekskensstraat,84,51.1053954863,3.8402271499
9080,Lochristi,Ledebeekweg,171,51.0871156078,3.85810577084
9080,Lochristi,Cootveld,1,51.0802770211,3.91525209748
9080,Lochristi,Boskapellaan,92,51.0893914629,3.85574425898
9080,Lochristi,Vossenstraat,23,51.05680187,3.85956165185
9080,Lochristi,Hanselaarstraat,22,51.0796504111,3.90272296641
9080,Lochristi,Tulpenlaan,4,51.0962643717,3.82300149572
9080,Lochristi,Smalle Heerweg,90,51.0921285781,3.8090963353
9080,Lochristi,Voordestraat,18,51.086451416,3.81440735017
9080,Lochristi,Voordestraat,70A,51.0817558509,3.80440666322
9080,Lochristi,Goed ten Pauw,25,51.0944550951,3.85234659008
9080,Lochristi,Burgemeester-Vermeulenlaan,23,51.0991047243,3.83537354522
9080,Lochristi,Kerkwegelakker,40,51.0936181506,3.83768088871
9080,Lochristi,Smetsakkers,7,51.1029584661,3.82944914133
9080,Lochristi,Kerkwegelakker,5,51.0938593613,3.83503732264
9080,Lochristi,Tuinwijk,16,51.1105514129,3.9005455276
9080,Lochristi,Ruilare,72,51.1168697402,3.88519489092
9080,Lochristi,Ommegangstraat,78,51.0862191202,3.85281106726
9080,Lochristi,Molenberglaan,40,51.0790828218,3.89340676988
9080,Lochristi,Oude-Boomgaardlaan,17,51.100840748,3.82844760212
9080,Lochristi,Cijnsakkerweg,8,51.0859516372,3.81211826922
9080,Lochristi,Elf-Novemberlaan,23,51.1033575412,3.83159061903
9080,Lochristi,Kloosterstraat,32,51.0773132851,3.87320050197
9080,Lochristi,Persijzerstraat,13,51.1265045063,3.88357214653
9080,Lochristi,Verleydonckstraat,5,51.1123395322,3.81435587371
9080,Lochristi,Hijftestraat,2,51.0957518559,3.82170869889
9080,Lochristi,Steenakkerlaan,46,51.0935867938,3.85503423416
9080,Lochristi,Breestraat,4,51.0570938133,3.86369675063
9080,Lochristi,Koning-Albertlaan,111,51.1042861866,3.82571200936
9080,Lochristi,Dam,11,51.1363568821,3.86939858954
9080,Lochristi,Rivierstraat,46,51.0749858693,3.88106405361
9080,Lochristi,Kerkstraat,24,51.1304885369,3.86195698068
9080,Lochristi,Smalle Heerweg,72,51.0930856295,3.81017504214
9080,Lochristi,Dorpsstraat,82,51.102736315,3.83583730025
9080,Lochristi,Smalle Heerweg,156,51.0910892376,3.80060447979
9080,Lochristi,Nieuwstraat,40,51.0893738554,3.82178778628
9080,Lochristi,Smalle Heerweg,215,51.0897195185,3.80167791486
9080,Lochristi,Slagmanstraat,33,51.1101404221,3.86801741882
9080,Lochristi,Veldstraat,57,51.1016270233,3.79639657724
9080,Lochristi,Magerakkerlaan,24,51.0967112338,3.85711273876
9080,Lochristi,Persijzerstraat,120,51.1290200323,3.89556082116
9080,Lochristi,Platanendreef,11,51.0831833302,3.82967817278
9080,Lochristi,Oude Veldstraat,158,51.1244540215,3.88070645975
9080,Lochristi,Rapaartakkerlaan,26,51.0959764091,3.8602403663
9080,Lochristi,Esdoornlaan,46,51.0868716395,3.82087302338
9080,Lochristi,Persijzerstraat,37A,51.1276627356,3.88742109125
9080,Lochristi,Toleindestraat,108,51.080480813,3.88907729509
9080,Lochristi,Bosdreef,12B,51.0953029152,3.83909029583
9080,Lochristi,Persijzerstraat,102,51.1286873658,3.89314553769
9080,Lochristi,Oude Veldstraat,176,51.1263519344,3.89336183226
9080,Lochristi,Rostijnenstraat,21,51.1103723415,3.80397103271
9080,Lochristi,Zaffelare-Dorp,83,51.131055609,3.85898075977
9080,Lochristi,Beervelde-Dorp,71,51.0802234745,3.87909812167
9080,Lochristi,Ledebeekweg,207,51.0869778301,3.85931816285
9080,Lochristi,Lijsterbeslaan,15,51.0841338877,3.82263023243
9080,Lochristi,Tuinwijk,69,51.1098024768,3.89720660753
9080,Lochristi,Vaarlaars,36,51.1024507759,3.8365043065
9080,Lochristi,Ertbuerhoek,13,51.0690834436,3.86225833384
9080,Lochristi,Rechtstraat,158,51.124309786,3.83779574429
9080,Lochristi,Sparrenlaan,23,51.0830795779,3.80523258574
9080,Lochristi,Moleneinde,3,51.1312052698,3.85818853415
9080,Lochristi,Kloosterstraat,14,51.0782081599,3.87715921571
9080,Lochristi,Sint-Niklaaslaan,56,51.0942501538,3.83268479274
9080,Lochristi,Orchideenhof,32,51.0886385377,3.80403152879
9080,Lochristi,Rietveldstraat,28,51.0658020952,3.864301771
9080,Lochristi,Dorp-Oost,7,51.0967718572,3.83399482993
9080,Lochristi,Rivierstraat,64,51.0730673109,3.88099356605
9080,Lochristi,Bommelslaan,5A,51.0900633855,3.85814770321
9080,Lochristi,Kanunnik Petrus Jozef Triestlaan,23,51.1352205477,3.86103247096
9080,Lochristi,Azalealaan,7,51.0927391573,3.81816644203
9080,Lochristi,Beeweg,11,51.1255781028,3.88160407927
9080,Lochristi,Bijlokelaan,51,51.0997592524,3.82526898601
9080,Lochristi,Cootveld,21,51.0721966373,3.91174304138
9080,Lochristi,Kerkstraat,52,51.127257786,3.86486738861
9080,Lochristi,Zaffelare-Dorp,65,51.131951937,3.86057720848
9080,Lochristi,Oude-Boomgaardlaan,35,51.1006063676,3.82708587099
9080,Lochristi,Bastelare,70,51.0974526594,3.89608913388
9080,Lochristi,Hanselaarstraat,5,51.0811542853,3.90368269866
9080,Lochristi,Beervelde-Dorp,53,51.0802763722,3.87804754123
9080,Lochristi,Hoogbastelare,20,51.0985522449,3.89337028297
9080,Lochristi,Brandstraat,69,51.0626693656,3.84282398062
9080,Lochristi,Rechtstraat,194,51.1244362216,3.83431827423
9080,Lochristi,Beerveldse Baan,28,51.0869583051,3.87928660713
9080,Lochristi,Denen,103,51.1037777488,3.86293207001
9080,Lochristi,Langenakkerlaan,38,51.0974105721,3.85792081584
9080,Lochristi,Toleindestraat,126,51.0805887511,3.89051238649
9080,Lochristi,Slagmanstraat,15,51.108692898,3.86871031178
9080,Lochristi,Begonialaan,9,51.0927309351,3.81707911204
9080,Lochristi,Reinaertlaan,3,51.0883669225,3.85467672617
9080,Lochristi,Antwerpse Steenweg,131,51.0861483702,3.80288465676
9080,Lochristi,Denen,36,51.1004793752,3.85128347398
9080,Lochristi,Dorp-West,118,51.0951344041,3.82728693878
9080,Lochristi,Dorp-West,93,51.0942823528,3.82613624418
9080,Lochristi,Ommegangstraat,136,51.0876333694,3.85789630864
9080,Lochristi,Hijftestraat,66,51.1012666399,3.81969614609
9080,Lochristi,Zavel,3,51.108067355,3.88428257817
9080,Lochristi,Hanselaarstraat,29,51.0757136108,3.90111918312
9080,Lochristi,Tomboslaan,39,51.0940270963,3.86048065549
9080,Lochristi,Lindestraat,4,51.121778948,3.82967784728
9080,Lochristi,Kasteelstraat,16,51.0790123992,3.88023099068
9080,Lochristi,Raveschoot,9,51.0704997003,3.88374882904
9080,Lochristi,Toleindestraat,3,51.0803201229,3.88112153379
9080,Lochristi,Busstraat,20,51.1295669287,3.81926812533
9080,Lochristi,Reigersstraat,20,51.0584495628,3.84070422558
9080,Lochristi,Kapelstraat,40,51.1211266867,3.85934859454
9080,Lochristi,Rietveldstraat,8,51.0674007252,3.86664311882
9080,Lochristi,Kasteelstraat,4,51.0796750294,3.87959118846
9080,Lochristi,Dorpsstraat,117,51.1037738168,3.8376507598
9080,Lochristi,Klein Gent,16,51.0611372172,3.86764015872
9080,Lochristi,Hijftestraat,31,51.0976360978,3.81839208003
9080,Lochristi,Denen,121,51.1082959036,3.86310542685
9080,Lochristi,Bochtenstraat,6A,51.0722504868,3.84185175248
9080,Lochristi,Antwerpse Steenweg,59,51.089770828,3.81278568323
9080,Lochristi,Sparrenlaan,46,51.0823479842,3.80501290673
9080,Lochristi,Toleindestraat,79A,51.0813860643,3.88884753897
9080,Lochristi,Klein Gent,4,51.0601187197,3.86659705323
9080,Lochristi,Rivierstraat,48,51.0747981084,3.8810473162
9080,Lochristi,Oude Veldstraat,19,51.1160171037,3.83895466684
9080,Lochristi,Oude Slagmanstraat,9,51.1072223727,3.87008764688
9080,Lochristi,Doornikstraat,17,51.0855595758,3.8085551506
9080,Lochristi,Bosdreef,56,51.0911116064,3.84198606949
9080,Lochristi,Lindestraat,16,51.1215441271,3.82674435028
9080,Lochristi,Pauwstraat,139,51.096864542,3.87470692459
9080,Lochristi,Rechtstraat,176,51.1238453775,3.83654831515
9080,Lochristi,Doornikstraat,35,51.0845277601,3.80996743038
9080,Lochristi,Pauwstraat,43,51.0974404176,3.85382361443
9080,Lochristi,Beervelde-Dorp,21,51.0803388603,3.87531235871
9080,Lochristi,Dahlialaan,8,51.0901745318,3.80571242529
9080,Lochristi,Koningin Elisabethlaan,16,51.0978628208,3.83450329816
9080,Lochristi,Esdoornlaan,48,51.0867632412,3.82054602168
9080,Lochristi,Antwerpse Steenweg,24,51.0923771589,3.81851157026
9080,Lochristi,Koning-Albertlaan,5,51.0965386638,3.83131825293
9080,Lochristi,Berkenstraat,3,51.1342081594,3.85897240764
9080,Lochristi,Haanhoutstraat,86,51.079065578,3.85138379366
9080,Lochristi,Dendermondse Steenweg,7,51.0514531715,3.85630803688
9080,Lochristi,Rechtstraat,37,51.1286781269,3.85188226611
9080,Lochristi,Boskapellaan,8,51.0878079214,3.84592259138
9080,Lochristi,Rechtstraat,123,51.1258105543,3.84180565933
9080,Lochristi,Persijzerstraat,2,51.1256569212,3.88288871274
9080,Lochristi,Oosteinde,37,51.1342635752,3.8671754372
9080,Lochristi,Rechtstraat,9A,51.1298720189,3.85391707886
9080,Lochristi,Bosstraat,48,51.1071639147,3.84865523732
9080,Lochristi,Molenstraat,14,51.127668458,3.85660177692
9080,Lochristi,Koning-Albertlaan,29,51.0981275877,3.83033651944
9080,Lochristi,Graslaan,25,51.0978344164,3.82546136011
9080,Lochristi,Pelikaanweg,13,51.0965422774,3.8511401242
9080,Lochristi,Vaarlaars,54,51.1022826059,3.83698636523
9080,Lochristi,Pauwstraat,78,51.0972798654,3.85295669927
9080,Lochristi,Kerkstraat,113,51.1228381668,3.86730933697
9080,Lochristi,Gaverveld,10,51.0992380827,3.89535657952
9080,Lochristi,Schoolstraat,44,51.097904075,3.82718180962
9080,Lochristi,Smalle Heerweg,138,51.0905779112,3.80370767209
9080,Lochristi,Toleindestraat,172,51.0802832345,3.8957830472
9080,Lochristi,Esdoornlaan,11,51.0855760275,3.82415238873
9080,Lochristi,Zeveneken-Dorp,17,51.1077221926,3.90037649063
9080,Lochristi,Dijkgracht,8,51.1342778691,3.8695747963
9080,Lochristi,Windgat,19,51.1382624375,3.82864228043
9080,Lochristi,Tomboslaan,14,51.0944815266,3.86013398079
9080,Lochristi,'t Jongestraat,15,51.1370118477,3.84130741077
9080,Lochristi,Pauwstraat,96,51.0969604408,3.85412068852
9080,Lochristi,Oude-Boomgaardlaan,6,51.1012371852,3.82764736779
9080,Lochristi,Ruilare,125A,51.1128146012,3.87677959657
9080,Lochristi,Rivierstraat,11,51.0786772443,3.88137309473
9080,Lochristi,Brugstraat,4,51.068658066,3.89909606828
9080,Lochristi,Lijsterbeslaan,4,51.0849050286,3.82412123011
9080,Lochristi,Bisschop-Pieter-Damantlaan,15,51.0871378013,3.85055356827
9080,Lochristi,Hoekskensstraat,13,51.1001564264,3.84341103661
9080,Lochristi,Dorp-Oost,77,51.0983465268,3.84025733772
9080,Lochristi,Orchideenhof,11,51.088764746,3.80348719489
9080,Lochristi,Ruilare,138,51.1134563033,3.87561097439
9080,Lochristi,Bisschop-Pieter-Damantlaan,33,51.0872313016,3.85297889462
9080,Lochristi,Ruilare,89,51.1153347701,3.88288961821
9080,Lochristi,Ledebeekweg,125,51.0862768988,3.85538360485
9080,Lochristi,Leemstraat,2,51.1355203378,3.87409165639
9080,Lochristi,Bastelare,34,51.0967295885,3.90014983349
9080,Lochristi,Toleindestraat,190,51.0793787998,3.89896774019
9080,Lochristi,Burgemeester-Vermeulenlaan,41,51.1003657224,3.83434367208
9080,Lochristi,Rechtstraat,19,51.1296401604,3.85329063256
9080,Lochristi,Koning-Albertlaan,40,51.0984846917,3.83074399432
9080,Lochristi,Boekweitlaan,59,51.0976701668,3.82436416206
9080,Lochristi,Persijzerstraat,38,51.1264176182,3.88529120397
9080,Lochristi,Hospitaalstraat,18,51.0779215944,3.87575964085
9080,Lochristi,Beeweg,46,51.1238907891,3.87304417778
9080,Lochristi,Molenstraat,39,51.1214815459,3.85535601447
9080,Lochristi,Hijftestraat,84,51.1043944527,3.81755230754
9080,Lochristi,Hoekskensstraat,31,51.1012876617,3.84247518932
9080,Lochristi,Zaffelare-Dorp,30,51.1320167152,3.859838756
9080,Lochristi,Bijlokelaan,15,51.099240069,3.82163424194
9080,Lochristi,Stationsstraat,82,51.0876184773,3.82713121549
9080,Lochristi,Oosteinde,19,51.1337426003,3.86599578161
9080,Lochristi,Kapiteinsstraat,5,51.1160668505,3.83347998952
9080,Lochristi,Platanendreef,8,51.0834721396,3.82886964459
9080,Lochristi,Dorp-Oost,59,51.0982507854,3.83819095477
9080,Lochristi,Oud-Hoflaan,2,51.1020304166,3.82775412937
9080,Lochristi,Slagmanstraat,51,51.1166999051,3.86418757755
9080,Lochristi,Krommendonck,15,51.1369682456,3.8633157097
9080,Lochristi,Dam,82,51.1435409257,3.86580671675
9080,Lochristi,Hoogbastelare,8,51.0988403053,3.89524068134
9080,Lochristi,Hijftestraat,120,51.1083210211,3.81159175868
9080,Lochristi,Acacialaan,33,51.0845976408,3.82088578662
9080,Lochristi,Parelhoenstraat,20,51.0976666616,3.84826537443
9080,Lochristi,Bosstraat,11,51.1060432847,3.84328028217
9080,Lochristi,Magerakkerlaan,4,51.0978005528,3.85494602456
9080,Lochristi,Dorp-West,57,51.0955040302,3.83053000177
9080,Lochristi,Dam,18,51.1362485977,3.86851333868
9080,Lochristi,Magretstraat,7,51.0691491263,3.87808162877
9080,Lochristi,Molenstraat,3,51.129900937,3.85481961962
9080,Lochristi,Dahlialaan,21,51.0897676158,3.80581081066
9080,Lochristi,Zevestraat,7,51.060017663,3.8671420375
9080,Lochristi,Koning-Albertlaan,192,51.1099463768,3.81536909494
9080,Lochristi,Beukendreef,62,51.0838150811,3.82362983045
9080,Lochristi,Koningin Elisabethlaan,5,51.0993885069,3.83431970806
9080,Lochristi,Kerkstraat,87,51.124990926,3.86640007255
9080,Lochristi,Kerrebroekstraat,9,51.0756110205,3.921905707
9080,Lochristi,Kloosterstraat,39,51.077329697,3.87499316861
9080,Lochristi,Stationsstraat,46,51.0890841024,3.82857370736
9080,Lochristi,Smalle Heerweg,89,51.0932838464,3.81450616455
9080,Lochristi,Kerkwegelakker,22,51.0935359805,3.83544512474
9080,Lochristi,Tulpenlaan,16,51.0967636051,3.82377598324
9080,Lochristi,Beukendreef,44,51.085395522,3.82596634245
9080,Lochristi,Sint-Niklaaslaan,28,51.0945529065,3.83084713463
9080,Lochristi,Haanhoutstraat,104,51.0763556004,3.84724906228
9080,Lochristi,Oudstrijderslaan,20,51.105064905,3.8322806503
9080,Lochristi,Ommegangstraat,118,51.0870726258,3.85611135034
9080,Lochristi,Magretstraat,59,51.067328668,3.87183308784
9080,Lochristi,Molenberglaan,22,51.0785175906,3.89024741957
9080,Lochristi,Koning-Albertlaan,128,51.1054431226,3.82517571456
9080,Lochristi,Brandstraat,52,51.0643043325,3.84555891173
9080,Lochristi,Hijfte-Center,41,51.1113816819,3.81115190462
9080,Lochristi,Antwerpse Steenweg,4,51.0935032519,3.82180734625
9080,Lochristi,Veldstraat,29,51.1067750383,3.80664930094
9080,Lochristi,Hijfte-Center,2,51.1096199136,3.80896426914
9080,Lochristi,Nerenhoek,40,51.1318482507,3.84108390419
9080,Lochristi,Bastelare,16,51.0965225985,3.90208594782
9080,Lochristi,Bommelslaan,25,51.0880735096,3.85838278216
9080,Lochristi,Kasteeldreef,13,51.0931564007,3.82798143322
9080,Lochristi,Kerkstraat,69,51.1262778246,3.86592471939
9080,Lochristi,Zaffelare-Dorp,12,51.1327292969,3.86057719322
9080,Lochristi,Leemstraat,41,51.1343826774,3.87686309389
9080,Lochristi,Bunder,7,51.1100198386,3.82197402312
9080,Lochristi,Dorp-Oost,95,51.0990357408,3.84201325462
9080,Lochristi,Dam,46,51.1375726699,3.86662929885
9080,Lochristi,Ommegangstraat,61,51.0877127367,3.85696099918
9080,Lochristi,Koning-Albertlaan,174,51.1091238499,3.81923155791
9080,Lochristi,Hanselaarstraat,40,51.0728797086,3.89898782567
9080,Lochristi,Steenakkerlaan,11,51.0949201165,3.85608452331
9080,Lochristi,Verleydonckstraat,22,51.1124622933,3.81636410954
9080,Lochristi,Acacialaan,51,51.0851139796,3.81959097377
9080,Lochristi,Denen,54,51.1015572333,3.85531668514
9080,Lochristi,Stationsstraat,18,51.091310041,3.82699944031
9080,Lochristi,Antwerpse Steenweg,113,51.0868795544,3.80629112721
9080,Lochristi,Dorpsstraat,99,51.1031612089,3.83599294297
9080,Lochristi,Oude Rivierstraat,3,51.0694588913,3.88227252874
9080,Lochristi,Kasteeldreef,31,51.0859664693,3.83375514221
9080,Lochristi,Dorp-West,105A,51.0936736462,3.8241713901
9080,Lochristi,Boekweitlaan,7,51.0979298421,3.8211334773
9080,Lochristi,Dorp-West,22,51.0963355899,3.83230402472
9080,Lochristi,Antwerpse Steenweg,148,51.0860753116,3.80053173063
9080,Lochristi,Kantschoolweg,17,51.1087897224,3.8977097288
9080,Lochristi,Tuinwijk,52,51.1102398448,3.8992743257
9080,Lochristi,Hortensialaan,21,51.0928728836,3.82408963353
9080,Lochristi,Clivialaan,1,51.0924954544,3.82604618532
9080,Lochristi,Bosdreef,92,51.0883871524,3.843911756
9080,Lochristi,Magretstraat,77,51.0655658528,3.87113791057
9080,Lochristi,Ledebeekweg,107,51.0858988951,3.85391484734
9080,Lochristi,Veldstraat,40,51.106693357,3.80591935439
9080,Lochristi,Tuinwijk,70,51.1102304705,3.89804808122
9080,Lochristi,Dekenijstraat,42,51.0920633177,3.83055528168
9080,Lochristi,Moleneinde,20,51.1310793988,3.85666600957
9080,Lochristi,Vitsakkerlaan,13,51.0986355043,3.85182736347
9080,Lochristi,Cootveld,28,51.0716610357,3.91008891074
9080,Lochristi,Hoekskensstraat,118E,51.112628428,3.83963379466
9080,Lochristi,Beeweg,18,51.1252626292,3.87917717713
9080,Lochristi,Leemstraat,100,51.1280188421,3.88066341852
9080,Lochristi,Heistraat,64,51.0795142074,3.89153569343
9080,Lochristi,Gaverveld,6,51.0993171356,3.89588257737
9080,Lochristi,Berkenstraat,73,51.1336504217,3.85675301738
9080,Lochristi,Bosdam,23,51.1355350328,3.87330797772
9080,Lochristi,Zaffelare-Dorp,9A,51.1327531674,3.864723621
9080,Lochristi,Dorp-Oost,24,51.0963830058,3.8355881381
9080,Lochristi,Azaleastraat,13,51.1355893523,3.85979731629
9080,Lochristi,Leemstraat,23,51.1348904063,3.87566405627
9080,Lochristi,Koning-Albertlaan,22,51.0980304462,3.83134937949
9080,Lochristi,Bevrijdingslaan,51,51.1064063661,3.830766022
9080,Lochristi,Bastelare,87,51.0976805991,3.89364223682
9080,Lochristi,Pauwstraat,25,51.098447079,3.8507161909
9080,Lochristi,Sint-Elooistraat,17,51.1065795937,3.89944453825
9080,Lochristi,Dorp-Oost,121,51.0994925557,3.84518491378
9080,Lochristi,Boekweitlaan,24,51.0970411111,3.82276731184
9080,Lochristi,Koning Leopold III-laan,21,51.1002606716,3.83284310376
9080,Lochristi,Sint-Elooistraat,132,51.0984598838,3.89638347462
9080,Lochristi,Berkenstraat,91,51.1330040604,3.85568230377
9080,Lochristi,Canadastraat,20,51.1357952763,3.85923143234
9080,Lochristi,Beukendreef,80,51.0831005616,3.82095539324
9080,Lochristi,Bommel,5,51.142339137,3.84710533694
9080,Lochristi,Oude Veldstraat,151,51.1205041631,3.86036188491
9080,Lochristi,Boskapellaan,56,51.0881878172,3.8508209853
9080,Lochristi,Reinaertlaan,20,51.0876150666,3.85471523875
9080,Lochristi,Berkenstraat,55,51.1340841295,3.85766521131
9080,Lochristi,Heistraat,46,51.0791890725,3.88878614007
9080,Lochristi,Dorp-West,101,51.0937738415,3.82471023827
9080,Lochristi,Dekenijstraat,4,51.0957781619,3.83315151568
9080,Lochristi,Hospitaalstraat,8,51.0789877865,3.87582419314
9080,Lochristi,Lieskensakker,4,51.1027369215,3.83882842242
9080,Lochristi,Rechtstraat,151,51.1239525664,3.83835630073
9080,Lochristi,Zeveneken-Dorp,71,51.1076777891,3.89716889551
9080,Lochristi,Stationsstraat,16A,51.0914077425,3.8268798354
9080,Lochristi,Rietveldstraat,21,51.0645480411,3.86457904783
9080,Lochristi,Ruilare,184,51.1106426949,3.8691352974
9080,Lochristi,Persijzerstraat,84,51.1280622945,3.89061013756
9080,Lochristi,Oud-Hoflaan,32,51.1013813633,3.82568802974
9080,Lochristi,Oude Veldstraat,205,51.1228165519,3.87078504407
9080,Lochristi,Kapelaanwegel,5,51.0856319522,3.85229645772
9080,Lochristi,Molenberglaan,5,51.0782094638,3.88603494982
9080,Lochristi,Ommegangstraat,43,51.086395678,3.8514993386
9080,Lochristi,Ledebeekweg,178,51.0866350756,3.85915104958
9080,Lochristi,Sint-Elooistraat,35,51.1057332762,3.89944259943
9080,Lochristi,Haanhoutstraat,51,51.0794445277,3.86688774176
9080,Lochristi,Rechtstraat,65,51.1284884737,3.8487098782
9080,Lochristi,Hijftestraat,38,51.0978743154,3.82048042865
9080,Lochristi,Oude Veldstraat,12,51.1163334944,3.84261017728
9080,Lochristi,Koedreef,11,51.1314498499,3.8547654594
9080,Lochristi,Rietveldstraat,56,51.0625288168,3.86300379153
9080,Lochristi,Toleindestraat,226,51.0814314346,3.90437222701
9080,Lochristi,Dijkgracht,18,51.1333265888,3.86979081922
9080,Lochristi,Beeweg,8,51.1257217692,3.88091264551
9080,Lochristi,Oude Veldstraat,65,51.1183247105,3.84955408186
9080,Lochristi,Doornzelestraat,35,51.1116944931,3.81016141278
9080,Lochristi,Kijkdorp,12,51.0785454495,3.87428026455
9080,Lochristi,Langenakkerlaan,13,51.0985392106,3.85464325765
9080,Lochristi,Pensionaatstraat,2,51.080889033,3.85695593758
9080,Lochristi,Eikstraat,34,51.099389222,3.88262009585
9080,Lochristi,Sint-Elooistraat,88,51.1012961425,3.89777084589
9080,Lochristi,Lichtelarestraat,30,51.0878394811,3.81654912846
9080,Lochristi,Azalealaan,24,51.0936309864,3.81792113446
9080,Lochristi,Zavel,55,51.1077134105,3.89075701959
9080,Lochristi,Denen,7,51.1000556716,3.84708368982
9080,Lochristi,Kasselstraat,25,51.1371789925,3.865454197
9080,Lochristi,Kallestraat,6,51.1106121418,3.89638193239
9080,Lochristi,Toleindestraat,208,51.0808024773,3.90039151839
9080,Lochristi,Begoniastraat,9,51.134443318,3.8601636772
9080,Lochristi,Pauwstraat,122,51.0951859173,3.85747243904
9080,Lochristi,Doornzelestraat,17,51.1155461825,3.81238789166
9080,Lochristi,Dorp-Oost,156,51.0990369921,3.84524568655
9080,Lochristi,Toleindestraat,73,51.0808263203,3.88858312966
9080,Lochristi,Zeveneken-Dorp,53,51.1077193281,3.89850169878
9080,Lochristi,Kapelleken,29,51.0956990496,3.82621946537
9080,Lochristi,Burgemeester-Vermeulenlaan,48,51.1001441991,3.83531030509
9080,Lochristi,Stationsstraat,8,51.091981208,3.82648037226
9080,Lochristi,Bijlokelaan,33,51.0990459783,3.82318463887
9080,Lochristi,Dorp-Oost,103,51.0993116565,3.84321308051
9080,Lochristi,Oude Veldstraat,83,51.1189608712,3.85181164136
9080,Lochristi,Gaverveld,27,51.0993251082,3.89356901447
9080,Lochristi,Pauwstraat,146,51.0931695677,3.86218049495
9080,Lochristi,Zavel,20,51.1076930186,3.88759430609
9080,Lochristi,Tollekenswegel,39,51.0816563197,3.89497857082
9080,Lochristi,Molenstraat,50,51.1202272828,3.8563207236
9080,Lochristi,Rechtstraat,133,51.1247789413,3.84078938744
9080,Lochristi,Kouter,25,51.1052464315,3.82866046324
9080,Lochristi,Sint-Elooistraat,63,51.100989498,3.89859784786
9080,Lochristi,Oude Veldstraat,9,51.1154422718,3.83613918065
9080,Lochristi,Beeweg,48,51.1240380717,3.87247654544
9080,Lochristi,Nieuwstraat,50,51.0890445701,3.82083460776
9080,Lochristi,Hoekskensstraat,110,51.1100636077,3.83835262895
9080,Lochristi,Veldstraat,32,51.1071918925,3.80624091619
9080,Lochristi,Bastelare,120,51.0945584105,3.88102007178
9080,Lochristi,Dekenijstraat,34,51.0931274061,3.83278029787
9080,Lochristi,Oude Veldstraat,251,51.1249323468,3.87956059237
9080,Lochristi,Roosbroeklaan,8,51.08743562,3.8534928903
9080,Lochristi,Zeveneken-Dorp,114,51.1067482318,3.89170455212
9080,Lochristi,Bosstraat,28,51.1062908075,3.8448709886
9080,Lochristi,Pauwstraat,51,51.0972028695,3.85488320394
9080,Lochristi,Bastelare,102,51.0968251891,3.89111971219
9080,Lochristi,Rechtstraat,20,51.1299643861,3.85320720276
9080,Lochristi,Kapelleken,40,51.0954428704,3.82179881759
9080,Lochristi,Clivialaan,8,51.0925578574,3.82489780227
9080,Lochristi,Hospitaalstraat,21,51.0782015903,3.87629481266
9080,Lochristi,Bevrijdingslaan,25,51.1062409581,3.82767476158
9080,Lochristi,Doornikstraat,21B,51.085397217,3.81006909117
9080,Lochristi,Bijlokelaan,6,51.0985479347,3.82072794029
9080,Lochristi,Kasselstraat,5,51.1348854523,3.86631396309
9080,Lochristi,Bochtenstraat,10,51.070341295,3.84062624205
9080,Lochristi,Denen,79,51.1027540627,3.85872657522
9080,Lochristi,Zeveneken-Dorp,132,51.1074093753,3.88242628605
9080,Lochristi,Brandstraat,24,51.071345097,3.86002150655
9080,Lochristi,Sint-Elooistraat,45,51.1050998519,3.89956260317
9080,Lochristi,Parelhoenstraat,19,51.0979562434,3.84962337051
9080,Lochristi,Bosdreef,47,51.0917592818,3.84261426586
9080,Lochristi,Hellestraat,2,51.1337688547,3.86699143998
9080,Lochristi,Lieskensakker,25,51.101938644,3.83895681716
9080,Lochristi,Kapiteinsstraat,15,51.1176513496,3.83201695134
9080,Lochristi,Berkenstraat,30,51.1329321881,3.85695574844
9080,Lochristi,Steenakkerlaan,28,51.0949619245,3.8553005071
9080,Lochristi,Stationsstraat,48,51.089005081,3.8286309985
9080,Lochristi,Haanhoutstraat,25,51.079636748,3.87133418504
9080,Lochristi,Rivierstraat,28,51.0761945893,3.88125038311
9080,Lochristi,Boskapellaan,82,51.0888356095,3.85469698689
9080,Lochristi,Windgat,20,51.1366010165,3.8299219377
9080,Lochristi,Populierenhof,3,51.0893163082,3.81959620838
9080,Lochristi,Kastanjedreef,23,51.0815137509,3.8296898285
9080,Lochristi,Vaarlaars,79,51.1011628623,3.8375895817
9080,Lochristi,Leemstraat,66,51.1307585956,3.87867237204
9080,Lochristi,Nerenhoek,49,51.1320237428,3.83851994229
9080,Lochristi,Dorp-Oost,70,51.0979141057,3.84038699159
9080,Lochristi,Ommegangstraat,86,51.0863738608,3.85362274917
9080,Lochristi,Hijftestraat,109,51.1065142608,3.81341166411
9080,Lochristi,Sint-Baafsdreef,2,51.0870239214,3.8299359665
9080,Lochristi,Molenstraat,22,51.1256789236,3.85692981355
9080,Lochristi,Sparrenlaan,2,51.0854819872,3.80156924476
9080,Lochristi,Dorpsstraat,74,51.102491275,3.83527998789
9080,Lochristi,Rechtstraat,115,51.1269405373,3.84236675465
9080,Lochristi,Oosteinde,9,51.1335806109,3.86523346156
9080,Lochristi,Sint-Elooistraat,81,51.0989874881,3.89715849109
9080,Lochristi,Heistraat,21,51.0790442656,3.88598824509
9080,Lochristi,Koning-Albertlaan,67,51.101044981,3.82923447511
9080,Lochristi,Ledebeekweg,145,51.086603529,3.85651440348
9080,Lochristi,Esdoornlaan,28,51.0871329916,3.82379444612
9080,Lochristi,Doornikstraat,10,51.0865243069,3.80744333667
9080,Lochristi,Hoekstraat,22,51.1093717494,3.90039811144
9080,Lochristi,Tuinwijk,24,51.1103081034,3.90025608429
9080,Lochristi,Smalle Heerweg,205,51.0898862209,3.80281107446
9080,Lochristi,Burgemeester-Vermeulenlaan,13,51.0983788672,3.83557411512
9080,Lochristi,Pauwstraat,5,51.0992841405,3.84728630371
9080,Lochristi,Platanendreef,1,51.0842684763,3.82920255924
9080,Lochristi,Ledebeekweg,181,51.0869147984,3.85864775063
9080,Lochristi,Elf-Novemberlaan,31,51.1039592714,3.83099932117
9080,Lochristi,Ruilare,131,51.1129523903,3.87563427736
9080,Lochristi,Smalle Heerweg,148,51.0901708867,3.8021326311
9080,Lochristi,Bochtenstraat,8,51.0708893627,3.84247772245
9080,Lochristi,Berkenstraat,12,51.1342958582,3.85973638225
9080,Lochristi,Goed ten Pauw,15,51.0949845288,3.85382393093
9080,Lochristi,Ommegangstraat,68,51.0859797416,3.85151692084
9080,Lochristi,Voordestraat,28,51.0855626333,3.81273788528
9080,Lochristi,Koning-Albertlaan,101,51.1035365106,3.826535394
9080,Lochristi,Dorp-West,39,51.0954517635,3.83136970186
9080,Lochristi,Nieuwstraat,15,51.0894444125,3.82371030638
9080,Lochristi,Smalle Heerweg,44,51.0935432528,3.81377522695
9080,Lochristi,Bijlokelaan,43,51.099131921,3.8240819073
9080,Lochristi,Kerkstraat,42,51.1286128294,3.86359611362
9080,Lochristi,Kloosterstraat,22,51.0778336136,3.87522716125
9080,Lochristi,Ruilare,62,51.1169430769,3.88732668283
9080,Lochristi,Hoogbastelare,1,51.0980955985,3.89473285011
9080,Lochristi,Hoogstraat,11,51.0696694665,3.85189789856
9080,Lochristi,Heistraat,56,51.0793364494,3.89034765083
9080,Lochristi,Nerenhoek,67,51.1328470744,3.83557155642
9080,Lochristi,Kluizestraat,14,51.1333350068,3.86844391521
9080,Lochristi,Ruilare,148,51.1125546373,3.87380928968
9080,Lochristi,Ledebeekweg,163,51.0874117916,3.85787603226
9080,Lochristi,Denen,141,51.1055469032,3.86565438366
9080,Lochristi,Burgemeester-Vermeulenlaan,31,51.0995091226,3.83499161
9080,Lochristi,Dekenijstraat,16,51.0950817098,3.83329438351
9080,Lochristi,Hoekskensstraat,4,51.0998032854,3.84447117963
9080,Lochristi,Loboslaan,26,51.0902625553,3.84813842816
9080,Lochristi,Persijzerstraat,23,51.1273318157,3.88488049454
9080,Lochristi,Kerkstraat,60,51.1258396386,3.86525477216
9080,Lochristi,Smalle Heerweg,166,51.0913108473,3.79627518843
9080,Lochristi,Ruilare,113,51.1138114064,3.87892608974
9080,Lochristi,Kerkstraat,34,51.1292415546,3.86301733237
9080,Lochristi,Palingstraat,14,51.0914723961,3.81132351096
9080,Lochristi,Molenberglaan,33,51.0789288296,3.89077749206
9080,Lochristi,Smalle Heerweg,62,51.0932749581,3.81124395019
9080,Lochristi,Bosakkers,76,51.0909119698,3.84660190792
9080,Lochristi,Voordestraat,74,51.0814275922,3.80362257428
9080,Lochristi,Kloosterstraat,57,51.0769095575,3.87308662159
9080,Lochristi,Nieuwstraat,33,51.0888169279,3.82115556494
9080,Lochristi,Dahlialaan,18,51.089636851,3.80444198312
9080,Lochristi,Boskapellaan,64,51.0883870172,3.85178549666
9080,Lochristi,Burgemeester-Vermeulenlaan,66,51.1008913736,3.83465561766
9080,Lochristi,Lijsterbeslaan,25,51.0837091726,3.82117918915
9080,Lochristi,Denen,113,51.1041379669,3.86401043927
9080,Lochristi,Bastelare,60,51.0974070261,3.89800968434
9080,Lochristi,Denen,26,51.1000952814,3.84958523028
9080,Lochristi,Oude-Boomgaardlaan,27,51.1008994906,3.82775049604
9080,Lochristi,Moleneinde,37,51.1307352622,3.85665649056
9080,Lochristi,Tuinwijk,59,51.1098787492,3.89780401033
9080,Lochristi,Oude-Boomgaardlaan,10,51.1010936278,3.82729381609
9080,Lochristi,Hellestraat,13,51.1325320609,3.86722143193
9080,Lochristi,Ledebeekweg,92,51.0859171503,3.85290759252
9080,Lochristi,Rietveldstraat,18,51.0667066446,3.86532748883
9080,Lochristi,Cootveld,11,51.0762414781,3.91473537563
9080,Lochristi,Stationsstraat,1,51.0941191949,3.82548977154
9080,Lochristi,Pauwstraat,129,51.0957996447,3.87169393909
9080,Lochristi,Sint-Elooistraat,114,51.1004512739,3.8972763772
9080,Lochristi,Doornzelestraat,45,51.1181574751,3.81858474115
9080,Lochristi,Haanhoutstraat,96,51.0765741204,3.84840887712
9080,Lochristi,Bommelslaan,5,51.0895721372,3.85677838711
9080,Lochristi,Dorpsstraat,28,51.1007016077,3.83012217006
9080,Lochristi,Hanselaarstraat,14,51.08011669,3.90284133876
9080,Lochristi,Rechtstraat,168,51.1243339542,3.83693371239
9080,Lochristi,Kanunnik Petrus Jozef Triestlaan,31,51.1356024859,3.86090702478
9080,Lochristi,Ertbuerhoek,23,51.0675105752,3.86626373187
9080,Lochristi,Hijfte-Center,38,51.1109787701,3.81168006814
9080,Lochristi,Reinaertstraat,11,51.0649866381,3.8658261614
9080,Lochristi,Lindestraat,24,51.1210303008,3.82377085376
9080,Lochristi,Bastelare,42,51.097334173,3.90050881329
9080,Lochristi,Parochiedreef,7,51.0789391273,3.87319828376
9080,Lochristi,Reinaertlaan,19,51.0877569274,3.85521408821
9080,Lochristi,Zaffelare-Dorp,73,51.1317806383,3.86002004591
9080,Lochristi,Leemstraat,117,51.1265629919,3.88223077944
9080,Lochristi,Tomboslaan,3,51.0953328283,3.85851848994
9080,Lochristi,Rivierstraat,74,51.070592786,3.8809253068
9080,Lochristi,Sparrenlaan,31,51.0826618642,3.80542299797
9080,Lochristi,Beervelde-Dorp,47,51.0804105785,3.87765840304
9080,Lochristi,Beervelde-Dorp,81,51.080265563,3.87973172222
9080,Lochristi,Posthoornlaan,7,51.089381067,3.85875990586
9080,Lochristi,Brandstraat,59,51.0668122203,3.85301467343
9080,Lochristi,Beeweg,1,51.1257625187,3.88235894905
9080,Lochristi,Haanhoutstraat,78,51.078172131,3.85632392918
9080,Lochristi,Lichtelarestraat,53G,51.0852458795,3.81843937687
9080,Lochristi,Hellestraat,31,51.1320017459,3.86638193552
9080,Lochristi,Busstraat,12,51.1322178425,3.82394338582
9080,Lochristi,Persijzerstraat,110,51.1288474727,3.89433445305
9080,Lochristi,Langenakkerlaan,41,51.0979592776,3.85767527772
9080,Lochristi,Distelweg,3,51.1320624873,3.86951557366
9080,Lochristi,Nerenhoek,14,51.1293787272,3.84480115767
9080,Lochristi,Tomboslaan,29,51.0949484569,3.86066536494
9080,Lochristi,Hijftestraat,58,51.0995565069,3.8196835119
9080,Lochristi,Smalle Heerweg,80,51.0925109812,3.81036989208
9080,Lochristi,Beervelde-Dorp,63,51.0802156371,3.87866081168
9080,Lochristi,Kijkdorp,9,51.0781385922,3.87352682761
9080,Lochristi,Zaffelare-Dorp,55,51.1321083301,3.86126425746
9080,Lochristi,Dorp-West,128,51.0951502105,3.8266178218
9080,Lochristi,Antwerpse Steenweg,16,51.0930295516,3.82006881894
9080,Lochristi,Hanselaarstraat,39,51.072490992,3.89988462461
9080,Lochristi,Kapelleken,32,51.0955240612,3.822676941
9080,Lochristi,Kanunnik Petrus Jozef Triestlaan,13,51.1345115969,3.86117960813
9080,Lochristi,Langenakkerlaan,4,51.0979030784,3.85374029327
9080,Lochristi,Slagmanstraat,25,51.1093393796,3.86847564811
9080,Lochristi,Moleneinde,19,51.1310640479,3.85764648949
9080,Lochristi,Fazantenstraat,12,51.0961145531,3.85187275704
9080,Lochristi,Toleindestraat,116,51.0805405409,3.88961853892
9080,Lochristi,Magretstraat,52,51.0651199459,3.87021093796
9080,Lochristi,Beerveldse Baan,18,51.0973101607,3.87542457567
9080,Lochristi,Bosdam,38,51.1367248042,3.87476916359
9080,Lochristi,Zavel,19,51.1082087,3.88765683096
9080,Lochristi,Hijftestraat,94,51.1060068931,3.81622283768
9080,Lochristi,Kantschoolweg,8,51.1095687801,3.89804445376
9080,Lochristi,Hospitaalstraat,1,51.0795614047,3.87630434667
9080,Lochristi,Beeweg,56,51.1234577622,3.87104832593
9080,Lochristi,Persijzerstraat,4,51.1257375994,3.88279102654
9080,Lochristi,Kallestraat,10,51.1106467779,3.89609698633
9080,Lochristi,Acacialaan,6,51.0831158512,3.81902370956
9080,Lochristi,Antwerpse Steenweg,69,51.0893338922,3.81179901255
9080,Lochristi,Antwerpse Steenweg,121,51.0866824786,3.80394950394
9080,Lochristi,Doornikstraat,27,51.0848846799,3.80959894813
9080,Lochristi,Ooievaarsweg,4,51.096103922,3.85102605643
9080,Lochristi,Toleindestraat,169,51.0815567093,3.90228914392
9080,Lochristi,Hoekskensstraat,119,51.1151342776,3.83541491336
9080,Lochristi,Toleindestraat,37,51.0805462374,3.8848008599
9080,Lochristi,Magerakkerlaan,16,51.0970610586,3.85625651325
9080,Lochristi,Graslaan,3A,51.0990031541,3.82469628901
9080,Lochristi,Bisschop-Pieter-Damantlaan,6,51.0871350626,3.84794983245
9080,Lochristi,Hijftestraat,23,51.0975053295,3.82003848591
9080,Lochristi,Oude Veldstraat,168,51.1246188693,3.88297291152
9080,Lochristi,Hoogbastelare,12,51.0987208978,3.89464971366
9080,Lochristi,Ommegangstraat,5,51.0868678519,3.84584274206
9080,Lochristi,Denen,97,51.103364746,3.861830588
9080,Lochristi,Dorp-Oost,52,51.0977469158,3.83958542877
9080,Lochristi,Oud-Hoflaan,29,51.1006155427,3.82591278023
9080,Lochristi,Zavel,37,51.1082096009,3.88913827526
9080,Lochristi,Ruilare,7,51.1206924996,3.89872583993
9080,Lochristi,Vitsakkerlaan,4,51.0984068706,3.85321567126
9080,Lochristi,Vossenstraat,2,51.059972515,3.86544805533
9080,Lochristi,Dam,1,51.1352664822,3.86987656874
9080,Lochristi,Oude Veldstraat,133,51.1201777014,3.85863493202
9080,Lochristi,Koning-Albertlaan,39,51.0992003305,3.82988146991
9080,Lochristi,Ledeakkerstraat,1,51.081418751,3.87345361217
9080,Lochristi,Berkenstraat,37,51.1345385212,3.85795699105
9080,Lochristi,Antwerpse Steenweg,87,51.0883964636,3.80950748054
9080,Lochristi,Azaleastraat,4,51.1352268419,3.86061464013
9080,Lochristi,Beervelde-Dorp,45,51.0802198423,3.87746675174
9080,Lochristi,Krommendonck,6,51.1356881454,3.86293906369
9080,Lochristi,Dorpsstraat,107,51.1035109869,3.83673411517
9080,Lochristi,Graslaan,5,51.0988227472,3.8248140237
9080,Lochristi,Beervelde-Dorp,11,51.0801236271,3.87403684453
9080,Lochristi,Rechtstraat,186,51.1235834963,3.83552428615
9080,Lochristi,Zaffelare-Dorp,20,51.1322785937,3.86026378671
9080,Lochristi,Populierenhof,31,51.0903710767,3.81936245134
9080,Lochristi,Toleindestraat,144,51.080528091,3.89220564358
9080,Lochristi,Denen,62,51.10269521,3.86142450707
9080,Lochristi,Boskapellaan,47,51.0874054512,3.84943890044
9080,Lochristi,Hoekskensstraat,23,51.1005715857,3.84259374222
9080,Lochristi,Heistraat,25A,51.079189837,3.88645951688
9080,Lochristi,Steenakkerlaan,21,51.0940812615,3.85581563559
9080,Lochristi,Heistraat,2,51.0781293702,3.88237768825
9080,Lochristi,Bastelare,24,51.0974454812,3.90099136318
9080,Lochristi,Zeveneken-Dorp,27,51.1076450182,3.89975241884
9080,Lochristi,Stationsstraat,100,51.0853206921,3.83155761514
9080,Lochristi,Oude Veldstraat,172B,51.1260404835,3.89153672146
9080,Lochristi,Oudstrijderslaan,12,51.1043776118,3.8333516656
9080,Lochristi,Cijnsakkerweg,1,51.0853475696,3.81209904679
9080,Lochristi,Heistraat,28,51.0786613441,3.88572748231
9080,Lochristi,Denen,44,51.10098718,3.85303363515
9080,Lochristi,Oud-Hoflaan,40,51.1012431092,3.82500376539
9080,Lochristi,Molenberglaan,49,51.0795722722,3.893897411
9080,Lochristi,Dam,100,51.1472340811,3.85854831163
9080,Lochristi,Vaarlaars,6,51.1027772535,3.84024614741
9080,Lochristi,Bisschop-Pieter-Damantlaan,25,51.0872814014,3.8516708183
9080,Lochristi,Bosdreef,64,51.0905966138,3.84242721288
9080,Lochristi,Reigersstraat,9,51.0605521925,3.8430343273
9080,Lochristi,Busstraat,9,51.133858406,3.8276787565
9080,Lochristi,Bastelare,137,51.0965467108,3.88625531844
9080,Lochristi,Hoekskensstraat,109,51.1146890464,3.83613047335
9080,Lochristi,Beukendreef,7,51.0844387625,3.83054871985
9080,Lochristi,Nieuwstraat,49,51.0881643198,3.81839123016
9080,Lochristi,Pelikaanweg,23,51.097198165,3.85106920261
9080,Lochristi,Hortensialaan,47,51.0917987929,3.82465753599
9080,Lochristi,Zaffelare-Dorp,9,51.1322960656,3.86497270146
9080,Lochristi,Berkenstraat,19,51.1347560481,3.85889271484
9080,Lochristi,Pachtgoed,29,51.1328017652,3.85851613197
9080,Lochristi,Dorp-Oost,69,51.0982779484,3.8392759162
9080,Lochristi,Populierenhof,13,51.0892732692,3.81834565137
9080,Lochristi,Slagmanstraat,61,51.1189409652,3.86316364698
9080,Lochristi,Krommendonck,25,51.1374574461,3.864731941
9080,Lochristi,Boskapellaan,107,51.0892069906,3.85617490754
9080,Lochristi,Sint-Elooistraat,98,51.1010654965,3.89802158379
9080,Lochristi,Beeweg,74,51.1226250267,3.86857871048
9080,Lochristi,Reinaertstraat,8,51.0650667179,3.86502227242
9080,Lochristi,Beukendreef,54,51.0841293088,3.82477276905
9080,Lochristi,Kerkstraat,103,51.1234576281,3.86697874284
9080,Lochristi,Smalle Heerweg,141,51.0919118392,3.8095300071
9080,Lochristi,Nerenhoek,50,51.1324302363,3.83882378107
9080,Lochristi,Dorp-West,49,51.0955535797,3.8309091546
9080,Lochristi,Burgemeester-Vermeulenlaan,38,51.0996613165,3.83567029401
9080,Lochristi,Bastelare,119,51.0978835642,3.89041196522
9080,Lochristi,Rostijnenstraat,8,51.1102997945,3.80683415561
9080,Lochristi,Koning-Albertlaan,182,51.1091401837,3.81858879099
9080,Lochristi,Pauwstraat,68,51.0974861933,3.85238767514
9080,Lochristi,Ruilare,141,51.1123804998,3.87464153426
9080,Lochristi,Persijzerstraat,41,51.1278136065,3.88800436968
9080,Lochristi,Kloosterstraat,29,51.0778240376,3.87728396981
9080,Lochristi,Cootveld,8,51.0797846741,3.91363560836
9080,Lochristi,Dahlialaan,47,51.0891512618,3.8042918281
9080,Lochristi,Fazantenstraat,9,51.0959427806,3.85236758203
9080,Lochristi,Kapelstraat,14,51.1219624442,3.8639060121
9080,Lochristi,Koedreef,2,51.1306130458,3.85442879005
9080,Lochristi,Heistraat,25C,51.0793852323,3.88671708118
9080,Lochristi,Toverstraat,3,51.0822116453,3.87574416643
9080,Lochristi,Ommegangstraat,33,51.086158393,3.85011211471
9080,Lochristi,Ommegangstraat,128,51.0874806754,3.85728039125
9080,Lochristi,Smalle Heerweg,26,51.0945619535,3.81710621266
9080,Lochristi,Dorp-West,85,51.0947040866,3.82785306709
9080,Lochristi,Bommelslaan,15,51.0887420256,3.85767653884
9080,Lochristi,Doornzelestraat,8,51.1120964547,3.81036482237
9080,Lochristi,Koning-Albertlaan,50,51.0995325895,3.83035976237
9080,Lochristi,Koning-Albertlaan,164,51.1086403474,3.82155819131
9080,Lochristi,Kerkstraat,59,51.1276179672,3.8653092025
9080,Lochristi,Stationsstraat,74,51.0876298287,3.82847059271
9080,Lochristi,Magretstraat,69,51.0669274758,3.87053053248
9080,Lochristi,Beukendreef,90,51.0827395589,3.81950450596
9080,Lochristi,Vossenstraat,1C,51.05975173,3.86498184425
9080,Lochristi,Ruilare,79,51.1157208047,3.88401769495
9080,Lochristi,Brandstraat,4,51.0763381613,3.8693214183
9080,Lochristi,Stationsstraat,92,51.0867127827,3.83030435409
9080,Lochristi,Ruilare,26,51.1186904216,3.89380871165
9080,Lochristi,Molenstraat,29,51.1233812393,3.85532888541
9080,Lochristi,Oude Veldstraat,143,51.1203310554,3.85959406498
9080,Lochristi,Dam,28,51.1368987389,3.86808303664
9080,Lochristi,Smalle Heerweg,79,51.0935656789,3.81531634291
9080,Lochristi,Kasteeldreef,23,51.0899686552,3.83084399161
9080,Lochristi,Bosstraat,56,51.1085210871,3.85043762381
9080,Lochristi,Pauwstraat,86,51.0971821431,3.85338633388
9080,Lochristi,Ledebeekweg,135,51.0864391704,3.85596713966
9080,Lochristi,Koning Leopold III-laan,24A,51.0997490068,3.83357435343
9080,Lochristi,Dorp-West,67,51.0952688981,3.83012072289
9080,Lochristi,Soldatenhoek,7,51.0983376667,3.89107301817
9080,Lochristi,Koning-Albertlaan,118,51.1050502187,3.82564588936
9080,Lochristi,Kerkstraat,121,51.1220336783,3.86678490451
9080,Lochristi,Sint-Niklaaslaan,18,51.0952609303,3.83125212353
9080,Lochristi,Verleydonckstraat,32,51.1129276603,3.81765472416
9080,Lochristi,Dahlialaan,11,51.0902205032,3.8071921966
9080,Lochristi,Esdoornlaan,56,51.085947342,3.82117428106
9080,Lochristi,Koning-Albertlaan,146,51.1075766225,3.82296425508
9080,Lochristi,Schoolstraat,54,51.0987599586,3.82699402547
9080,Lochristi,Voordestraat,21,51.0854038402,3.81343468471
9080,Lochristi,Haanhoutstraat,112,51.0761652776,3.846349359
9080,Lochristi,Sint-Elooistraat,124,51.0991066782,3.89648273633
9080,Lochristi,Sint-Niklaaslaan,46,51.0941272585,3.83165298673
9080,Lochristi,Graslaan,15,51.098373718,3.8251400264
9080,Lochristi,Bevrijdingslaan,43,51.1070101595,3.82985951847
9080,Lochristi,Ledebeekweg,117,51.0860923253,3.85448903865
9080,Lochristi,Hortensialaan,11,51.0931524523,3.82385784538
9080,Lochristi,Lieskensakker,43,51.0999771523,3.84066294385
9080,Lochristi,Kerkwegelakker,32,51.0935022543,3.83673636531
9080,Lochristi,Bosdreef,82,51.089215581,3.84346656268
9080,Lochristi,Magretstraat,87,51.0646742556,3.871102871
