PKANCODE,COMMUNE_NL,STREET_NL,HUISNR,LAT,LON
9120,Beveren,Melkaderlaan,25,51.2527487671,4.2726792998
9120,Beveren,Peperdam,5,51.223542798,4.1946287782
9120,Beveren,Eximius Van de Veldelaan,24,51.2117598043,4.24616794053
9120,Beveren,Keizerstraat,96,51.1820227071,4.24559589965
9120,Beveren,Fabriekstraat,17,51.2531751284,4.27661000376
9120,Beveren,Bankstraat,7,51.1789177354,4.23058960023
9120,Beveren,Begoniastraat,3,51.2228726561,4.25977388355
9120,Beveren,Broekstraat,2B,51.2303589286,4.25767191273
9120,Beveren,Klapperstraat,187,51.2154439,4.24522261704
9120,Beveren,Lindenlaan,147,51.2139625029,4.23332663613
9120,Beveren,Molenbeekweg,29,51.2175953704,4.28638121206
9120,Beveren,Eglantierlaan,1,51.2238928029,4.25769423553
9120,Beveren,Polderdreef,17,51.2234749053,4.25230697292
9120,Beveren,Bergmolenstraat,39,51.2303687531,4.28059198239
9120,Beveren,Kallobaan,44,51.2168262439,4.25976774397
9120,Beveren,Piet Stautstraat,62,51.2047900442,4.25862798298
9120,Beveren,Frambozenlaan,1,51.2142220936,4.28609746063
9120,Beveren,Fruithoflaan,36,51.217902953,4.18749956467
9120,Beveren,Sint-Martenslaan,27,51.2114264589,4.24911474892
9120,Beveren,Yzerhand,74,51.21725479,4.25079358587
9120,Beveren,Spoorweglaan,53,51.217894341,4.28197004641
9120,Beveren,Albert Panisstraat,82,51.2080385382,4.24559470258
9120,Beveren,Bergstraat,51,51.1748544552,4.23554079152
9120,Beveren,Priemstraat,17,51.2006116922,4.29749305643
9120,Beveren,Stijn Streuvelslaan,29,51.204613875,4.24605440544
9120,Beveren,Leeuwerikenlaan,16,51.2317488904,4.27468135263
9120,Beveren,Gaverlandstraat,109,51.2253563627,4.26990690381
9120,Beveren,Kruibekesteenweg,56,51.2064309377,4.26015103114
9120,Beveren,Fruithoflaan,18,51.217512987,4.18799842646
9120,Beveren,Lesseliersdreef,59,51.206354106,4.24911824011
9120,Beveren,Alexander Farnèselaan,19,51.2211099635,4.27511488289
9120,Beveren,Vlaamse-gaailaan,5,51.2320423629,4.27687351242
9120,Beveren,Kruibekesteenweg,198,51.2010001589,4.26483188627
9120,Beveren,Gaverlandstraat,127,51.2256171168,4.26872424357
9120,Beveren,Boomgaardstraat,8,51.2153852294,4.28184988126
9120,Beveren,Hertog Van Arenberglaan,31,51.212551171,4.24955222175
9120,Beveren,Grote Baan,102,51.2205656137,4.29537327731
9120,Beveren,Kallobaan,62,51.2173201488,4.25946475277
9120,Beveren,Gentseweg,4,51.2059313727,4.24124380617
9120,Beveren,Mosselbank,119,51.2208932399,4.21099660336
9120,Beveren,Schaarbeekstraat,4,51.1912934764,4.30002869436
9120,Beveren,Keizer Karelstraat,71,51.2217749779,4.27610262426
9120,Beveren,Elzestraat,15,51.2148116862,4.23211128861
9120,Beveren,Kardinaal Cardijnlaan,24,51.2150143655,4.28396866631
9120,Beveren,Dennenlaan,18,51.1800475325,4.21079585328
9120,Beveren,Piet Stautstraat,80,51.2043736465,4.25731689568
9120,Beveren,Jan Bekenshoek,2,51.2173998537,4.27595939925
9120,Beveren,Patrijzenstraat,6A,51.2370618482,4.27868454525
9120,Beveren,Geestdam,8,51.2281131705,4.25679310422
9120,Beveren,Perzikenlaan,15,51.2164311725,4.29342185157
9120,Beveren,Land van Waaslaan,3,51.260797731,4.24867640187
9120,Beveren,Kruisstraat,8,51.1847499198,4.21758457442
9120,Beveren,Yzerhand,56,51.2169713267,4.25127919237
9120,Beveren,Keizerstraat,114,51.1821720915,4.24663607903
9120,Beveren,Heiveldstraat,52,51.2228254881,4.24922007731
9120,Beveren,Keizer Karelstraat,53,51.2218596112,4.27686680281
9120,Beveren,Glazenleeuwstraat,41,51.2176708323,4.24807491877
9120,Beveren,Onze-Lieve-Vrouwstraat,25,51.2085400899,4.24242239893
9120,Beveren,Grote Baan,66,51.2205884276,4.298789371
9120,Beveren,Sint-Elisabethstraat,64,51.2210077138,4.28727997978
9120,Beveren,Polderdreef,35,51.224340128,4.25175801659
9120,Beveren,Blokmakerstraat,68,51.1799344963,4.24456571991
9120,Beveren,Grote Markt,4,51.2127303409,4.25632162871
9120,Beveren,Windmolenstraat,50,51.216526557,4.20949910796
9120,Beveren,Spoorweglaan,71,51.2173126008,4.28207889116
9120,Beveren,Lindenlaan,165,51.2130592865,4.23209722038
9120,Beveren,Kloosterstraat,26,51.2142953368,4.25884567837
9120,Beveren,Adolf Van Bourgondiëlaan,41,51.2134351041,4.24992277731
9120,Beveren,Bremstraat,6,51.2256855227,4.26090508799
9120,Beveren,Armand Preud'hommestraat,17,51.2098144132,4.22789985454
9120,Beveren,Zandstraat,108,51.1880000044,4.23585531739
9120,Beveren,Kromstraat,2,51.2216904664,4.23921050396
9120,Beveren,Kallobaan,80,51.2182335264,4.25895023902
9120,Beveren,Prosper Van Raemdonckstraat,51,51.216133164,4.24876512761
9120,Beveren,Klapperstraat,63,51.2108180952,4.24453131079
9120,Beveren,Jef van Hoofstraat,19,51.2126830645,4.23322529127
9120,Beveren,Stuurstraat,30,51.1881787696,4.234720848
9120,Beveren,Albert Panisstraat,100,51.2075499655,4.24459548594
9120,Beveren,Leon Labytstraat,31,51.219799844,4.24818122474
9120,Beveren,Melselestraat,60B,51.1866381079,4.24505043587
9120,Beveren,Kleine Kromstraat,2A,51.2173101617,4.24205957132
9120,Beveren,Ijzerstraat,15,51.2182294249,4.27763031615
9120,Beveren,Dambrugstraat,55,51.2233235783,4.28071455791
9120,Beveren,Tulpenstraat,21,51.2274065103,4.26380255592
9120,Beveren,Onze-Lieve-Vrouwstraat,1,51.2085010241,4.24347353659
9120,Beveren,Elzestraat,33,51.2220374211,4.22791278108
9120,Beveren,Vogelenzang,14,51.2104256672,4.24540125855
9120,Beveren,Jan Frans Willemsstraat,12,51.2066249861,4.24705019687
9120,Beveren,Vossenstraat,22,51.2198779141,4.29685416756
9120,Beveren,Bunderhof,55,51.1795722129,4.2370148039
9120,Beveren,Ropstraat,20,51.1805694295,4.22802930077
9120,Beveren,Hagedoornstraat,6,51.2231035984,4.24763037411
9120,Beveren,Perzikenlaan,33,51.2171389277,4.29372012859
9120,Beveren,Peter Benoitlaan,32,51.2094116407,4.23521650992
9120,Beveren,Van Groesbeekstraat,9,51.2594420441,4.27537333356
9120,Beveren,Gentseweg,353,51.1935887828,4.21541705102
9120,Beveren,Zandstraat,47C,51.1848877316,4.23698686178
9120,Beveren,Smisstraat,32,51.2202965737,4.1883877296
9120,Beveren,Hertog Van Arenberglaan,13,51.2115719306,4.25023059187
9120,Beveren,Reepdorp,22,51.2228843312,4.25090052319
9120,Beveren,Burggravenstraat,43,51.2229218788,4.2913253526
9120,Beveren,Victoriestraat,42,51.2525587541,4.27596868296
9120,Beveren,Alfons Van Puymbroecklaan,100,51.2280617373,4.28002326164
9120,Beveren,Zillebeek,11,51.2214430322,4.23373299364
9120,Beveren,Spoorweglaan,159,51.2137717095,4.2825794386
9120,Beveren,Priemstraat,35,51.1960718485,4.29305386418
9120,Beveren,Eglantierlaan,25,51.2246607834,4.25799745858
9120,Beveren,Spoorweglaan,214,51.2119493263,4.28487418278
9120,Beveren,Heirbaan,34,51.1862752947,4.25130409401
9120,Beveren,Albert Panisstraat,64,51.2083570191,4.24622333906
9120,Beveren,Kasteeldreef,160,51.2208096738,4.25407183122
9120,Beveren,Begoniastraat,27,51.2238149867,4.26015417019
9120,Beveren,Notelarenhof,59,51.2197166143,4.24747695603
9120,Beveren,Hazenhof,32,51.2131449079,4.27594547713
9120,Beveren,Vrasenestraat,58,51.2149479548,4.25330904608
9120,Beveren,Luitenant Van Eepoelstraat,75,51.2205754076,4.26306824754
9120,Beveren,Kalishoekstraat,215,51.2296688359,4.28782716094
9120,Beveren,Guldenvliesstraat,8,51.2228199151,4.27511533905
9120,Beveren,Bunderhof,3,51.1791281484,4.23886410322
9120,Beveren,Gaverlandwegel,28,51.2255809841,4.27366275898
9120,Beveren,Heirbaan,16,51.1832788531,4.2497403996
9120,Beveren,Glazenleeuwstraat,119,51.2189401272,4.24505424985
9120,Beveren,Pastoor Steenssensstraat,103,51.2100633551,4.23630750659
9120,Beveren,Gentseweg,92,51.2046853679,4.23832171346
9120,Beveren,Schaarbeekstraat,28,51.2048296601,4.31553437395
9120,Beveren,Gerard Van Gervenstraat,9,51.2138499621,4.25904206832
9120,Beveren,Meersenweg,70,51.223691361,4.26557021543
9120,Beveren,Stationsstraat,72,51.2096660306,4.25778456784
9120,Beveren,Klapperstraat,81,51.2112762195,4.24503296295
9120,Beveren,Cortewalledreef,7,51.2094086625,4.26267954648
9120,Beveren,Hennenneststraat,2,51.2262950731,4.29014296932
9120,Beveren,Kapeldijkstraat,3,51.254033159,4.2858077102
9120,Beveren,Schaarbeekstraat,26A,51.2024928477,4.31336439076
9120,Beveren,Hendrik Consciencestraat,53,51.2065382861,4.257073084
9120,Beveren,Mirabellenlaan,8,51.2120035279,4.28577522197
9120,Beveren,Gentseweg,28,51.205610207,4.24048431987
9120,Beveren,Tijmstraat,19,51.2267673643,4.26948221062
9120,Beveren,Levergem,49,51.2216758707,4.24500037073
9120,Beveren,Kalishoekstraat,72,51.2231603954,4.28425599995
9120,Beveren,Drie Lindekens,22,51.2166582458,4.24402765823
9120,Beveren,Koolputstraat,27,51.2305244257,4.26621030477
9120,Beveren,Vendoornstraat,63,51.2167377885,4.30571666419
9120,Beveren,Drie Lindekens,57,51.2181033734,4.24365770216
9120,Beveren,Stuurstraat,113A,51.1795841879,4.21387577043
9120,Beveren,Dambrugstraat,3,51.2219422771,4.28260625563
9120,Beveren,Hoog-Kallostraat,38,51.2533792422,4.28248443443
9120,Beveren,Zillebeek,46,51.2222090621,4.2289467168
9120,Beveren,Gentseweg,74,51.204853268,4.23897456698
9120,Beveren,Stijn Streuvelslaan,5,51.205360638,4.24851981516
9120,Beveren,Kallobaan,168,51.2214425299,4.25612412294
9120,Beveren,Pastoor Steenssensstraat,121,51.2105771055,4.23587918396
9120,Beveren,Alfons Van Puymbroecklaan,82,51.2265237864,4.28057385822
9120,Beveren,Kasteeldreef,25,51.2146987846,4.25658539401
9120,Beveren,Melkaderlaan,1,51.2519489211,4.2723715639
9120,Beveren,Luitenant Van Eepoelstraat,57,51.2193936015,4.26234925548
9120,Beveren,Alfons Van Puymbroecklaan,36,51.2241537733,4.2812407705
9120,Beveren,Melselestraat,59,51.1894717722,4.25256697554
9120,Beveren,Bijlstraat,70,51.2089738832,4.2457758393
9120,Beveren,Lodewijk de Vochtstraat,68,51.2079052909,4.23396358381
9120,Beveren,Molenbeekweg,5,51.2178567162,4.28478206428
9120,Beveren,Grote Markt,28,51.2138292824,4.25672056587
9120,Beveren,Heirbaan,69,51.1835417078,4.27408460475
9120,Beveren,Dijkstraat,154,51.2302363986,4.27240582243
9120,Beveren,Meersenweg,24,51.2246544669,4.2683037321
9120,Beveren,Hertenlaan,19,51.2305563898,4.27534744286
9120,Beveren,Van Craenenbroeckstraat,24,51.2206124377,4.24974027747
9120,Beveren,Veldstraat,10,51.1904908508,4.29383510646
9120,Beveren,Gentseweg,418,51.1934748601,4.2128345315
9120,Beveren,Bunderhof,73,51.178641833,4.23736133947
9120,Beveren,Zandstraat,47A,51.1848371912,4.2370454999
9120,Beveren,Beekstraat,25,51.2156498016,4.18631182956
9120,Beveren,Westakkerlaan,38,51.1919840927,4.20756844739
9120,Beveren,Stuurstraat,65,51.1872771742,4.22649033666
9120,Beveren,Haasdonkbaan,23,51.2051787629,4.24165722105
9120,Beveren,Boerenkrijglaan,19,51.1781312611,4.23677374461
9120,Beveren,Piet Stautstraat,44,51.2048713684,4.25987419489
9120,Beveren,Pastoor Verwilghenplein,32,51.1819903972,4.23988001427
9120,Beveren,Melselestraat,7,51.1825426726,4.24342699449
9120,Beveren,Wilhelmietenlaan,26,51.2126264268,4.24877037686
9120,Beveren,Zillebeek,117,51.2222757214,4.22256946553
9120,Beveren,Grote Baan,120,51.2204515912,4.29327557675
9120,Beveren,Haagstraat,40,51.2230812563,4.18290003583
9120,Beveren,Parmastraat,41,51.2086328218,4.29843450725
9120,Beveren,Dambrugstraat,73,51.2237802566,4.2795974831
9120,Beveren,Schuttershofstraat,3,51.218233827,4.25996241668
9120,Beveren,Perstraat,8,51.1804123298,4.23967784373
9120,Beveren,Kruibekesteenweg,110,51.2051606295,4.26157079412
9120,Beveren,Bunderhof,27,51.1797212709,4.23785297682
9120,Beveren,Gentstraat,11,51.2150739205,4.27948519486
9120,Beveren,Bosdamlaan,9,51.2092551595,4.25482686107
9120,Beveren,Beekstraat,1,51.2163591437,4.19025600854
9120,Beveren,Eikenlaan,8,51.2157984643,4.27910999645
9120,Beveren,Sint-Paulusplein,19,51.2518105001,4.27680718534
9120,Beveren,Klaveren Aas,51,51.2053294664,4.22640836028
9120,Beveren,Kallobaan,186,51.2219570769,4.2559884828
9120,Beveren,Dambrugstraat,27,51.2229079394,4.28167164859
9120,Beveren,Willem Elsschotlaan,19,51.2273083303,4.28409937904
9120,Beveren,Van Craenenbroeckstraat,70,51.221499758,4.2514449086
9120,Beveren,Stuurstraat,12,51.1883204337,4.23544419063
9120,Beveren,Doornpark,10,51.1980801641,4.21675387232
9120,Beveren,Ponjaardhoekstraat,1,51.2062906196,4.30092887987
9120,Beveren,Oude Dorpsstraat,15F,51.2186956568,4.19386032625
9120,Beveren,Koolputstraat,55,51.2296441767,4.26402045154
9120,Beveren,Stationsstraat,90,51.2091032967,4.25801184813
9120,Beveren,Drie Lindekens,75,51.2181436584,4.24316224065
9120,Beveren,Klapperstraat,224,51.217861548,4.24682338412
9120,Beveren,Tijmstraat,37,51.2259712525,4.27109918145
9120,Beveren,Kuiperstraat,15,51.179439259,4.24271782177
9120,Beveren,Laarstraat,9,51.2186255443,4.1549001758
9120,Beveren,Bisschop Triestlaan,28,51.2122939654,4.24790314276
9120,Beveren,Yzerhand,21,51.2154031157,4.25200700072
9120,Beveren,Alice Nahonlaan,33,51.2293175157,4.28349105811
9120,Beveren,Kleine Beekmolenstraat,4A,51.2087910566,4.29743861114
9120,Beveren,Eikenlaan,43,51.2144603278,4.27752914498
9120,Beveren,Sint-Martenslaan,7A,51.2116633224,4.25111517691
9120,Beveren,Vijverstraat,1,51.2191445624,4.15571391907
9120,Beveren,Bijlstraat,176,51.2073340908,4.24265802784
9120,Beveren,Sint-Annalaan,1,51.2861799833,4.28833967106
9120,Beveren,Pastoor Steenssensstraat,67,51.2086621283,4.23742446135
9120,Beveren,Melseledijk,96,51.2328197605,4.27044826198
9120,Beveren,Cretenborchlaan,2,51.2090441806,4.25340713968
9120,Beveren,Daalstraat,37,51.2178291046,4.19901458742
9120,Beveren,Kolkstraat,34,51.2167338291,4.19004877275
9120,Beveren,Kerkstraat,91,51.2096970652,4.19410443441
9120,Beveren,Gentseweg,181,51.2012847008,4.2325002377
9120,Beveren,Willem Van Doornyckstraat,108,51.1790463329,4.23165045919
9120,Beveren,Meidoornlaan,47,51.2086106967,4.25530564833
9120,Beveren,Sint-Elisabethstraat,36,51.2213986924,4.28453956654
9120,Beveren,Kasteeldreef,114,51.2195094285,4.25474370698
9120,Beveren,Ciamberlanidreef,19,51.2156218487,4.25389946192
9120,Beveren,Keizer Karelstraat,25,51.2229483985,4.27748260525
9120,Beveren,Snoeckstraat,8,51.2198022914,4.2946007091
9120,Beveren,Prosper Van Raemdonckstraat,23,51.216304006,4.25008109799
9120,Beveren,Lavendelstraat,35,51.2279518375,4.268820193
9120,Beveren,Grote Baan,310,51.2184510256,4.27433027361
9120,Beveren,Halfdreef,15,51.2226162751,4.253910392
9120,Beveren,Hagewindestraat,8,51.2273335552,4.25993272903
9120,Beveren,Jan Frans Faveletstraat,28,51.2576975382,4.27808458225
9120,Beveren,Sleutelhoflaan,17,51.2181267799,4.20064212376
9120,Beveren,Zandstraat,37,51.1843347744,4.23700214491
9120,Beveren,Lindenlaan,94,51.2162960736,4.23740808526
9120,Beveren,Daalstraat,19,51.2178390373,4.19798076836
9120,Beveren,Perstraat,61,51.1786285191,4.24064244621
9120,Beveren,Kruibekesteenweg,21,51.2075074261,4.25969508255
9120,Beveren,Willem Van Doornyckstraat,91,51.1801161984,4.23365359074
9120,Beveren,Haagstraat,29,51.2228661847,4.18551489936
9120,Beveren,Sint-Martenslaan,7C,51.2117639454,4.2514310434
9120,Beveren,Oude Zandstraat,91,51.2106091349,4.25127251283
9120,Beveren,Edgard Tinelstraat,1,51.2108736607,4.23217671725
9120,Beveren,Puiput,16,51.1996014499,4.27408072349
9120,Beveren,Kriekelaarstraat,22,51.2059276882,4.19546866341
9120,Beveren,Oude Dorpsstraat,50,51.2192511241,4.19100484855
9120,Beveren,Alfred Elewautstraat,2,51.1795548556,4.24103847547
9120,Beveren,Donkvijverstraat,128,51.2132097019,4.24631742114
9120,Beveren,Wilhelmietenlaan,9,51.2122074808,4.24859700186
9120,Beveren,Marnixstraat,16,51.2229593721,4.27621093502
9120,Beveren,Lavendelstraat,17,51.2292977277,4.26793403878
9120,Beveren,Hoge Wegel,6,51.1847475009,4.23811727352
9120,Beveren,Clement D'hooghestraat,3,51.2058990152,4.22576831939
9120,Beveren,Dijkgravenstraat,2,51.2582681192,4.27529874491
9120,Beveren,Vlierstraat,79,51.2279186678,4.27241687655
9120,Beveren,Seringenstraat,22,51.2255260257,4.26165368471
9120,Beveren,Zandstraat,262,51.1964411455,4.23573068438
9120,Beveren,Kallobaan,16,51.2155462662,4.26052508346
9120,Beveren,Appelstraat,48,51.2096965762,4.27969803455
9120,Beveren,Fabriekstraat,88,51.2574640937,4.27526611006
9120,Beveren,Oude-Beewegstraat,14,51.2253381896,4.26742750062
9120,Beveren,Dijkstraat,126,51.2291511704,4.27355703718
9120,Beveren,Levergem,32,51.2214871708,4.24557412361
9120,Beveren,Fazantenlaan,39,51.2285755887,4.27785833813
9120,Beveren,Lindenlaan,76,51.2166080942,4.23841763719
9120,Beveren,Galgstraat,2,51.2159132441,4.22015373736
9120,Beveren,Lesseliersdreef,7,51.2076378257,4.2475991899
9120,Beveren,Haagstraat,5,51.2229553406,4.18802994139
9120,Beveren,Beverse Dijk,23,51.2513198473,4.27567164511
9120,Beveren,Appelstraat,54,51.2078933905,4.27848301385
9120,Beveren,Melselestraat,42,51.1839992058,4.24328680657
9120,Beveren,Kersenlaan,10,51.2155499312,4.28671825596
9120,Beveren,Gentseweg,307,51.1963000134,4.2224941101
9120,Beveren,Alice Nahonlaan,15,51.2281955748,4.28537887787
9120,Beveren,Zandstraat,19,51.1823478635,4.23765543873
9120,Beveren,Dijkstraat,37,51.2256652021,4.27709941777
9120,Beveren,Ter Gaeverlaan,14,51.2192514614,4.25606440253
9120,Beveren,Schaarbeekstraat,56,51.2027194672,4.31682015117
9120,Beveren,Bergstraat,23,51.1783297857,4.23291898347
9120,Beveren,Beukenhoflaan,13,51.2176315394,4.25707945657
9120,Beveren,Leon Labytstraat,41,51.2200997428,4.24840388049
9120,Beveren,Gaverlandstraat,38,51.2243123317,4.2747543624
9120,Beveren,Piet Stautstraat,16,51.2050086815,4.2609262606
9120,Beveren,Perelstraat,1,51.2561218583,4.27709539388
9120,Beveren,Stuurstraat,83,51.1847273507,4.22086042622
9120,Beveren,Lindenlaan,219,51.2102268251,4.22746444885
9120,Beveren,Gravendreef,23,51.2092794172,4.26158557358
9120,Beveren,Spoorweglaan,25,51.2185975129,4.28185940009
9120,Beveren,Waterhoenlaan,9,51.2290144059,4.27623007101
9120,Beveren,Achterhoek,10,51.2292334487,4.23405269616
9120,Beveren,Stuurstraat,118,51.1830349075,4.21786698523
9120,Beveren,Kasteeldreef,8,51.2143735138,4.25727611895
9120,Beveren,Schoolstraat,122,51.2244256427,4.27760455679
9120,Beveren,Lindenlaan,112,51.2158595888,4.23594564492
9120,Beveren,Gentstraat,82,51.1999611372,4.27038410585
9120,Beveren,Sint-Elisabethstraat,11,51.2211075883,4.28344382827
9120,Beveren,Perstraat,43,51.1790466116,4.23992713953
9120,Beveren,Paul Van Ostayenstraat,6,51.2049516772,4.24494304652
9120,Beveren,Halfdreef,33,51.2230228695,4.25480315953
9120,Beveren,Glazenleeuwstraat,165,51.2192742727,4.24168900136
9120,Beveren,Grote Baan,298,51.2185848386,4.27498222894
9120,Beveren,Koben Geertsstraat,23,51.2180983448,4.24943464541
9120,Beveren,Kerkstraat,55,51.2126761215,4.19595773287
9120,Beveren,Gentseweg,56,51.2053049222,4.23962034815
9120,Beveren,Bijlstraat,194,51.2069330359,4.2421597215
9120,Beveren,Luitenant Van Eepoelstraat,93,51.2210367145,4.26319488379
9120,Beveren,Alfons Van Puymbroecklaan,18,51.2234740567,4.28146519265
9120,Beveren,Willem Van Doornyckstraat,55,51.1806793567,4.23566683217
9120,Beveren,Azalealaan,13,51.2239066105,4.25901340123
9120,Beveren,Schoolstraat,86,51.2231809111,4.2787602498
9120,Beveren,Lindenlaan,58,51.2168418514,4.24012155319
9120,Beveren,Schoolstraat,23,51.2216343405,4.27896059509
9120,Beveren,Gustaaf Neesstraat,2,51.2055888495,4.22519363028
9120,Beveren,Filip De Pillecijnstraat,7,51.2052311326,4.24400152558
9120,Beveren,Emmanuel Durletstraat,14,51.2076866206,4.22597750467
9120,Beveren,Zandstraat,244,51.1955227424,4.23576690729
9120,Beveren,Vossenstraat,50,51.2181400288,4.29794256292
9120,Beveren,Grote Baan,191,51.2201926794,4.28334558326
9120,Beveren,Brugstraat,60,51.219449115,4.1993487883
9120,Beveren,Spoorweglaan,142,51.2145762416,4.28292401233
9120,Beveren,Moerbeienlaan,23,51.2175930934,4.28415637309
9120,Beveren,Willem Van Doornyckstraat,20,51.1807847775,4.23759259166
9120,Beveren,Sint Gomaruslaan,23,51.1940759473,4.23353097819
9120,Beveren,Kruibekesteenweg,92,51.205547648,4.26114580414
9120,Beveren,Keizerstraat,43,51.1817568675,4.24297574203
9120,Beveren,Grote Baan,209,51.2200991641,4.28094574199
9120,Beveren,Kloetstraat,48,51.2354384557,4.2909314845
9120,Beveren,Molenhof,17,51.2197748643,4.26152010078
9120,Beveren,Bisschop Triestlaan,4,51.21159864,4.24818799476
9120,Beveren,Kruisdijklaan,25,51.2509469572,4.27377751493
9120,Beveren,Oude Zandstraat,20,51.2123041734,4.25384876624
9120,Beveren,Sint-Martenslaan,3,51.2119616785,4.25150968629
9120,Beveren,Gaverlandstraat,198,51.2286993905,4.26348930054
9120,Beveren,Sint-Elisabethstraat,46,51.2213723321,4.28488757334
9120,Beveren,Kallobaan,34,51.2163328503,4.26004095882
9120,Beveren,August De Boeckstraat,16,51.2079909357,4.23027696477
9120,Beveren,Keizerstraat,8,51.1818987421,4.24057044864
9120,Beveren,Keizer Karelstraat,1,51.2238496278,4.27685117299
9120,Beveren,Bergmolenstraat,49,51.230453942,4.27911796736
9120,Beveren,Gerard Walschaplaan,27,51.2044339459,4.24263820973
9120,Beveren,Fabriekstraat,124,51.2590690385,4.27469621579
9120,Beveren,Alixhof,9,51.2185253646,4.25719454922
9120,Beveren,Kallobaan,97,51.2218257402,4.2555927417
9120,Beveren,Aardbeienlaan,43,51.2132511545,4.27876166088
9120,Beveren,Donkerstraat,67,51.2244057371,4.24850720168
9120,Beveren,Kalishoekstraat,54,51.2228516851,4.28330425181
9120,Beveren,Albert Panisstraat,153,51.2061671366,4.24250376865
9120,Beveren,Burggravenstraat,33,51.2223469829,4.29216293632
9120,Beveren,Provinciale Baan,33,51.2321142608,4.18994351187
9120,Beveren,Pastoor Steenssensstraat,85,51.2095451365,4.2365988874
9120,Beveren,Kruisdijklaan,1,51.2504188105,4.27676393587
9120,Beveren,Gentseweg,110,51.2043119125,4.23792655779
9120,Beveren,Burggravenstraat,15,51.2217175947,4.29340007795
9120,Beveren,Albert Panisstraat,46,51.2086228036,4.24683165844
9120,Beveren,Klaasdekkerstraat,3,51.2239356624,4.21871933778
9120,Beveren,Victoriestraat,14,51.252860497,4.27784369765
9120,Beveren,Oude Zandstraat,73,51.2109216632,4.25172879915
9120,Beveren,Onze-Lieve-Vrouwstraat,114,51.2094233324,4.23862549557
9120,Beveren,Koben Geertsstraat,68,51.2191900357,4.24993252902
9120,Beveren,Pastoor Steenssensstraat,68A,51.2095998777,4.23732982254
9120,Beveren,Vendoornstraat,35,51.2171156941,4.30681189514
9120,Beveren,Irisstraat,23,51.2231274187,4.26109246817
9120,Beveren,Piet Stautstraat,97,51.2012409038,4.24513769007
9120,Beveren,Vlaamse-gaailaan,22,51.2324553205,4.27552677862
9120,Beveren,Kerkstraat,73,51.2115291176,4.1957802229
9120,Beveren,Kerkplein,26,51.2216252434,4.28283699792
9120,Beveren,Kerselarenhof,3,51.2226377727,4.2458323285
9120,Beveren,Klapperstraat,152,51.2147583751,4.24567694966
9120,Beveren,Esstraat,16,51.1888632616,4.29638843142
9120,Beveren,Piet Stautstraat,34,51.2049087001,4.2603002121
9120,Beveren,Dweerse Kromstraat,38,51.2036652661,4.29021625361
9120,Beveren,Duikeldam,8,51.2322936656,4.16569026715
9120,Beveren,Albrecht Rodenbachlaan,18,51.2269477099,4.28245965588
9120,Beveren,Grote Baan,31,51.2220896506,4.30238129855
9120,Beveren,Smisstraat,60,51.2225389759,4.18878474249
9120,Beveren,Burggravenstraat,78,51.2240694863,4.28856009585
9120,Beveren,Sint-Sebastiaanstraat,27,51.2206649713,4.25845618236
9120,Beveren,Vendoornstraat,88,51.215596992,4.3035607069
9120,Beveren,Lindenlaan,183,51.2119889848,4.23034629413
9120,Beveren,Sportlaan,8,51.2213215798,4.19140849833
9120,Beveren,Donkerstraat,49,51.2242580719,4.25004221954
9120,Beveren,Pastoor Steenssensstraat,32,51.207798485,4.23878382941
9120,Beveren,Diederik Van Beverenlaan,58,51.2136976968,4.25150334416
9120,Beveren,Hertog Van Arenberglaan,41,51.212946044,4.2492949109
9120,Beveren,Aardbeienlaan,61,51.2130110135,4.2798787978
9120,Beveren,Hoog-Kallostraat,13,51.2530264214,4.28011316738
9120,Beveren,Heiveldstraat,87,51.2237513657,4.24795835642
9120,Beveren,Willem Van Doornyckstraat,73,51.1803224076,4.23461573065
9120,Beveren,Grote Baan,227,51.2198797497,4.27972396681
9120,Beveren,Violierenstraat,8,51.2267896381,4.26188299176
9120,Beveren,Kerkplein,2,51.2208560565,4.28276726677
9120,Beveren,Kruibekesteenweg,74,51.2059947704,4.26069076355
9120,Beveren,Cauwenstraat,18,51.2203736403,4.19559482374
9120,Beveren,Grote Baan,84,51.2206561347,4.29671442728
9120,Beveren,Zillebeek,82,51.2225704367,4.22588291088
9120,Beveren,Albert Panisstraat,48,51.2086218145,4.24674365739
9120,Beveren,Snoeckstraat,43,51.2170239522,4.29543332679
9120,Beveren,Brielstraat,6,51.2317588155,4.27762168119
9120,Beveren,Vesten,34,51.2159035129,4.267842149
9120,Beveren,Klapperstraat,170,51.2155091261,4.2458877936
9120,Beveren,Grote Heidestraat,120,51.2050273685,4.22454889489
9120,Beveren,Waterhoenlaan,44,51.2306347767,4.2741052065
9120,Beveren,Bergmolenstraat,22,51.2301434644,4.28489683511
9120,Beveren,Hoge Wegel,51,51.1856101871,4.23890751455
9120,Beveren,Pastoor Steenssensstraat,14,51.2064137268,4.24094057787
9120,Beveren,Zandstraat,101,51.193042757,4.236356858
9120,Beveren,Alexander Farnèselaan,20,51.2212883594,4.27440143318
9120,Beveren,Jasmijnstraat,3,51.2218813111,4.25946314745
9120,Beveren,Keizer Karelstraat,88,51.2213208574,4.27618353187
9120,Beveren,Perstraat,25,51.1797688797,4.23921884563
9120,Beveren,Kruibekesteenweg,200,51.2009721745,4.2643865657
9120,Beveren,Peperstraat,20,51.2115831982,4.25627972854
9120,Beveren,Kasteeldreef,177,51.2201759945,4.25388845536
9120,Beveren,Bosbeek,33,51.2025717974,4.23675360419
9120,Beveren,Jan Frans Faveletstraat,64,51.2595658695,4.27660204355
9120,Beveren,Kleine Kromstraat,31,51.2189909489,4.24025878394
9120,Beveren,Sportlaan,61,51.2197283106,4.19022054705
9120,Beveren,Leurshoek,85,51.2275147531,4.2579759763
9120,Beveren,Leliestraat,34,51.2229544506,4.26265895155
9120,Beveren,Bosbeek,15,51.2023773219,4.23719024783
9120,Beveren,Gentstraat,28,51.214245674,4.27917378096
9120,Beveren,August Vermeylenstraat,6,51.2061415147,4.24532338096
9120,Beveren,De Brownestraat,1,51.2150306998,4.25636620719
9120,Beveren,Kriekelaarstraat,50,51.2047703004,4.19855139137
9120,Beveren,Victoriestraat,32,51.2526226949,4.27647587851
9120,Beveren,Waterhoenlaan,62,51.2313927766,4.2732189183
9120,Beveren,Gaverlandstraat,92,51.2247591206,4.27049305064
9120,Beveren,Eikenlaan,25,51.2157195141,4.27729399226
9120,Beveren,Bankstraat,24,51.1780691203,4.23027563705
9120,Beveren,Zavelgelaagstraat,7,51.2534784261,4.27829683626
9120,Beveren,Zandstraat,73,51.1912982647,4.23595053581
9120,Beveren,Kasteeldreef,159,51.2197845817,4.25410797254
9120,Beveren,Tulpenstraat,4,51.227963646,4.2629299278
9120,Beveren,Sint-Martenslaan,10,51.2116972833,4.24876087571
9120,Beveren,Polderstraat,35,51.2324833442,4.22475199699
9120,Beveren,Vlasbloemstraat,36,51.2251414918,4.26437319045
9120,Beveren,Grote Heidestraat,92,51.2035409645,4.22456362661
9120,Beveren,Lijsterbessenlaan,15,51.2104751003,4.25570654602
9120,Beveren,Diederik Van Beverenlaan,13,51.2120167367,4.25192484147
9120,Beveren,Nieuwe Baan,43,51.2216976441,4.19376337265
9120,Beveren,Stijn Streuvelslaan,12,51.2051080681,4.24658567344
9120,Beveren,August De Boeckstraat,9,51.208698541,4.23053845652
9120,Beveren,Heiveldstraat,69,51.2232579437,4.24835297673
9120,Beveren,Kruisbessenlaan,11,51.2172238689,4.28481926109
9120,Beveren,Reepdorp,5,51.2223601208,4.25080235983
9120,Beveren,Reepdorp,1B,51.2220104859,4.24991307388
9120,Beveren,Kerkendam,2,51.2215599512,4.28105909526
9120,Beveren,Leurshoek,49,51.225130985,4.25657877429
9120,Beveren,Spoorweglaan,160,51.2139085156,4.28308150898
9120,Beveren,Vogelenzang,7,51.2102816084,4.24594713616
9120,Beveren,Oude Dorpsstraat,39,51.2190558883,4.19178191367
9120,Beveren,Haagstraat,65,51.2226102195,4.18189864863
9120,Beveren,Gaverlandstraat,74,51.2244251689,4.27154771684
9120,Beveren,Westakkerlaan,21,51.1922750839,4.20726233077
9120,Beveren,Spoorweglaan,88,51.2169997652,4.28252070977
9120,Beveren,Donkvijverstraat,50,51.2135428169,4.24896867363
9120,Beveren,H. Verriestlaan,16,51.2291645661,4.28167036238
9120,Beveren,Kalishoekstraat,153,51.2256688724,4.2876211839
9120,Beveren,Pauwstraat,93,51.2152313112,4.29399580447
9120,Beveren,Kapelstraat,4,51.2255686021,4.26715845903
9120,Beveren,Rerum Novarumlaan,21,51.2204217827,4.19029089938
9120,Beveren,Bijlstraat,95,51.2081638257,4.24420350079
9120,Beveren,Keizer Karelstraat,96,51.2215894964,4.27546131573
9120,Beveren,Drie Lindekens,50,51.21799844,4.24490860042
9120,Beveren,Alfons Van Puymbroecklaan,117,51.2295013902,4.28012590827
9120,Beveren,Grote Heidestraat,74,51.2030248636,4.22465149043
9120,Beveren,Waterhoenlaan,80,51.2315047176,4.27259334376
9120,Beveren,Glazenleeuwstraat,84,51.2190607768,4.24655633937
9120,Beveren,Cyriel Buysselaan,24,51.2270467509,4.28319298368
9120,Beveren,Polderstraat,17,51.2240520244,4.22598317348
9120,Beveren,Begoniastraat,10,51.2228164973,4.26028616473
9120,Beveren,Gentseweg,508,51.1911582601,4.20640478132
9120,Beveren,Zandstraat,55,51.1900409706,4.23572580639
9120,Beveren,Dijkstraat,73,51.2272327966,4.27596674418
9120,Beveren,Kerkendam,18,51.2223405494,4.28087814456
9120,Beveren,Lindenlaan,13,51.2156917659,4.24458537967
9120,Beveren,Stuurstraat,40,51.1881026714,4.23435375819
9120,Beveren,Jef van Hoofstraat,20,51.2123977349,4.23366659937
9120,Beveren,Gentseweg,135,51.2023211124,4.23490862919
9120,Beveren,Dweerse Kromstraat,56,51.201069983,4.28707085352
9120,Beveren,Nieuwe Baan,61,51.2223948054,4.19353346378
9120,Beveren,Luitenant Van Eepoelstraat,50,51.2183896683,4.26263048244
9120,Beveren,Sint-Pietersstraat,3,51.2523047422,4.27842270416
9120,Beveren,Kallobaan,79,51.2199938045,4.25586538617
9120,Beveren,Kleine Kromstraat,13,51.2178483365,4.24108745262
9120,Beveren,Emiel Hullebroeckstraat,14,51.210254579,4.22965609064
9120,Beveren,Sportlaan,43,51.2198803228,4.1913116204
9120,Beveren,Hoog-Kallostraat,109,51.2539763055,4.28522398676
9120,Beveren,Gaverlandstraat,4,51.2246755074,4.2771198142
9120,Beveren,Middenheide,128,51.2067423804,4.22869264458
9120,Beveren,Lindenlaan,255,51.2069455612,4.22400411509
9120,Beveren,Vliegenstal,4,51.2342611442,4.20568776397
9120,Beveren,Hoog-Kallostraat,21,51.2532179188,4.2806619581
9120,Beveren,Pastoor Steenssensstraat,128,51.2138639052,4.23404305063
9120,Beveren,Poerdam,6,51.1838187356,4.23772669967
9120,Beveren,Meidoornlaan,35,51.2088985993,4.25625511064
9120,Beveren,Kruibekesteenweg,191,51.1895244622,4.27340915128
9120,Beveren,Kerkstraat,19,51.2174894891,4.19643374176
9120,Beveren,Klapperstraat,277,51.218458033,4.24674969806
9120,Beveren,Lodewijk de Vochtstraat,15,51.2094739196,4.23448882248
9120,Beveren,Onze-Lieve-Vrouwstraat,96,51.2092097838,4.2395470614
9120,Beveren,Hendrik Consciencestraat,1,51.2070844863,4.25946268447
9120,Beveren,Grote Baan,127,51.2210086594,4.29209684015
9120,Beveren,Hendrik Consciencestraat,17,51.2069033968,4.25890720144
9120,Beveren,Dijkstraat,91,51.2283168292,4.27509292789
9120,Beveren,Hertenlaan,20,51.2297908273,4.27681922065
9120,Beveren,Peperdam,30,51.2241325761,4.19725612332
9120,Beveren,Klapperstraat,98,51.2132372625,4.24558849264
9120,Beveren,Bremstraat,23,51.2253462537,4.25801502208
9120,Beveren,Klapperstraat,144,51.2145453615,4.2456885284
9120,Beveren,Glazenleeuwstraat,130,51.2194275783,4.24385998813
9120,Beveren,Stationsstraat,89,51.2090857017,4.25842286337
9120,Beveren,Stationsstraat,36,51.2108899984,4.25722157167
9120,Beveren,Bijlstraat,59,51.2085539093,4.24565616813
9120,Beveren,Ijzerstraat,8,51.2186605505,4.27827497848
9120,Beveren,Bergmolenwegel,5,51.2311703364,4.28381325287
9120,Beveren,Heirbaan,52,51.1842243353,4.25244294879
9120,Beveren,Renaat Veremansstraat,5,51.2104030119,4.23053214276
9120,Beveren,Koben Geertsstraat,76,51.2193599089,4.24992494227
9120,Beveren,Luitenant Van Eepoelstraat,39,51.2179320937,4.26195525685
9120,Beveren,Bosdamlaan,26,51.2086330789,4.25446176111
9120,Beveren,Kruibekesteenweg,173,51.1996601012,4.26663464406
9120,Beveren,Tijmstraat,20,51.2283222526,4.27066353641
9120,Beveren,Windmolenstraat,22,51.2183374111,4.20707298846
9120,Beveren,Fabriekstraat,106,51.2579448022,4.27517232878
9120,Beveren,Levergem,14,51.2204913044,4.24562053788
9120,Beveren,Pauwstraat,103,51.2151919276,4.29498379228
9120,Beveren,H. Verriestlaan,34,51.2291794892,4.28241518745
9120,Beveren,Tulpenstraat,38,51.2261244589,4.26416615822
9120,Beveren,Kruibekesteenweg,155,51.2015653857,4.26507486213
9120,Beveren,Prosper Van Raemdonckstraat,94,51.216145298,4.24690856477
9120,Beveren,Berkenhof,6,51.2230629534,4.24673399559
9120,Beveren,Fazantenlaan,75,51.2303513887,4.27746521545
9120,Beveren,Leeuwerikenlaan,9,51.2309609779,4.27491786265
9120,Beveren,Edgard Tinelstraat,35,51.2084507087,4.22906044514
9120,Beveren,Stuurstraat,29,51.1885777593,4.23125213731
9120,Beveren,Kapelstraat,38,51.2244967706,4.26604439872
9120,Beveren,Onze-Lieve-Vrouwstraat,78,51.2089340134,4.24062175891
9120,Beveren,Zandstraat,226,51.1945493614,4.23607293799
9120,Beveren,Zandstraat,3,51.1815420646,4.23792111903
9120,Beveren,Glazenleeuwstraat,6,51.2174304408,4.24981819485
9120,Beveren,Van Craenenbroeckstraat,77,51.2219576279,4.25153723143
9120,Beveren,Beekmolenstraat,1,51.2105293566,4.28658319558
9120,Beveren,Vossenstraat,5,51.2194737288,4.29600173898
9120,Beveren,Perzikenlaan,8,51.2161312432,4.29301773636
9120,Beveren,Notelarenhof,24,51.2202880323,4.24671101507
9120,Beveren,Guldenvliesstraat,25,51.2232537553,4.27542179611
9120,Beveren,Elzestraat,8,51.2149813698,4.23264403997
9120,Beveren,Koolputstraat,10,51.2311385928,4.26905950868
9120,Beveren,Schoorstraat,3,51.23797206,4.17592644614
9120,Beveren,Vuurdoornstraat,6,51.2162081817,4.30286502148
9120,Beveren,Mosselbank,112,51.2203211928,4.21179190725
9120,Beveren,Luitenant Van Eepoelstraat,5,51.2168220398,4.26038059543
9120,Beveren,Fazantenlaan,22,51.2288955643,4.27749209491
9120,Beveren,Grote Baan,317,51.218700101,4.27399929465
9120,Beveren,Koben Geertsstraat,94,51.2200545787,4.250512307
9120,Beveren,Hendrik Consciencestraat,88,51.2051329166,4.25723754119
9120,Beveren,Beekstraat,61,51.2143543181,4.17898819671
9120,Beveren,Leliestraat,16,51.2223127068,4.26248792179
9120,Beveren,Kuiperstraat,8,51.178879977,4.243383435
9120,Beveren,Lindenlaan,237,51.2085002979,4.22563975436
9120,Beveren,Grote Baan,183,51.2204033992,4.28427340735
9120,Beveren,Melselestraat,70,51.1928428065,4.26035769038
9120,Beveren,Sint-Paulusplein,20,51.2523606407,4.2766491284
9120,Beveren,Schoolstraat,94,51.2235251761,4.27853557484
9120,Beveren,Grote Heidestraat,102,51.2038821567,4.22425967485
9120,Beveren,Boerenkrijglaan,20,51.1783845042,4.23607975546
9120,Beveren,Meersenweg,77,51.2241106991,4.26612483083
9120,Beveren,Willem Elsschotlaan,20,51.2275032482,4.2845508194
9120,Beveren,Herman Teirlinckstraat,6,51.2052725848,4.24643815358
9120,Beveren,Bijlstraat,77,51.2083858587,4.24499565523
9120,Beveren,Dijkstraat,101,51.2288834888,4.27467835927
9120,Beveren,Donkvijverstraat,5,51.2148721197,4.25259838311
9120,Beveren,Zandstraat,91,51.1927907074,4.23642666108
9120,Beveren,Edgard Tinelstraat,17,51.210124972,4.23159433515
9120,Beveren,Gasdam,7,51.2079881395,4.26059373653
9120,Beveren,Adolf Van Bourgondiëlaan,13,51.2125158514,4.25072865309
9120,Beveren,Fazantenlaan,57,51.2295025838,4.27812725883
9120,Beveren,Klapperstraat,47,51.2104438069,4.24443585212
9120,Beveren,Van Craenenbroeckstraat,59,51.2215650343,4.2508294079
9120,Beveren,Kruibekesteenweg,35A,51.2069335409,4.26021597598
9120,Beveren,Leurshoek,67,51.2260755628,4.25694913216
9120,Beveren,Herman Teirlinckstraat,13,51.205620715,4.24574842933
9120,Beveren,Kallobaan,123,51.2224952494,4.2554602988
9120,Beveren,Lodewijk de Vochtstraat,33,51.208579829,4.23424139563
9120,Beveren,Donkvijverstraat,39,51.2131099207,4.24753611234
9120,Beveren,Hendrik Consciencestraat,35,51.2067706245,4.25831068545
9120,Beveren,Kloosterstraat,80,51.2149467965,4.26188161865
9120,Beveren,Melselestraat,24,51.1830280168,4.24296718629
9120,Beveren,Drie Lindekens,5,51.216992232,4.24264236039
9120,Beveren,Drie Lindekens,39,51.2176148431,4.24424738374
9120,Beveren,Kasteeldreef,195,51.2207217457,4.253584394
9120,Beveren,Grote Baan,109,51.2210381166,4.29476350859
9120,Beveren,Jasmijnstraat,19,51.2224866815,4.25868535795
9120,Beveren,Sint-Elisabethstraat,48,51.2213580171,4.28498206751
9120,Beveren,Schuttershofstraat,10,51.2185025947,4.26056979116
9120,Beveren,Mandemakerstraat,2,51.1801369564,4.2437450334
9120,Beveren,Mandemakerstraat,18,51.1796293178,4.24360681132
9120,Beveren,Yzerhand,38,51.2165378831,4.25171235586
9120,Beveren,Moretusstraat,20,51.211170366,4.26084756707
9120,Beveren,Vlierstraat,97,51.2271468595,4.27134009511
9120,Beveren,Bisschop Triestlaan,11,51.2117852426,4.24766003006
9120,Beveren,Glazenleeuwstraat,13,51.2172483124,4.24925704682
9120,Beveren,Violierenstraat,25,51.2272234084,4.26097627891
9120,Beveren,Guido Gezellelaan,26,51.2067273377,4.24545405413
9120,Beveren,Leurshoek,32,51.2238993103,4.25629686629
9120,Beveren,Brugstraat,85,51.219724119,4.19938271691
9120,Beveren,Lesseliersdreef,24,51.2067989075,4.24810345832
9120,Beveren,Zillebeek,110,51.2227122937,4.22112039907
9120,Beveren,Daalstraat,20,51.2175588892,4.19799538681
9120,Beveren,Grote Baan,281,51.219380647,4.27575338985
9120,Beveren,Sportlaan,25,51.2202528785,4.19232729866
9120,Beveren,Melkaderlaan,61,51.2535584699,4.27452936164
9120,Beveren,Fabriekstraat,53,51.2543991968,4.27608822826
9120,Beveren,Ter Gaeverlaan,7,51.219179681,4.25553528876
9120,Beveren,Bankstraat,70,51.1756089809,4.2232358609
9120,Beveren,Gaverlandstraat,173,51.2278488784,4.26478188714
9120,Beveren,Zillebeek,99,51.2221197746,4.22440897395
9120,Beveren,Gentstraat,46,51.2135346365,4.27838860197
9120,Beveren,Seringenstraat,5,51.2244764963,4.26270647004
9120,Beveren,Hof ter Wellelaan,2A,51.2089591867,4.25779181983
9120,Beveren,Ciamberlanidreef,20,51.2163451194,4.25555915963
9120,Beveren,Dennenlaan,72,51.1834659542,4.21248496395
9120,Beveren,Fabriekstraat,47,51.254117095,4.2762556538
9120,Beveren,Klapperstraat,124,51.21375547,4.24561246242
9120,Beveren,Klaprozenstraat,1,51.2279625548,4.26190966723
9120,Beveren,Blokmakerstraat,33,51.1780127119,4.24316567248
9120,Beveren,Klein Laarstraat,52,51.2215876758,4.16945510485
9120,Beveren,'s Wolfsdam,4,51.2240865453,4.19557722496
9120,Beveren,Dennenlaan,54,51.1850330357,4.21168352988
9120,Beveren,Kasteeldreef,96,51.2191017833,4.25490929416
9120,Beveren,Waterhoenlaan,26,51.2296754896,4.27506645398
9120,Beveren,Anjelierenstraat,22,51.2254853564,4.26271120458
9120,Beveren,Onze-Lieve-Vrouwstraat,43,51.208597882,4.24132441647
9120,Beveren,Van Craenenbroeckstraat,42,51.2210828858,4.25054678628
9120,Beveren,Ketenislaan,1,51.2717073244,4.29941947523
9120,Beveren,Spoorweglaan,249,51.211005728,4.28604129274
9120,Beveren,Gaverlanddam,19,51.2249397934,4.25695155252
9120,Beveren,Vrasenestraat,23,51.2139843163,4.25378325662
9120,Beveren,Hagewindestraat,25,51.2284701702,4.26145685368
9120,Beveren,Stuurstraat,111,51.1811280312,4.21475104638
9120,Beveren,Gildestraat,23,51.2202001813,4.25913714619
9120,Beveren,Hoge Eiken,2,51.2157753321,4.26266687688
9120,Beveren,Gentseweg,200,51.2011580837,4.23081320898
9120,Beveren,Kallobaan,105,51.2220339594,4.25554872599
9120,Beveren,Fabriekstraat,71,51.2562259033,4.2753082539
9120,Beveren,Willem Van Doornyckstraat,101,51.1798975519,4.23282649427
9120,Beveren,Stationsstraat,18,51.2117649561,4.25695975683
9120,Beveren,Alixhof,26,51.2189103947,4.25649045157
9120,Beveren,Klapperstraat,27,51.2097634729,4.24443665373
9120,Beveren,Adolf Van Bourgondiëlaan,31,51.2130882461,4.25019828214
9120,Beveren,Veldhoekdam,3,51.2107221746,4.21097103947
9120,Beveren,Piet Stautstraat,9,51.2047690466,4.26132057664
9120,Beveren,Kloosterstraat,62,51.2147655854,4.26068230556
9120,Beveren,Bijlstraat,141,51.207216809,4.24292892827
9120,Beveren,Stationsstraat,2,51.2126201813,4.25664817786
9120,Beveren,Klaprozenstraat,35,51.2255489127,4.26414296256
9120,Beveren,Gentseweg,188,51.2015764657,4.23179603929
9120,Beveren,Hoge Wegel,23,51.1842460006,4.2389092878
9120,Beveren,Kapelstraat,56,51.2240405165,4.2654167148
9120,Beveren,Sint-Elisabethstraat,28,51.2214615008,4.28412980278
9120,Beveren,Onze-Lieve-Vrouwstraat,61,51.2086916934,4.24062957578
9120,Beveren,Oude Zandstraat,101,51.2095502544,4.25041342724
9120,Beveren,Hoge Eiken,18,51.2162345805,4.26351095443
9120,Beveren,Middenheide,60,51.2045717306,4.23403140196
9120,Beveren,Gaverlanddam,3,51.223430522,4.26392867859
9120,Beveren,Vlierstraat,62,51.2267796081,4.27135660359
9120,Beveren,Seringenstraat,39,51.2250395741,4.26046110326
9120,Beveren,Sint-Sebastiaanstraat,45,51.2212467135,4.25924906559
9120,Beveren,Provinciale Baan,8,51.2236441028,4.19377670876
9120,Beveren,Pastoor Steenssensstraat,60,51.2090548738,4.23754241774
9120,Beveren,Melkaderlaan,43,51.2533283647,4.27339241401
9120,Beveren,Anemonenstraat,14,51.2269256571,4.2601233507
9120,Beveren,Haagstraat,12,51.2233868969,4.18769117837
9120,Beveren,Kasteeldreef,78,51.2183653036,4.2553172705
9120,Beveren,Kerkstraat,101,51.2092161336,4.19376579958
9120,Beveren,Leo Metslaan,8,51.203991164,4.2438198195
9120,Beveren,Zandstraat,154,51.1919209048,4.23563522011
9120,Beveren,Sint-Martenslaan,45,51.2112097777,4.24772319316
9120,Beveren,Kallobaan,9,51.2167587099,4.25934211808
9120,Beveren,Bijlstraat,42,51.2093099565,4.24673099206
9120,Beveren,Blokmakerstraat,15,51.1788857948,4.24225783378
9120,Beveren,Kapeldijkstraat,19,51.2542502038,4.28934323446
9120,Beveren,Dambrugstraat,19,51.2227323609,4.28224023382
9120,Beveren,Kallobaan,148B,51.2207741695,4.2563318383
9120,Beveren,Albert Panisstraat,28,51.2088889119,4.24740807346
9120,Beveren,Klein Laarstraat,70,51.22280032,4.16570126823
9120,Beveren,Glazenleeuwstraat,31,51.217283233,4.24858872178
9120,Beveren,Pastoor Verwilghenplein,14,51.1814720572,4.23866969652
9120,Beveren,Ijzerstraat,68,51.2160135619,4.28031950492
9120,Beveren,Lindenlaan,137,51.2151554124,4.2350428643
9120,Beveren,Mispellaan,15,51.2152032444,4.28515990459
9120,Beveren,Zandstraat,208,51.1937315762,4.23590130304
9120,Beveren,Alice Nahonlaan,8,51.2277030793,4.28560364378
9120,Beveren,Van Craenenbroeckstraat,95,51.2222010099,4.25206164961
9120,Beveren,Oude Zandstraat,19,51.2119418413,4.25421256904
9120,Beveren,Hazenhof,14,51.2141259644,4.27533302305
9120,Beveren,Pauwstraat,22,51.2148291551,4.28581546042
9120,Beveren,Clement D'hooghestraat,10,51.2065471937,4.22571110966
9120,Beveren,Albert Panisstraat,107,51.2068860077,4.24401243464
9120,Beveren,Kortbroekstraat,41,51.2231167159,4.18947460312
9120,Beveren,Peter Benoitlaan,14,51.2105518115,4.23306302258
9120,Beveren,Meersenweg,42,51.22436446,4.26740598356
9120,Beveren,Peter Benoitlaan,67,51.2098845747,4.23558335717
9120,Beveren,Oude Zandstraat,3,51.2123817986,4.25531069856
9120,Beveren,Mosselbank,66,51.2203256508,4.20900097392
9120,Beveren,Gerard Walschaplaan,45,51.2052535824,4.24261869253
9120,Beveren,Pauwstraat,75,51.2152851321,4.29212276463
9120,Beveren,Willem Van Doornyckstraat,19,51.1810959116,4.23803720094
9120,Beveren,Gerard Walschaplaan,10,51.2037075933,4.24179842163
9120,Beveren,Luitenant Van Eepoelstraat,103,51.2212497818,4.26324264078
9120,Beveren,Bergmolenstraat,60,51.2304694348,4.27797378482
9120,Beveren,Luitenant Van Eepoelstraat,76A,51.2199728871,4.26334054945
9120,Beveren,Boekweithofstraat,7,51.1835947206,4.21653510984
9120,Beveren,Kloosterstraat,44,51.2146088216,4.25959285613
9120,Beveren,Esstraat,9,51.1891850672,4.29538654503
9120,Beveren,Kerkstraat,3,51.2187756562,4.19545546039
9120,Beveren,Beverstraat,9,51.2187833502,4.29603472299
9120,Beveren,Gaverlandstraat,56,51.224256474,4.2732352952
9120,Beveren,Mosselbank,31,51.2198573008,4.2024798538
9120,Beveren,Gaverlandstraat,21,51.2247194999,4.2756630886
9120,Beveren,Lindenlaan,202,51.2114541779,4.22843485824
9120,Beveren,Soldatendreef,8,51.2178066828,4.26033982154
9120,Beveren,Spoorweglaan,232,51.2113212099,4.28602413793
9120,Beveren,Vlierstraat,44,51.2260359341,4.27282613585
9120,Beveren,Mosselbank,13,51.2198345179,4.20148990526
9120,Beveren,De Brownestraat,35,51.2155681211,4.25438991093
9120,Beveren,Laurierstraat,15,51.2274656707,4.2680900019
9120,Beveren,Zakdam,4A,51.1988810275,4.28323449409
9120,Beveren,Brielstraat,13,51.2324433858,4.27870871889
9120,Beveren,Kloetstraat,2,51.2305420714,4.28785128416
9120,Beveren,Alfons Van Puymbroecklaan,64,51.2255173707,4.28059077712
9120,Beveren,Halfdreef,8,51.2223127354,4.25381551938
9120,Beveren,Diederik Van Beverenlaan,6,51.2119179537,4.25265893198
9120,Beveren,Baljuwstraat,2,51.2098803642,4.26106589662
9120,Beveren,Brielstraat,84,51.2323306022,4.27252479298
9120,Beveren,Westakkerlaan,41,51.1925603156,4.20814279841
9120,Beveren,Marnixstraat,9,51.2230434032,4.27666165888
9120,Beveren,Lindenlaan,119,51.2155456901,4.23624707904
9120,Beveren,Alfons Van Puymbroecklaan,11,51.2232658303,4.28200493149
9120,Beveren,Grote Baan,245,51.2196855429,4.2782161826
9120,Beveren,Puchelstraat,33,51.2254223793,4.18620387852
9120,Beveren,Emiel Fleerackerslaan,23,51.2285557275,4.28549176217
9120,Beveren,Kalishoekstraat,18,51.2214507705,4.28000439704
9120,Beveren,Cyriel Buysselaan,7,51.2277580426,4.28188383442
9120,Beveren,Mosselbank,84,51.2206994258,4.21010138984
9120,Beveren,Kerkstraat,74A,51.2152074046,4.19476124638
9120,Beveren,Brugstraat,49,51.2199670458,4.19723316592
9120,Beveren,Luitenant Van Eepoelstraat,121,51.2216622628,4.26334820619
9120,Beveren,Ebeslaan,4,51.2529061268,4.28607768522
9120,Beveren,Botermelkstraat,8,51.1777470359,4.25986413857
9120,Beveren,Oude Dorpsstraat,22,51.219373497,4.19302421353
9120,Beveren,Brugstraat,67,51.2199108792,4.19848962493
9120,Beveren,Keizerstraat,25,51.1818515818,4.24219063151
9120,Beveren,Kerkstraat,37,51.2165073173,4.1958727493
9120,Beveren,Gasthuisstraat,20,51.251446564,4.28085906618
9120,Beveren,Zandstraat,172,51.1923704253,4.23531967329
9120,Beveren,Albert Panisstraat,125,51.2066287833,4.24343804321
9120,Beveren,Keizerstraat,126B,51.1823360736,4.24728036269
9120,Beveren,Yzerhand,4,51.2152650798,4.25276871964
9120,Beveren,Kleine Kouterstraat,23,51.2177567746,4.16826045141
9120,Beveren,Gentseweg,371,51.1915862188,4.21000426824
9120,Beveren,Dijkstraat,190,51.2315416334,4.27068673194
9120,Beveren,Kasteeldreef,142,51.2204132321,4.25457705253
9120,Beveren,Vlasbloemstraat,18,51.2247141137,4.26429283472
9120,Beveren,Lindenlaan,51,51.216068323,4.24214450404
9120,Beveren,Emmanuel Durletstraat,7,51.2070744694,4.22617053849
9120,Beveren,Oude Dorpsstraat,57,51.2189225961,4.1907040977
9120,Beveren,Kruibekesteenweg,38,51.2069340071,4.25974277597
9120,Beveren,Kerselarenhof,10,51.2223094533,4.24611917752
9120,Beveren,Peter Benoitlaan,49,51.2105453468,4.23441391715
9120,Beveren,Stuurstraat,146,51.1803330065,4.21517653471
9120,Beveren,Hertenlaan,40,51.229416365,4.27657729892
9120,Beveren,Leon Labytstraat,13,51.219236372,4.24730873449
9120,Beveren,Albrecht Rodenbachlaan,11,51.2266831274,4.28213633489
9120,Beveren,Dijkstraat,55,51.2268023878,4.27648680314
9120,Beveren,Burggravenstraat,8,51.2215155534,4.29257837851
9120,Beveren,Meerminnendam,16,51.2133041972,4.24188549679
9120,Beveren,Kloetstraat,18,51.2326098627,4.28975974615
9120,Beveren,De Brownestraat,17,51.2147808927,4.25539892428
9120,Beveren,Lodewijk Mortelmansstraat,5,51.2097456481,4.23127304341
9120,Beveren,Oude Zandstraat,37,51.211491257,4.25310389671
9120,Beveren,Grote Heidestraat,56,51.2023282432,4.22515926293
9120,Beveren,Aardbeienlaan,25,51.2140366075,4.27941861445
9120,Beveren,Donkerstraat,60,51.2244347176,4.25033679185
9120,Beveren,Klapperstraat,106,51.2133918633,4.24558837286
9120,Beveren,Kruibekesteenweg,4,51.2076870405,4.25826145171
9120,Beveren,Kalishoekstraat,115,51.2240859654,4.28741034588
9120,Beveren,Dennenlaan,48,51.1851654567,4.21095323715
9120,Beveren,Schoofland,33,51.2211696923,4.24696221057
9120,Beveren,Brugstraat,14,51.2195567561,4.19657183834
9120,Beveren,Tijmstraat,40,51.228589193,4.27108385894
9120,Beveren,Alfons Van Puymbroecklaan,46,51.2245480531,4.28069766334
9120,Beveren,Fruithoflaan,48,51.2175996295,4.18681804199
9120,Beveren,Bisschop Triestlaan,46,51.2127927696,4.24758558871
9120,Beveren,Hazaarddam,26,51.2210880543,4.27971695432
9120,Beveren,Victoriestraat,7,51.252506032,4.27694805063
9120,Beveren,Willem Van Doornyckstraat,37,51.1808773889,4.23672683459
9120,Beveren,Willem Van Doornyckstraat,3,51.1812581872,4.23896846832
9120,Beveren,Mispellaan,33,51.2158439912,4.28639830508
9120,Beveren,Fabriekstraat,1,51.2526856626,4.27677295813
9120,Beveren,Klapperstraat,55,51.2106559869,4.24448652006
9120,Beveren,Tulpenstraat,13,51.227992791,4.26346239763
9120,Beveren,Klein Laarstraat,7,51.2183561722,4.17215719433
9120,Beveren,Frambozenlaan,17,51.2134461479,4.28652257307
9120,Beveren,Zandstraat,118,51.1896919578,4.23453701201
9120,Beveren,Hertog Van Arenberglaan,21,51.2121609499,4.2498779212
9120,Beveren,Eglantierlaan,17,51.224391762,4.25790190108
9120,Beveren,Dambrugstraat,63,51.2234990844,4.2805428895
9120,Beveren,Begoniastraat,19,51.2235256128,4.26001441855
9120,Beveren,Provinciale Baan,3A,51.223612732,4.19298482397
9120,Beveren,Fabriekstraat,144,51.2607470151,4.2739641132
9120,Beveren,Onze-Lieve-Vrouwstraat,35,51.2085876212,4.24164712408
9120,Beveren,Kruisbessenlaan,18,51.2168889285,4.28567128327
9120,Beveren,Alfons Van Puymbroecklaan,90,51.227231696,4.28031156313
9120,Beveren,Kloosterstraat,34,51.2145116283,4.25897569121
9120,Beveren,Spoorweglaan,167,51.2135730466,4.28255332731
9120,Beveren,Kalishoekstraat,46,51.2227709057,4.28284034319
9120,Beveren,Grote Baan,74,51.2207140681,4.29769465172
9120,Beveren,Buitenstraat,29,51.2076539641,4.1736661262
9120,Beveren,Ropstraat,10,51.180105066,4.22847201657
9120,Beveren,Brandstraat,114,51.2048938308,4.20173527799
9120,Beveren,Bergmolenstraat,30A,51.2299086186,4.2836563384
9120,Beveren,Lindenlaan,175,51.2126026049,4.23125793786
9120,Beveren,Grote Baan,217,51.2199594814,4.28021274789
9120,Beveren,Vesten,7,51.2163436226,4.26547501761
9120,Beveren,Brandstraat,58,51.2127997014,4.20744729906
9120,Beveren,Heiveldstraat,62,51.2231568974,4.24895943369
9120,Beveren,Kapelstraat,13,51.2253992647,4.26621906712
9120,Beveren,Molenbeekweg,39,51.2171628506,4.28690650962
9120,Beveren,Keizer Karelstraat,61,51.2215215142,4.27669384152
9120,Beveren,Kalishoekstraat,207,51.2291198022,4.2877908847
9120,Beveren,Sint-Paulusplein,3,51.2520046537,4.27740048706
9120,Beveren,Lodewijk de Vochtstraat,8,51.2100669333,4.23279053305
9120,Beveren,Renaat Veremansstraat,12,51.2109339558,4.23068412606
9120,Beveren,Melkaderlaan,35,51.2531419303,4.27281055487
9120,Beveren,Donkvijverstraat,30,51.2141151669,4.25073378851
9120,Beveren,Kerkstraat,10,51.2188495396,4.19465596632
9120,Beveren,Sint-Elisabethstraat,54,51.2213342553,4.28532033601
9120,Beveren,Lodewijk de Vochtstraat,76,51.2081395374,4.23460568802
9120,Beveren,Gemeenteplein,6,51.2525243945,4.27922866678
9120,Beveren,Vlierstraat,16,51.2270058143,4.27387961191
9120,Beveren,Donkerstraat,29,51.2232613282,4.25128820161
9120,Beveren,Lesseliersdreef,49,51.2067695164,4.24935098923
9120,Beveren,Kallobaan,158,51.2210953092,4.2564103648
9120,Beveren,Azalealaan,6,51.2232717869,4.2593346612
9120,Beveren,Willem Elsschotlaan,3,51.2284648412,4.28231442997
9120,Beveren,Boerenkrijglaan,3,51.1777388126,4.23531838683
9120,Beveren,Lindenlaan,157,51.2134958587,4.23288477165
9120,Beveren,Pastoor Steenssensstraat,5,51.2062133269,4.24064621978
9120,Beveren,Stationsstraat,64,51.2099420874,4.25751932447
9120,Beveren,Notelarenhof,49,51.2201300599,4.24763290116
9120,Beveren,Bunderhof,45,51.1789528679,4.2376336068
9120,Beveren,Perzikenlaan,23,51.2168759794,4.29323322239
9120,Beveren,Donkerstraat,42,51.2240508783,4.25102570458
9120,Beveren,Yzerhand,66,51.2170832281,4.25109299762
9120,Beveren,Cortewalledreef,49,51.2102296764,4.26555357601
9120,Beveren,Kruibekesteenweg,102,51.2053661836,4.26135841554
9120,Beveren,Albert Panisstraat,178,51.2062296434,4.24194756047
9120,Beveren,Kolkstraat,2,51.2182855615,4.18925508806
9120,Beveren,Koolputstraat,37,51.2301687161,4.2652291379
9120,Beveren,Grote Baan,92,51.2206035927,4.2960392111
9120,Beveren,Kallobaan,52,51.217068371,4.25964710301
9120,Beveren,Fruithoflaan,28,51.2181924746,4.1879740477
9120,Beveren,Beverstraat,2,51.2193238315,4.29604948912
9120,Beveren,Burggravenstraat,53,51.2235283423,4.29025151313
9120,Beveren,Alfons Van Puymbroecklaan,110,51.2287130811,4.27960401356
9120,Beveren,Lesseliersdreef,67,51.2061876181,4.24972335385
9120,Beveren,Dambrugstraat,45,51.2230769618,4.28111394991
9120,Beveren,Alexander Farnèselaan,27,51.2218900588,4.27464956741
9120,Beveren,Elzestraat,23,51.2159961901,4.23157371914
9120,Beveren,Bergmolenstraat,29,51.2302702545,4.28357837637
9120,Beveren,Wilhelmietenlaan,34,51.2128853612,4.24857050767
9120,Beveren,Alexander Farnèselaan,3,51.219457899,4.2760374901
9120,Beveren,Kloetstraat,46,51.2342725786,4.29038319608
9120,Beveren,Goubaudreef,6,51.2117159366,4.263832623
9120,Beveren,Fabriekstraat,25,51.2534924906,4.27647588772
9120,Beveren,Brandstraat,8,51.2202905583,4.21051699675
9120,Beveren,Kasteeldreef,150,51.2205817873,4.25422668459
9120,Beveren,Melkaderlaan,17,51.2524979539,4.27262953948
9120,Beveren,Reepdorp,12,51.2223793423,4.25160717376
9120,Beveren,Kruibekesteenweg,66,51.2061522724,4.26051984047
9120,Beveren,Spoorweglaan,204,51.2120746391,4.28451190158
9120,Beveren,Puiput,2,51.1986766611,4.2732241981
9120,Beveren,Leeuwerikenlaan,26,51.2315418553,4.27532443765
9120,Beveren,Sint-Elisabethstraat,4,51.2214727251,4.28310722863
9120,Beveren,Vlierstraat,48,51.2261027572,4.27231853653
9120,Beveren,Bergmolenstraat,5,51.2302936102,4.2867645415
9120,Beveren,Gustaaf Neesstraat,16,51.2061960241,4.22452955953
9120,Beveren,Priemstraat,25,51.1992011761,4.29726528254
9120,Beveren,Marnixstraat,2,51.2223994032,4.2764525091
9120,Beveren,Zakdam,8,51.1964809291,4.27932264579
9120,Beveren,Spoorweglaan,61,51.2175992263,4.28193523991
9120,Beveren,Sint-Pietersstraat,10,51.2524225432,4.27802086137
9120,Beveren,Piet Stautstraat,52,51.2048665946,4.2595691514
9120,Beveren,Vuurkruisenlaan,6,51.2099879173,4.25252575959
9120,Beveren,Kalishoekstraat,82,51.2235564415,4.28491803115
9120,Beveren,Kallobaan,194,51.2221121065,4.25596721223
9120,Beveren,Kortbroekstraat,2A,51.223250685,4.19304945147
9120,Beveren,Blokmakerstraat,8,51.1794374866,4.24223432378
9120,Beveren,Peperstraat,3,51.2122114682,4.25606742713
9120,Beveren,Kloosterstraat,48,51.2146699207,4.25996123213
9120,Beveren,Klapperstraat,73,51.2109733474,4.24489695586
9120,Beveren,Sint-Martenslaan,19,51.2116226153,4.24977052593
9120,Beveren,Windmolenstraat,40,51.2171848712,4.20863184182
9120,Beveren,Polderdreef,25,51.2239662874,4.25201860938
9120,Beveren,Kloetstraat,9,51.2304117544,4.28827097329
9120,Beveren,Jan Frans Willemsstraat,22,51.2064013361,4.24764931628
9120,Beveren,Eximius Van de Veldelaan,14,51.2120283237,4.24646375388
9120,Beveren,Leliestraat,44,51.2232809019,4.26295408449
9120,Beveren,Tulpenstraat,31,51.2267995505,4.26444465731
9120,Beveren,Keizer Karelstraat,43,51.2222046548,4.27672356362
9120,Beveren,Keizerstraat,104,51.1820608914,4.24610092444
9120,Beveren,Stuurstraat,126,51.1823502876,4.21704985646
9120,Beveren,Kuiperstraat,23,51.1798948582,4.24260490951
9120,Beveren,Sint-Paulusplein,27,51.251783013,4.27613249314
9120,Beveren,Willem Elsschotlaan,27,51.2265582481,4.28422226439
9120,Beveren,Klaprozenstraat,25,51.2258138511,4.26318242138
9120,Beveren,Bosbeek,8,51.2024709232,4.23877055101
9120,Beveren,Pastoor Steenssensstraat,131,51.2108760969,4.23567040898
9120,Beveren,Grote Baan,110,51.2205159801,4.29476218236
9120,Beveren,Haasdonkbaan,15,51.2054781047,4.2417658704
9120,Beveren,Doornpark,20,51.1982174981,4.2189381496
9120,Beveren,Lijsterbessenlaan,8,51.2110124582,4.25488928038
9120,Beveren,Bunderhof,19,51.1799968925,4.23771978284
9120,Beveren,Stationsstraat,9,51.2116119521,4.25847817334
9120,Beveren,Levergem,77,51.2234242893,4.24534287246
9120,Beveren,Stuurstraat,75,51.1869982956,4.22547310181
9120,Beveren,Luitenant Van Eepoelstraat,12,51.2166417697,4.26081724108
9120,Beveren,Oude Dorpsstraat,30,51.2193870692,4.19241787003
9120,Beveren,Stationsstraat,100,51.2088577625,4.25814064148
9120,Beveren,Botermelkstraat,3A,51.1807964847,4.26094551762
9120,Beveren,Koolputstraat,63,51.2293978915,4.26229335795
9120,Beveren,Zandstraat,272,51.1970837777,4.23569095068
9120,Beveren,Dweerse Kromstraat,41,51.2008975114,4.28592329022
9120,Beveren,Kasteeldreef,88,51.2189476722,4.25495117493
9120,Beveren,Hoog-Kallostraat,74,51.2536071431,4.28520401744
9120,Beveren,Seringenstraat,12,51.2249642416,4.26194225968
9120,Beveren,Bijlstraat,60,51.2090921517,4.24610508105
9120,Beveren,Heirbaan,79,51.1875702133,4.28594932388
9120,Beveren,Kriekelaarstraat,12,51.2063600467,4.19406765734
9120,Beveren,Melselestraat,67,51.1939901734,4.26961612347
9120,Beveren,Bisschop Triestlaan,36,51.2125097049,4.24774330857
9120,Beveren,Schuttershofstraat,45,51.2207713308,4.26093727837
9120,Beveren,'s Herenwilg,4,51.2118447936,4.227128855
9120,Beveren,Hof ter Wellelaan,6,51.2088119351,4.25738463095
9120,Beveren,Oude Dorpsstraat,11A,51.2191628697,4.19379589084
9120,Beveren,Jan Frans Faveletstraat,36,51.2580595711,4.27782976281
9120,Beveren,Jasmijnstraat,10,51.2225302048,4.25938892206
9120,Beveren,Vendoornstraat,73,51.2165100265,4.30538450238
9120,Beveren,Kalishoekstraat,100,51.2239060492,4.28627797355
9120,Beveren,Brandstraat,94,51.2072355655,4.20409494408
9120,Beveren,Zandstraat,98,51.1877666625,4.23585526335
9120,Beveren,Wilhelmietenlaan,16,51.2122538294,4.24901103319
9120,Beveren,Donkerstraat,5,51.2225919716,4.25239461833
9120,Beveren,Armand Preud'hommestraat,1,51.2088956846,4.2287194086
9120,Beveren,Leurshoek,24,51.223767184,4.2562049997
9120,Beveren,Albert Panisstraat,90,51.2077400304,4.24490105792
9120,Beveren,Middenheide,42,51.2050344107,4.2355052721
9120,Beveren,Melseledijk,53,51.2483541882,4.27651606156
9120,Beveren,Kasteeldreef,35,51.2150383957,4.2565204667
9120,Beveren,Vesten,62,51.2166078231,4.26845476226
9120,Beveren,Luitenant Van Eepoelstraat,65,51.2201941232,4.26297091833
9120,Beveren,Meersenweg,60,51.2240712187,4.26672740464
9120,Beveren,Van Craenenbroeckstraat,14,51.2204441879,4.24966341334
9120,Beveren,Stuurstraat,57,51.1874952269,4.22708439631
9120,Beveren,Gentseweg,428,51.1929134983,4.2101661359
9120,Beveren,Beekstraat,17,51.2158487623,4.18757449739
9120,Beveren,Alfons Van Puymbroecklaan,72,51.2259079608,4.2806518844
9120,Beveren,Spoorweglaan,43,51.2181635098,4.28180037632
9120,Beveren,Gentseweg,345,51.1940200167,4.21636764215
9120,Beveren,Lodewijk de Vochtstraat,58,51.207620359,4.23333279366
9120,Beveren,Windmolenstraat,29,51.2171590821,4.20937244139
9120,Beveren,Mosselbank,129,51.2205484102,4.21219320367
9120,Beveren,Kallobaan,2,51.215219527,4.26071160083
9120,Beveren,Tijmstraat,27,51.2263840579,4.27029768635
9120,Beveren,Drie Lindekens,12,51.2167060862,4.24319471496
9120,Beveren,Albert Panisstraat,72,51.2082549285,4.24589248579
9120,Beveren,Levergem,59,51.2224144567,4.24500958617
9120,Beveren,Diederik Van Beverenlaan,38,51.2130731892,4.25187684514
9120,Beveren,Bijlstraat,14,51.2095407406,4.24792497488
9120,Beveren,Reepdorp,30,51.2233528131,4.25036457307
9120,Beveren,Heirbaan,26,51.1842258005,4.2493880275
9120,Beveren,Bunderhof,37,51.178963873,4.23840394078
9120,Beveren,Van Craenenbroeckstraat,60,51.2213371278,4.25105055088
9120,Beveren,Meersenweg,14,51.2247494517,4.26881126328
9120,Beveren,Donkvijverstraat,65,51.2128975776,4.24601112523
9120,Beveren,Dijkstraat,164,51.2304093115,4.27215522027
9120,Beveren,Waterhoenlaan,48,51.230789847,4.27390575385
9120,Beveren,Klapperstraat,91,51.2117188564,4.24499129664
9120,Beveren,Kasteeldreef,17,51.2144185362,4.25517554148
9120,Beveren,Schaarbeekstraat,18,51.2001832404,4.31121991502
9120,Beveren,Lesseliersdreef,32,51.2063758738,4.24859905983
9120,Beveren,Grote Markt,18,51.2134205399,4.2553515496
9120,Beveren,Pastoor Steenssensstraat,113,51.210411679,4.2360854318
9120,Beveren,Blokmakerstraat,76,51.180327344,4.24401138025
9120,Beveren,H. Verriestlaan,7,51.2281857711,4.28123125787
9120,Beveren,Edgard Tinelstraat,43,51.2077685288,4.22825872613
9120,Beveren,Vlierstraat,34,51.2268294704,4.27254465449
9120,Beveren,Heiveldstraat,44,51.2225525432,4.24934201091
9120,Beveren,Koolputstraat,19,51.2308807677,4.26709957422
9120,Beveren,Haasdonkbaan,33,51.2048438774,4.24193242008
9120,Beveren,Koolputstraat,45,51.2298549765,4.26466119669
9120,Beveren,Gentseweg,27A,51.2047680323,4.24035813426
9120,Beveren,Gaverlandwegel,18,51.2254450467,4.27294844504
9120,Beveren,Drie Lindekens,65,51.2176828402,4.24360500974
9120,Beveren,Lindenlaan,38,51.2163710792,4.24242276882
9120,Beveren,Schuttershofstraat,37,51.2202826293,4.2606375396
9120,Beveren,Haagstraat,50,51.222915713,4.18063264881
9120,Beveren,Kruibekesteenweg,120,51.2047657114,4.26200910177
9120,Beveren,Stuurstraat,22,51.1882514207,4.23498124631
9120,Beveren,Vossenstraat,30,51.2198629776,4.29772899898
9120,Beveren,Lesseliersdreef,85,51.2058213287,4.24953397781
9120,Beveren,Duivestraat,11,51.2289202266,4.30069687641
9120,Beveren,Gentseweg,18,51.205718735,4.24076919428
9120,Beveren,Tijmstraat,3,51.2271628004,4.26995978901
9120,Beveren,Windmolenstraat,5,51.2186070737,4.20747696122
9120,Beveren,Gaverlandstraat,41,51.2246880752,4.27388400736
9120,Beveren,Vlierstraat,69,51.2284238279,4.27199038052
9120,Beveren,Bosbessenlaan,31,51.2125670684,4.28508416422
9120,Beveren,Kerkstraat,63,51.2121824502,4.19587798396
9120,Beveren,Haagstraat,39,51.2227607523,4.18418168655
9120,Beveren,Drie Lindekens,83,51.21837059,4.24254376117
9120,Beveren,Gentseweg,66,51.2051103501,4.23915056496
9120,Beveren,Spoorweglaan,17,51.2187946962,4.28182897903
9120,Beveren,Sleutelhoflaan,1,51.2193537915,4.20039039245
9120,Beveren,Beverse Dijk,15,51.2511753052,4.27600421579
9120,Beveren,Zillebeek,54,51.2223698672,4.22841519667
9120,Beveren,Willem Van Doornyckstraat,81,51.1802291494,4.23417696184
9120,Beveren,Hoge Eiken,11,51.2165955418,4.26339436132
9120,Beveren,Zandstraat,27,51.1837082587,4.23715049884
9120,Beveren,Piet Stautstraat,26,51.2049822016,4.26056989892
9120,Beveren,Zillebeek,127,51.2222389353,4.22059142436
9120,Beveren,Kloosterstraat,69,51.2151560745,4.26111461652
9120,Beveren,Pastoor Steenssensstraat,95,51.2098787558,4.23648976405
9120,Beveren,Moerstraat,14,51.2100034082,4.22092060395
9120,Beveren,Hendrik Consciencestraat,78,51.2054480253,4.25701787164
9120,Beveren,Spoorweglaan,132,51.2149305351,4.282882721
9120,Beveren,Gravendreef,15,51.2105808943,4.26014472072
9120,Beveren,Klapperstraat,20,51.2096514777,4.2448678201
9120,Beveren,Van Reynegomstraat,3,51.2587093548,4.27530130439
9120,Beveren,Bergstraat,15,51.1784662524,4.23270136692
9120,Beveren,Hennenneststraat,16,51.2259676005,4.29938160031
9120,Beveren,Stationsplein,4,51.2083754833,4.25954639386
9120,Beveren,Cauwenstraat,4,51.2200528446,4.19627459235
9120,Beveren,Oude Zandstraat,81,51.2107576213,4.25145202003
9120,Beveren,Schoolstraat,112,51.2241447159,4.27802336525
9120,Beveren,Stationsstraat,11,51.2113790144,4.25794336958
9120,Beveren,Jan Bekenshoek,34,51.2171857469,4.27607102753
9120,Beveren,Keizer Karelstraat,35,51.2225842029,4.27750063244
9120,Beveren,Oude Dorpsstraat,40,51.2192608581,4.19150347015
9120,Beveren,Gentseweg,191,51.2007744495,4.23142839966
9120,Beveren,Onze-Lieve-Vrouwstraat,88,51.2092468006,4.24002976953
9120,Beveren,Ter Gaeverlaan,24,51.2195334003,4.25632064151
9120,Beveren,Lindenlaan,240,51.2088706002,4.2250263152
9120,Beveren,Donkvijverstraat,138,51.2131880348,4.24605100814
9120,Beveren,Dijkstraat,146,51.230089056,4.27259939228
9120,Beveren,Gasthuisstraat,3,51.2521822413,4.27914982695
9120,Beveren,Mispellaan,8,51.2158850012,4.28361588602
9120,Beveren,Dambrugstraat,10,51.2222911459,4.28215072635
9120,Beveren,Klapperstraat,269,51.2181878148,4.24654859525
9120,Beveren,Kallobaan,26,51.215871027,4.26073328615
9120,Beveren,Kerkstraat,118,51.2103878191,4.1938545796
9120,Beveren,Meidoornlaan,43,51.2087540585,4.25577379704
9120,Beveren,Kerkstraat,81,51.2102258608,4.19465855039
9120,Beveren,Lavendelstraat,25,51.2289410929,4.26817445056
9120,Beveren,Grote Markt,36,51.2125382072,4.25789541066
9120,Beveren,'s Wolfsdam,13,51.224270637,4.19502987878
9120,Beveren,Schaarbeekstraat,36,51.20357468,4.31510196953
9120,Beveren,Kapeldijkstraat,13B,51.2542395327,4.28790760511
9120,Beveren,Gentseweg,84,51.204790521,4.23855679348
9120,Beveren,Perstraat,71,51.1782609852,4.24106702225
9120,Beveren,Dorpsdam,33,51.2212104755,4.19224768542
9120,Beveren,Dorpsdam,15,51.220578047,4.19254764184
9120,Beveren,Hendrik Consciencestraat,43,51.206699678,4.25789446229
9120,Beveren,Mosselbank,38,51.2192164151,4.20551587025
9120,Beveren,Marnixstraat,26,51.2232793329,4.2759467836
9120,Beveren,Glazenleeuwstraat,175,51.2193421144,4.24124984324
9120,Beveren,Kasteeldreef,104,51.2192900393,4.2548560231
9120,Beveren,Prosper Van Raemdonckstraat,15,51.2162820103,4.25046800377
9120,Beveren,Perstraat,53,51.1788502712,4.24039701787
9120,Beveren,Kruibekesteenweg,13,51.2077107968,4.25955595345
9120,Beveren,Tulpenstraat,41,51.2263075015,4.26472389039
9120,Beveren,Meerminnendam,7,51.2129251978,4.24396374244
9120,Beveren,Oude Zandstraat,45,51.211319373,4.25289324261
9120,Beveren,Ciamberlanidreef,27,51.2155569481,4.25333788826
9120,Beveren,Stuurstraat,93,51.184068255,4.2190228375
9120,Beveren,Gaverlandwegel,84,51.2278565579,4.27945489721
9120,Beveren,Spoorweglaan,35,51.2183870205,4.28188125797
9120,Beveren,Melselestraat,32,51.1835379005,4.24310340321
9120,Beveren,Kapelstraat,41,51.2245395977,4.26557364719
9120,Beveren,Pastoor Steenssensstraat,59,51.2085062498,4.23740729726
9120,Beveren,Keizer Karelstraat,17,51.2233337794,4.27731180583
9120,Beveren,Tuinlaan,5,51.2245516766,4.19354314004
9120,Beveren,Gentseweg,36,51.2055011652,4.24030690559
9120,Beveren,Zillebeek,90,51.222689265,4.22506436855
9120,Beveren,Melseledijk,12B,51.2511960921,4.2777850464
9120,Beveren,Daalstraat,27,51.2178319507,4.19855400486
9120,Beveren,Lavendelstraat,1,51.2301099908,4.26728105392
9120,Beveren,van Brouchovenstraat,14,51.2100501798,4.26370712655
9120,Beveren,Dennenlaan,4,51.1801443873,4.21355715671
9120,Beveren,Koben Geertsstraat,33,51.2183336067,4.24938023189
9120,Beveren,Eikenlaan,53,51.2139937732,4.27780883228
9120,Beveren,Hendrik Consciencestraat,96,51.2048822428,4.25754061592
9120,Beveren,Pauwstraat,40,51.2148942633,4.28742795924
9120,Beveren,Yzerhand,13,51.2152382931,4.2522157872
9120,Beveren,Gaverlanddam,10,51.2238396494,4.26379950967
9120,Beveren,Hertog Van Arenberglaan,6,51.2115496072,4.25065008692
9120,Beveren,Albrecht Rodenbachlaan,26,51.2264861115,4.28339527316
9120,Beveren,Kerkstraat,45,51.2152368883,4.1963022078
9120,Beveren,Gentseweg,209,51.2005503857,4.2309789558
9120,Beveren,Daalstraat,3,51.2178243256,4.1965699082
9120,Beveren,Dijkstraat,136,51.2296918684,4.27316797778
9120,Beveren,Bisschop Triestlaan,18,51.2120311663,4.24801386817
9120,Beveren,Halfdreef,23,51.2227467418,4.2546110225
9120,Beveren,Ernest Claesstraat,5,51.2057361516,4.24778739484
9120,Beveren,Diederik Van Beverenlaan,38A,51.213249615,4.25296217734
9120,Beveren,Stuurstraat,108,51.1836643815,4.21915055603
9120,Beveren,Gentseweg,102,51.2046863297,4.23788845465
9120,Beveren,Beverse Dijk,33,51.2513972615,4.2753589712
9120,Beveren,Bosbeek,58,51.2031671671,4.23992383788
9120,Beveren,Ciamberlanidreef,3,51.2158939751,4.25554250141
9120,Beveren,Schoolstraat,76,51.2229007907,4.27882333805
9120,Beveren,Nieuwlandstraat,14,51.2039430777,4.31190212141
9120,Beveren,Leeuwerikenlaan,2,51.2316375967,4.27591910142
9120,Beveren,Kallobaan,87,51.2209477793,4.25580870019
9120,Beveren,Zandstraat,23F,51.1833060137,4.23738660533
9120,Beveren,Irisstraat,15,51.2227829519,4.26095813546
9120,Beveren,Kriekelaarstraat,30,51.2053206205,4.19683737501
9120,Beveren,Jozef Balstraat,7,51.2169193868,4.2810126515
9120,Beveren,Kerkplein,16,51.2213013737,4.28120643334
9120,Beveren,Seringenstraat,30,51.225395401,4.26132832398
9120,Beveren,Schoolstraat,58,51.2220377803,4.2785387169
9120,Beveren,Bankstraat,32,51.1775730704,4.22953121256
9120,Beveren,Albert Panisstraat,143,51.2063400492,4.24281895604
9120,Beveren,Spoorweglaan,78,51.217353958,4.28246510121
9120,Beveren,Appelstraat,9,51.2123442017,4.28175890566
9120,Beveren,Burggravenstraat,23,51.2220111046,4.29289419377
9120,Beveren,Lindenlaan,86,51.2163836679,4.23769508
9120,Beveren,Prosper Van Raemdonckstraat,112,51.2160712793,4.24607895791
9120,Beveren,Fabriekstraat,134,51.2601870581,4.27420447769
9120,Beveren,Aardbeienlaan,53,51.2128444664,4.2792893639
9120,Beveren,Victoriestraat,24,51.252757203,4.27734903534
9120,Beveren,Gentseweg,120,51.2042091467,4.2375752925
9120,Beveren,Schoofland,51,51.2213037139,4.24652873832
9120,Beveren,Kolkstraat,26,51.2171697791,4.18981768439
9120,Beveren,Zandstraat,120C,51.1904145085,4.23498365927
9120,Beveren,Esstraat,26,51.1885119766,4.29666159287
9120,Beveren,Felix Timmermansstraat,5,51.2054695872,4.24676416134
9120,Beveren,Peperdam,12,51.2234212764,4.19561318097
9120,Beveren,Schoolstraat,33,51.2219485052,4.2791071387
9120,Beveren,Boekweithofstraat,24,51.1836917219,4.2143893672
9120,Beveren,Heirbaan,7,51.1828632722,4.24987889195
9120,Beveren,Gerard Walschaplaan,37,51.2048893555,4.24260479132
9120,Beveren,Dennenlaan,28,51.1817282465,4.21089029864
9120,Beveren,Dijkstraat,189,51.2314102603,4.27160899019
9120,Beveren,Bergmolenstraat,59,51.2308876656,4.27880690442
9120,Beveren,Gaverlandstraat,117,51.2255144615,4.26903623665
9120,Beveren,Floralaan,9,51.2207044909,4.26197170626
9120,Beveren,Bosstraat,7,51.2003208781,4.24465281843
9120,Beveren,Willem Van Doornyckstraat,45,51.1807591898,4.23624279264
9120,Beveren,Keizerstraat,53,51.1816247233,4.24355930136
9120,Beveren,Dijkstraat,201,51.2318202067,4.27115387487
9120,Beveren,Klapperstraat,162,51.2152242832,4.2458009531
9120,Beveren,Kloetstraat,11,51.2304326396,4.2883187537
9120,Beveren,Vlaamse-gaailaan,12,51.2321360992,4.27604539194
9120,Beveren,Zandstraat,254,51.1960191299,4.23580541253
9120,Beveren,Jef van Hoofstraat,3,51.2120101792,4.23203845716
9120,Beveren,Koben Geertsstraat,58,51.2189870975,4.2499525084
9120,Beveren,Kalishoekstraat,64,51.2230101503,4.28380724179
9120,Beveren,Vossenstraat,40,51.2189737505,4.2980231779
9120,Beveren,Heiveldstraat,97,51.2240570686,4.24770091414
9120,Beveren,Willem Van Doornyckstraat,10,51.1809525474,4.23820334953
9120,Beveren,Kerselarenhof,19,51.2226104978,4.24692883894
9120,Beveren,Sint-Martenslaan,37,51.2112876964,4.24824331639
9120,Beveren,Lindenlaan,193,51.2113456317,4.22938009713
9120,Beveren,Albrecht Rodenbachlaan,4,51.2276979581,4.28121183854
9120,Beveren,Jan Bekenshoek,69,51.2167840887,4.27623011087
9120,Beveren,Albert Panisstraat,161,51.206069672,4.24230671335
9120,Beveren,Sint Gomaruslaan,15,51.1941859822,4.23449568348
9120,Beveren,K. Van de Woestijnestraat,13,51.2063654632,4.24676140235
9120,Beveren,Haandorpweg,1,51.2536092388,4.2167435759
9120,Beveren,Oude Zandstraat,10,51.2124790174,4.25433475917
9120,Beveren,Clement D'hooghestraat,19,51.2067684158,4.2249801047
9120,Beveren,Reepdorp,40,51.2239851895,4.24977738101
9120,Beveren,Bijlstraat,186,51.207117157,4.24236398732
9120,Beveren,Gerard Walschaplaan,19,51.2040849502,4.24266289963
9120,Beveren,Sint-Sebastiaanstraat,37,51.2209818127,4.2589425199
9120,Beveren,Yzerhand,31,51.2156560362,4.25171884949
9120,Beveren,August De Boeckstraat,26,51.2069662578,4.23082230387
9120,Beveren,Kruisdijklaan,17,51.2507347808,4.27473124687
9120,Beveren,Klapperstraat,180,51.2162963643,4.24600652347
9120,Beveren,Spoorweglaan,96,51.2167154888,4.28255786995
9120,Beveren,Ijzerstraat,72A,51.2156721025,4.28069754651
9120,Beveren,Molenhof,1,51.2196060891,4.26265335223
9120,Beveren,Koben Geertsstraat,15,51.2178544079,4.24953273316
9120,Beveren,Azalealaan,21,51.2245375122,4.25921619234
9120,Beveren,August De Boeckstraat,2,51.2081517134,4.2297162771
9120,Beveren,Leurshoek,103,51.2288546662,4.25994265791
9120,Beveren,Kalishoekstraat,11,51.2213464338,4.2806349574
9120,Beveren,Willem Van Doornyckstraat,63,51.1805755144,4.23532447634
9120,Beveren,Puchelstraat,8,51.2237153378,4.18917343007
9120,Beveren,Zillebeek,72,51.2225654264,4.22657671689
9120,Beveren,Moerbeienlaan,15,51.2168422465,4.2842191227
9120,Beveren,Jan Bekenshoek,16,51.2173747279,4.27497977816
9120,Beveren,Smisstraat,70,51.223036748,4.18937471156
9120,Beveren,Alice Nahonlaan,23,51.2287810708,4.28422127341
9120,Beveren,Glazenleeuwstraat,157,51.219186996,4.24244881685
9120,Beveren,Irisstraat,33,51.2234893339,4.26123921615
9120,Beveren,Pastoor Verwilghenplein,10A,51.1810157606,4.23904550661
9120,Beveren,Bergstraat,37A,51.176685001,4.23532395788
9120,Beveren,Onze-Lieve-Vrouwstraat,104,51.2092825792,4.2391242943
9120,Beveren,Yzerhand,84,51.217423228,4.25051722249
9120,Beveren,de Bergeyckdreef,1,51.2121803607,4.26423228239
9120,Beveren,Lodewijk Mortelmansstraat,12,51.2093086527,4.23129264151
9120,Beveren,Provinciale Baan,23,51.2249786292,4.19124634342
9120,Beveren,Van Craenenbroeckstraat,105,51.2222947567,4.25233466541
9120,Beveren,Piet Stautstraat,87,51.2027661747,4.25450022871
9120,Beveren,Kapeldijkstraat,7A,51.254125723,4.28643462942
9120,Beveren,Mosselbank,92,51.220537457,4.21098019653
9120,Beveren,Prosper Van Raemdonckstraat,86,51.2161829647,4.24717710036
9120,Beveren,Nieuwe Baan,53,51.2222032802,4.1937282747
9120,Beveren,Grote Heidestraat,6,51.1995916234,4.22666270315
9120,Beveren,Bijlstraat,85,51.2081800747,4.2446999937
9120,Beveren,'s Herenwilg,11,51.2129033053,4.22588104151
9120,Beveren,Broekstraat,14,51.2327772253,4.20717860372
9120,Beveren,Kardinaal Cardijnlaan,7,51.2152962974,4.28329093448
9120,Beveren,Bunderhof,47,51.1790296493,4.23756961217
9120,Beveren,Vossenstraat,29,51.2182358274,4.29730937839
9120,Beveren,Kleine Kromstraat,21,51.2184328624,4.24067866914
9120,Beveren,Jef van Hoofstraat,10,51.211922915,4.2330696436
9120,Beveren,Hertog Van Arenberglaan,38,51.212897205,4.24980106664
9120,Beveren,Dweerse Kromstraat,66,51.1993531557,4.27702468003
9120,Beveren,Kruisstraat,17,51.1946992596,4.218895607
9120,Beveren,Kerkstraat,27,51.216877176,4.1956157698
9120,Beveren,Goudenregenlaan,6,51.2094095862,4.25520841392
9120,Beveren,Meersenweg,85,51.2239982145,4.2658702832
9120,Beveren,Boomgaardstraat,17,51.2155301542,4.28140137273
9120,Beveren,Seringenstraat,40,51.2252404213,4.26090854444
9120,Beveren,H. Verriestlaan,26,51.2296826497,4.28178593447
9120,Beveren,Rerum Novarumlaan,31,51.2203255969,4.18968753763
9120,Beveren,Gerard Van Gervenstraat,16,51.2146900518,4.26104470073
9120,Beveren,Parmastraat,56,51.2069306452,4.29913919073
9120,Beveren,Haasdonkbaan,8,51.2048995644,4.24105430664
9120,Beveren,Zandstraat,111,51.1932792038,4.23640110771
9120,Beveren,Mispellaan,3A,51.2155492096,4.28376347468
9120,Beveren,Bosdamlaan,34,51.2082236044,4.25478328912
9120,Beveren,Reepdorp,29,51.2240320968,4.2492274513
9120,Beveren,Zillebeek,18,51.2220113011,4.23178870865
9120,Beveren,Kasteeldreef,167,51.2199431281,4.25400539024
9120,Beveren,Lindenlaan,21,51.2158061961,4.244248894
9120,Beveren,Kruibekesteenweg,210,51.1998290548,4.26576599532
9120,Beveren,Polderstraat,25,51.2253035561,4.22493009525
9120,Beveren,Zandstraat,63,51.1906989837,4.23601545644
9120,Beveren,Westakkerlaan,13,51.192145363,4.20672249715
9120,Beveren,Glazenleeuwstraat,122,51.2193375849,4.24444175772
9120,Beveren,Leurshoek,95,51.2281530638,4.25889867922
9120,Beveren,Windmolenstraat,30,51.2178632197,4.20769578288
9120,Beveren,Begoniastraat,20,51.2232611037,4.26042956551
9120,Beveren,Peter Benoitlaan,42,51.2083243928,4.23553155248
9120,Beveren,Van Craenenbroeckstraat,7,51.2204121221,4.24914879394
9120,Beveren,Beverse Dijk,16C,51.2519995136,4.27370033354
9120,Beveren,Heirbaan,44,51.1841806867,4.25220406993
9120,Beveren,Cyriel Buysselaan,14,51.2277659032,4.28255907719
9120,Beveren,Ropstraat,27,51.1817873908,4.23648658596
9120,Beveren,Peperkoren,3,51.2161783798,4.26187137233
9120,Beveren,Kortbroekstraat,31,51.2230977336,4.19029858943
9120,Beveren,Kerkplein,9,51.2208675599,4.28140505091
9120,Beveren,Eikenlaan,35,51.2153876261,4.27678042248
9120,Beveren,Breestraat,8,51.2031315008,4.27534829687
9120,Beveren,Rerum Novarumlaan,13,51.220459826,4.19078470239
9120,Beveren,Brielstraat,92,51.2321132538,4.27184719784
9120,Beveren,Sportlaan,71,51.2196557371,4.18948041548
9120,Beveren,Zandstraat,77J,51.1922547593,4.23637839342
9120,Beveren,Lijsterbessenlaan,23,51.2102784103,4.25492841074
9120,Beveren,Hazenhof,42,51.2136810721,4.2771129174
9120,Beveren,Peperstraat,10,51.2120070539,4.25576482019
9120,Beveren,Sportlaan,53,51.219804,4.19076386553
9120,Beveren,Halfdreef,58,51.2228782821,4.25521661
9120,Beveren,Bosbeek,23,51.2017621686,4.23543187355
9120,Beveren,Sint-Martenslaan,20,51.2114196081,4.24741011285
9120,Beveren,Jan Frans Faveletstraat,54,51.2589448628,4.27717482926
9120,Beveren,Blokmakerstraat,51,51.1781044495,4.2444136893
9120,Beveren,Bijlstraat,105,51.2080533483,4.24393735393
9120,Beveren,Stuurstraat,3,51.1885977733,4.23500357303
9120,Beveren,Piet Stautstraat,69,51.2043930166,4.25900865485
9120,Beveren,Meidoornlaan,25,51.2095316235,4.25641200274
9120,Beveren,Kallobaan,141,51.2230003762,4.25553293889
9120,Beveren,Pastoor Steenssensstraat,24,51.2065955696,4.24061269438
9120,Beveren,Luitenant Van Eepoelstraat,40,51.2181781645,4.26252232907
9120,Beveren,Perstraat,17,51.1801786307,4.23893827656
9120,Beveren,Hoog-Kallostraat,31,51.253385293,4.28128957626
9120,Beveren,Mosselbank,74,51.2205663277,4.20937802168
9120,Beveren,Brandstraat,51,51.2057880819,4.20359021418
9120,Beveren,Brielstraat,74,51.2325262895,4.27320830842
9120,Beveren,Gustaaf Neesstraat,9,51.2058550368,4.22441012963
9120,Beveren,Eikenlaan,17,51.2158722073,4.27797307372
9120,Beveren,Glazenleeuwstraat,56,51.218395603,4.24775588822
9120,Beveren,Meersenweg,49,51.2244253974,4.26697999934
9120,Beveren,Waterhoenlaan,52,51.2309514111,4.27373449
9120,Beveren,Koben Geertsstraat,86,51.219754978,4.249863827
9120,Beveren,Schuttershofstraat,47,51.2208095147,4.2610180606
9120,Beveren,Fazantenlaan,30,51.2294500207,4.27756288368
9120,Beveren,Prosper Van Raemdonckstraat,8,51.2166366276,4.25076408333
9120,Beveren,Westakkerlaan,31,51.1924039888,4.20766627676
9120,Beveren,Brugstraat,5,51.2195379595,4.19483789956
9120,Beveren,Dorpsdam,8,51.2198019026,4.19334006736
9120,Beveren,Oude Dorpsstraat,29,51.2190736549,4.19266809258
9120,Beveren,Dennenlaan,11,51.1820725779,4.21155258108
9120,Beveren,Dorpsdam,16C,51.2201688295,4.19353607007
9120,Beveren,Zandstraat,45,51.1845957673,4.23705261368
9120,Beveren,Nieuwe Baan,71,51.2229201545,4.19351775597
9120,Beveren,Leurshoek,59,51.2253653425,4.25670647334
9120,Beveren,Pastoor Steenssensstraat,76C,51.2100470074,4.23696438047
9120,Beveren,Kallobaan,69,51.2197656477,4.25678353822
9120,Beveren,Fruithoflaan,11,51.2168687019,4.18841553532
9120,Beveren,Eximius Van de Veldelaan,7,51.2119619787,4.24697910687
9120,Beveren,Donkvijverstraat,40,51.2137193731,4.24934961343
9120,Beveren,Grote Heidestraat,110,51.2042944845,4.22435584262
9120,Beveren,Pauwstraat,83,51.2153209567,4.2927642942
9120,Beveren,Zandstraat,57A,51.190519859,4.23635210696
9120,Beveren,Bergmolenstraat,12,51.2301684637,4.28581330945
9120,Beveren,Heiveldstraat,79,51.2235985978,4.24808113571
9120,Beveren,Drie Lindekens,40,51.2175153081,4.24481770537
9120,Beveren,Sint-Paulusplein,10,51.2524355337,4.27714255129
9120,Beveren,Leon Labytstraat,38,51.2195934081,4.2484748836
9120,Beveren,Boerenkrijglaan,10,51.1781970656,4.23541332388
9120,Beveren,Alfons Van Puymbroecklaan,109,51.2291102476,4.28028855785
9120,Beveren,Willem Elsschotlaan,10,51.2282118221,4.28344224364
9120,Beveren,Kersenlaan,1,51.2150837463,4.28600149031
9120,Beveren,Edgard Tinelstraat,25,51.2091468229,4.22994585802
9120,Beveren,Pauwstraat,113,51.2151360991,4.2961393917
9120,Beveren,Blokmeers,3,51.2177893976,4.26310758176
9120,Beveren,Kloosterstraat,9,51.2141701402,4.25769720913
9120,Beveren,Fabriekstraat,78,51.2571357685,4.27540141353
9120,Beveren,Kruibekesteenweg,109,51.2031759886,4.26410595529
9120,Beveren,Leliestraat,26,51.2226553758,4.2627248987
9120,Beveren,Dennenlaan,46,51.1849133195,4.21101415557
9120,Beveren,Stuurstraat,39,51.1883886245,4.2310052442
9120,Beveren,Dweerse Kromstraat,6,51.2055475445,4.29813720166
9120,Beveren,Kruibekesteenweg,145,51.2017480235,4.26496286107
9120,Beveren,Zandstraat,236,51.1951878825,4.23589302919
9120,Beveren,Fazantenlaan,65,51.229939061,4.27789435341
9120,Beveren,Van Craenenbroeckstraat,67,51.221687422,4.25106713436
9120,Beveren,Smisstraat,5,51.2191264521,4.18885525658
9120,Beveren,Kruibekesteenweg,127,51.2022210385,4.26470241954
9120,Beveren,Gentstraat,54,51.2130543393,4.27820963767
9120,Beveren,Bijlstraat,49,51.2088152216,4.24602166477
9120,Beveren,Gaverlanddam,98,51.2250814123,4.25787149936
9120,Beveren,Fabriekstraat,116,51.258559711,4.27485724513
9120,Beveren,Fruithoflaan,46,51.2174295051,4.18689398568
9120,Beveren,Kattestraat,16A,51.2180091022,4.29861014695
9120,Beveren,Bankstraat,14,51.1785446716,4.23071053572
9120,Beveren,Kleinebosweg,2,51.2092870957,4.25848005817
9120,Beveren,Kruibekesteenweg,163,51.2013850901,4.26519300929
9120,Beveren,Guldenvliesstraat,17,51.2229690727,4.2755105355
9120,Beveren,Heiveldstraat,105,51.2242781532,4.2475833953
9120,Beveren,Melseledijk,17,51.2506715512,4.27827789501
9120,Beveren,Luitenant Van Eepoelstraat,29,51.2174881432,4.26174058143
9120,Beveren,Kasteeldreef,71,51.2168748339,4.25549347743
9120,Beveren,Peter Benoitlaan,5,51.2111681277,4.23296607502
9120,Beveren,Grote Baan,325,51.2186462674,4.27366964094
9120,Beveren,Vesten,26,51.2160649665,4.26670787739
9120,Beveren,Melseledijk,88,51.2334657388,4.27021311026
9120,Beveren,Fazantenlaan,12,51.2286470507,4.27692624981
9120,Beveren,Moerstraat,32,51.2145337538,4.21249151912
9120,Beveren,Zandstraat,146,51.1916174698,4.23556999536
9120,Beveren,Bankstraat,60,51.1756832603,4.22377772222
9120,Beveren,Leurshoek,77,51.227367082,4.25759883102
9120,Beveren,Windmolenstraat,12,51.2187574415,4.20661281773
9120,Beveren,Donkvijverstraat,29,51.2131659989,4.24867826545
9120,Beveren,Waterhoenlaan,2,51.228522322,4.27603620453
9120,Beveren,Tijmstraat,10,51.2276977818,4.27027760997
9120,Beveren,Keizer Karelstraat,104,51.2219532752,4.27491295441
9120,Beveren,Bosdamlaan,16,51.2098813101,4.25344457716
9120,Beveren,Albert Panisstraat,36,51.208747217,4.24710793904
9120,Beveren,Albert Panisstraat,89,51.2073402225,4.24507196308
9120,Beveren,Kasteeldreef,132,51.2199436595,4.25465133478
9120,Beveren,Koolputstraat,20,51.2308747254,4.26824074401
9120,Beveren,Vlierstraat,87,51.2275676167,4.27268243048
9120,Beveren,Cretenborchlaan,9,51.208444571,4.25176030521
9120,Beveren,Zandstraat,81,51.1924802805,4.23629750821
9120,Beveren,Gentstraat,4,51.2150093674,4.28018615075
9120,Beveren,Verbindingstraat,4,51.2199753052,4.21164564223
9120,Beveren,Kasteeldreef,53,51.2160090482,4.25594352649
9120,Beveren,Jan Frans Willemsstraat,3,51.20709666,4.24709905488
9120,Beveren,Anemonenstraat,5,51.2262891041,4.26012740106
9120,Beveren,Klaveren Aas,8,51.2081271924,4.22691786328
9120,Beveren,Achterhoek,1,51.2246075477,4.24728981392
9120,Beveren,Levergem,24,51.2210672093,4.24555132349
9120,Beveren,Heirbaan,62,51.1842025397,4.25276651497
9120,Beveren,Bremstraat,15,51.2252643911,4.25852223969
9120,Beveren,Fabriekstraat,96,51.2576348137,4.27519357418
9120,Beveren,Meersenweg,67,51.2242304083,4.26652408167
9120,Beveren,Hendrik Consciencestraat,25,51.2068593728,4.25863643535
9120,Beveren,Beekstraat,71,51.214347081,4.17733655711
9120,Beveren,Lodewijk de Vochtstraat,23,51.209067379,4.23473353736
9120,Beveren,Heiveldstraat,123,51.226898753,4.24569375298
9120,Beveren,Pastoor Verwilghenplein,5,51.1811124678,4.23994535041
9120,Beveren,Kasteeldreef,185,51.2203763111,4.25366639753
9120,Beveren,Van Craenenbroeckstraat,49,51.2213334098,4.25047387208
9120,Beveren,Hazenhof,30A,51.2128367596,4.27602851607
9120,Beveren,Hertenlaan,10,51.2305514981,4.27645209477
9120,Beveren,Wilhelmietenlaan,2,51.2117373242,4.24924919019
9120,Beveren,Kattestraat,31,51.2175447849,4.29865005404
9120,Beveren,Melselestraat,60,51.1863013564,4.24475182531
9120,Beveren,Donkerstraat,30,51.2236714753,4.25165991484
9120,Beveren,Alfred Elewautstraat,9,51.1799535678,4.24185896797
9120,Beveren,Hagedoornstraat,15,51.2234304894,4.24682235905
9120,Beveren,Dijkstraat,111,51.2294250751,4.27415803644
9120,Beveren,Meersenweg,32,51.2244980112,4.26781022012
9120,Beveren,Pastoor Verwilghenplein,24,51.182170256,4.23872382229
9120,Beveren,Vlierstraat,52,51.2264967532,4.27214050763
9120,Beveren,Albert Panisstraat,18,51.2090673629,4.24779082473
9120,Beveren,Hagewindestraat,35,51.228750122,4.26282178861
9120,Beveren,Ijzerstraat,58,51.2168565336,4.27964754249
9120,Beveren,Haagstraat,22,51.2231899028,4.1854280341
9120,Beveren,Appelstraat,46,51.2098712094,4.2798023091
9120,Beveren,Hoge Wegel,15,51.1841102028,4.23794341932
9120,Beveren,Zandstraat,10,51.1816483014,4.23742542702
9120,Beveren,Willem Van Doornyckstraat,98,51.179400671,4.23267463186
9120,Beveren,Sint-Sebastiaanstraat,47,51.2213014629,4.25935771981
9120,Beveren,Snoeckstraat,35,51.2173646262,4.29516315434
9120,Beveren,Kruisstraat,6A,51.1843877886,4.21766826531
9120,Beveren,Gentseweg,210,51.200709904,4.22995195193
9120,Beveren,Perstraat,88,51.1730583337,4.25036670653
9120,Beveren,Vrasenestraat,33,51.2142564677,4.25357894053
9120,Beveren,Grote Baan,253,51.2200222032,4.27756786974
9120,Beveren,Blokmakerstraat,23,51.1784029204,4.24284087023
9120,Beveren,Albert Panisstraat,133,51.2065029702,4.24312129453
9120,Beveren,Spoorweglaan,104,51.2162722898,4.2827091003
9120,Beveren,Dweerse Kromstraat,13,51.2058015346,4.2965953497
9120,Beveren,Kloosterstraat,87,51.215404781,4.26180916097
9120,Beveren,Zandstraat,182,51.1930074154,4.2356179746
9120,Beveren,Notelarenhof,14,51.2196363589,4.24660951489
9120,Beveren,Irisstraat,8,51.2224413629,4.26132234666
9120,Beveren,Vrasenestraat,15,51.2137445255,4.25408366176
9120,Beveren,Grote Baan,135,51.2209332251,4.29164480597
9120,Beveren,Albert Panisstraat,115,51.2067536576,4.24371759281
9120,Beveren,Bijlstraat,32,51.2094050285,4.24714458333
9120,Beveren,Brandstraat,23,51.2166442853,4.21062749559
9120,Beveren,Klapperstraat,19,51.2095093294,4.24431211657
9120,Beveren,Buitenstraat,11A,51.2078277395,4.17945380648
9120,Beveren,Stuurstraat,101,51.1836458978,4.21768610224
9120,Beveren,Kalishoekstraat,28,51.2218469657,4.28095764899
9120,Beveren,Ropstraat,48A,51.1814143523,4.23055450169
9120,Beveren,Lindenlaan,129,51.2151957049,4.23570523112
9120,Beveren,Melkaderlaan,71,51.2537091865,4.27530724778
9120,Beveren,Zillebeek,89,51.2217790114,4.22618490724
9120,Beveren,Kattestraat,6,51.2183747944,4.2961280991
9120,Beveren,Achterhoek,19,51.2282618125,4.23816734813
9120,Beveren,Bosdamlaan,2,51.2110128188,4.25265902508
9120,Beveren,Blauwe Staak,4,51.214897292,4.16709858789
9120,Beveren,Kloosterstraat,52,51.2147020335,4.26018441542
9120,Beveren,Onze-Lieve-Vrouwstraat,53,51.2085527421,4.24097281132
9120,Beveren,Klapperstraat,134,51.2141368296,4.24568072743
9120,Beveren,Priemstraat,43,51.1923313173,4.27945884946
9120,Beveren,Bosbeek,51,51.2032695822,4.23863742016
9120,Beveren,Alixhof,16,51.2185216037,4.25673140353
9120,Beveren,Trepelandstraat,2A,51.2358842846,4.28535493114
9120,Beveren,Stationsstraat,28,51.2112004822,4.25686364822
9120,Beveren,Felix Timmermansstraat,12,51.2058877746,4.24689528618
9120,Beveren,Sint-Elisabethstraat,18,51.2214029357,4.28380585183
9120,Beveren,Sportlaan,35,51.2199562899,4.19198433116
9120,Beveren,Kerkstraat,111,51.2085641813,4.19344784542
9120,Beveren,Grote Baan,271,51.219368247,4.27656810016
9120,Beveren,Spoorweglaan,139,51.2143619005,4.2824711653
9120,Beveren,Stationsstraat,107,51.2085927606,4.25879478173
9120,Beveren,Melkaderlaan,53,51.2534736724,4.27402764351
9120,Beveren,Dennenlaan,64,51.1841516422,4.21320149851
9120,Beveren,Dammeke,1,51.2516111823,4.27815405497
9120,Beveren,Hagewindestraat,17,51.2280819549,4.26065378289
9120,Beveren,Anjelierenstraat,12,51.2251533538,4.26304605752
9120,Beveren,Kerkstraat,98,51.2125626624,4.19526279174
9120,Beveren,Sportlaan,17,51.2205261875,4.19218714426
9120,Beveren,Gildestraat,15,51.219954929,4.25957283444
9120,Beveren,Moerstraat,7,51.212120573,4.21597118118
9120,Beveren,Pauwstraat,30,51.2148750124,4.28648787408
9120,Beveren,Gerard Van Gervenstraat,2,51.21423795,4.26086355597
9120,Beveren,Gerard Walschaplaan,47,51.2053570182,4.24259866859
9120,Beveren,Alexander Farnèselaan,63,51.2238890809,4.27341239344
9120,Beveren,Waterhoenlaan,16,51.2291578311,4.27550096978
9120,Beveren,Glazenleeuwstraat,21,51.2173057853,4.24902575844
9120,Beveren,Seringenstraat,29,51.2248397564,4.26114823117
9120,Beveren,Lindenlaan,230,51.2097389179,4.22594878609
9120,Beveren,Nieuwe Baan,35,51.2212324389,4.1938479863
9120,Beveren,Onze-Lieve-Vrouwstraat,71,51.2087458791,4.24028299302
9120,Beveren,Doornpark,1,51.196115403,4.2170603781
9120,Beveren,Violierenstraat,17,51.2268592636,4.26055152663
9120,Beveren,Klein Laarstraat,80,51.2254972591,4.15972976138
9120,Beveren,Van Craenenbroeckstraat,32,51.2208233517,4.24987629091
9120,Beveren,Tuinlaan,12,51.2241734602,4.19459207795
9120,Beveren,Moretusstraat,10,51.2115583401,4.26029128748
9120,Beveren,Grote Baan,117,51.2209427444,4.29317702918
9120,Beveren,Veldstraat,1,51.1947581941,4.28866912275
9120,Beveren,Middenheide,70,51.2044969,4.23343667911
9120,Beveren,Gentseweg,363,51.1910274211,4.21082621799
9120,Beveren,Heirbaan,97,51.189835679,4.29383486134
9120,Beveren,Zandstraat,164,51.1921139577,4.23521683855
9120,Beveren,Kortbroekstraat,6,51.2232298672,4.19283052488
9120,Beveren,Pastoor Steenssensstraat,70,51.2096743712,4.23731115402
9120,Beveren,Fabriekstraat,61,51.2559600911,4.27538570325
9120,Beveren,Mandemakerstraat,28,51.1800045373,4.24304665111
9120,Beveren,Steenbeekstraat,33,51.2080824255,4.1689033179
9120,Beveren,Kleinebosweg,16,51.2093775913,4.25884918044
9120,Beveren,Pastoor Steenssensstraat,88A,51.2112807358,4.23597349841
9120,Beveren,Melseledijk,114,51.2320500898,4.27034178238
9120,Beveren,Oude Zandstraat,98,51.2105085323,4.24855241302
9120,Beveren,Lesseliersdreef,14,51.2071576425,4.24766739654
9120,Beveren,Kalishoekstraat,107,51.2238190982,4.28688175523
9120,Beveren,Hoge Wegel,33,51.1846477747,4.24005363761
9120,Beveren,Fortstraat,8,51.2092096031,4.30170527255
9120,Beveren,Klapperstraat,37,51.210133769,4.24406704672
9120,Beveren,Daalstraat,10,51.2175893456,4.19717503774
9120,Beveren,Adolf Van Bourgondiëlaan,21,51.2127688462,4.25051807712
9120,Beveren,Guido Gezellelaan,16,51.2070303092,4.24603406179
9120,Beveren,Gentstraat,36,51.213897482,4.27884142435
9120,Beveren,Anjelierenstraat,30,51.2258318014,4.26244574096
9120,Beveren,Stuurstraat,117F,51.1772264347,4.20828742925
9120,Beveren,Oude Dorpsstraat,65,51.2186519592,4.19028805698
9120,Beveren,Klein Laarstraat,44,51.221609777,4.1703607721
9120,Beveren,Leon Labytstraat,21,51.2193537504,4.24747488868
9120,Beveren,Grote Heidestraat,31,51.2007163002,4.22490295293
9120,Beveren,Dijkstraat,63,51.2270219411,4.27609728558
9120,Beveren,Kleine Kouterstraat,15,51.2172605935,4.16883463657
9120,Beveren,Spoorweglaan,222,51.2117649961,4.28529023116
9120,Beveren,Vlasbloemstraat,28,51.2246607155,4.26490103133
9120,Beveren,Alfons Van Puymbroecklaan,54,51.2250834832,4.28080902949
9120,Beveren,Hazaarddam,16,51.220338097,4.28048799151
9120,Beveren,Kardinaal Cardijnlaan,32,51.214628046,4.28397222519
9120,Beveren,Brugstraat,59,51.2199098494,4.19827307278
9120,Beveren,Brugstraat,24,51.2196166297,4.19695148315
9120,Beveren,Kromstraat,9,51.2253560744,4.23975463775
9120,Beveren,Bijlstraat,151,51.2070186927,4.24274887968
9120,Beveren,Aardbeienlaan,17,51.2142847615,4.27987782044
9120,Beveren,Lindenlaan,265,51.2062794102,4.2234016248
9120,Beveren,Luitenant Van Eepoelstraat,131,51.2219650439,4.26330544418
9120,Beveren,Gaverlandstraat,84,51.224624217,4.2709443808
9120,Beveren,Puchelstraat,23,51.2245941244,4.18674762296
9120,Beveren,Beverse Dijk,8,51.2522096491,4.27482081886
9120,Beveren,Gentseweg,41,51.2047557287,4.23995266938
9120,Beveren,Verlatdreef,5,51.2097911244,4.26461752864
9120,Beveren,Eximius Van de Veldelaan,32,51.2114684961,4.24617456915
9120,Beveren,Emiel Fleerackerslaan,15,51.2291182973,4.28457856227
9120,Beveren,Keizerstraat,17,51.1818590435,4.24193890803
9120,Beveren,Van Reynegomstraat,10,51.2590012984,4.27553722884
9120,Beveren,Ijzerstraat,94,51.2145399965,4.28177802659
9120,Beveren,Kolkstraat,12A,51.2180164974,4.18905002069
9120,Beveren,Grote Heidestraat,13,51.2000895121,4.22570348874
9120,Beveren,Oude Dorpsstraat,12,51.2194241222,4.19358537413
9120,Beveren,Keizerstraat,88,51.1819008721,4.24495165804
9120,Beveren,Cauwenstraat,11,51.2214985737,4.1949414024
9120,Beveren,Grote Heidestraat,84,51.203299604,4.22462102841
9120,Beveren,Rerum Novarumlaan,6,51.2207955843,4.19135252224
9120,Beveren,Gaverlandwegel,41,51.2257414503,4.27562713732
9120,Beveren,Laurierstraat,23,51.2280398611,4.26821217015
9120,Beveren,Van Craenenbroeckstraat,85,51.2220697228,4.25182093425
9120,Beveren,Gasthuisstraat,10,51.2516069777,4.2797318542
9120,Beveren,Glazenleeuwstraat,74,51.2188902812,4.24683316151
9120,Beveren,Sint-Sebastiaanstraat,20,51.2206835356,4.25909178922
9120,Beveren,Luitenant Van Eepoelstraat,113,51.2214586646,4.26333563815
9120,Beveren,Gentseweg,109,51.2038202073,4.23756736642
9120,Beveren,Gaverlandstraat,31,51.2246375718,4.27503384509
9120,Beveren,Peter Benoitlaan,77,51.2088570806,4.23644571061
9120,Beveren,Zillebeek,102,51.2226733307,4.22371233103
9120,Beveren,Gentseweg,536,51.1908562569,4.20562611128
9120,Beveren,Donkerstraat,70,51.2247606628,4.25009262266
9120,Beveren,Koben Geertsstraat,8,51.2177166835,4.25014006875
9120,Beveren,Gentseweg,127,51.2027477841,4.23577961067
9120,Beveren,Mosselbank,21,51.2198432738,4.20177169679
9120,Beveren,Schoolstraat,51,51.222612927,4.27970690828
9120,Beveren,Willem Van Doornyckstraat,27,51.181175674,4.23741631017
9120,Beveren,Ijzerstraat,76,51.2153584505,4.28100025173
9120,Beveren,Fabriekstraat,43,51.253958613,4.27623161619
9120,Beveren,Peter Benoitlaan,59,51.2103935352,4.23513414913
9120,Beveren,Bergstraat,8,51.1787820195,4.233251159
9120,Beveren,Tijmstraat,50,51.227756785,4.27141913916
9120,Beveren,Leenstraat,2,51.1747640377,4.25853351107
9120,Beveren,Gaverlandstraat,13,51.2248137268,4.27616133249
9120,Beveren,Gerard Walschaplaan,55,51.2056619154,4.24286127026
9120,Beveren,Peter Benoitlaan,24,51.2100752068,4.23469273488
9120,Beveren,Klapperstraat,116,51.21367278,4.24561582797
9120,Beveren,Hoog-Kallostraat,6,51.2528735139,4.28057537633
9120,Beveren,Clement D'hooghestraat,20,51.2070901559,4.22531337757
9120,Beveren,Schoofland,23,51.2213134247,4.24749773195
9120,Beveren,Essendreef,1,51.2122397655,4.26872010853
9120,Beveren,Gaverlandstraat,66,51.224221124,4.27253339327
9120,Beveren,Pauwstraat,12,51.2146884158,4.2845607435
9120,Beveren,Hazenhof,24,51.2132282421,4.27538518248
9120,Beveren,Glazenleeuwstraat,51A,51.2180270125,4.24777959589
9120,Beveren,Gerard Walschaplaan,20,51.203651965,4.24231394666
9120,Beveren,Mispellaan,23,51.2156625005,4.28521447439
9120,Beveren,Emiel Hullebroeckstraat,5,51.2097245086,4.22963720051
9120,Beveren,Brielstraat,56,51.2329643648,4.27476911496
9120,Beveren,Alixhof,34,51.2188263442,4.25724550234
9120,Beveren,Dennenlaan,82,51.1829083892,4.21468012506
9120,Beveren,Keizerstraat,35,51.181833837,4.24257795907
9120,Beveren,Glazenleeuwstraat,92,51.2192025756,4.24608278944
9120,Beveren,Grote Heidestraat,66,51.2030154046,4.22500492263
9120,Beveren,Lindenlaan,247,51.207735632,4.2248061419
9120,Beveren,Oude Zandstraat,27,51.2116408089,4.25345814117
9120,Beveren,Koben Geertsstraat,51,51.2190766731,4.24946478965
9120,Beveren,Moerbeienlaan,8,51.2165983295,4.28362733197
9120,Beveren,Klapperstraat,169,51.2147076477,4.24529868939
9120,Beveren,Jan Bekenshoek,9,51.2174583872,4.27644661523
9120,Beveren,Heiveldstraat,7,51.2213497843,4.24940976994
9120,Beveren,Parmastraat,21,51.2108508368,4.30097383275
9120,Beveren,Kerselarenhof,20,51.2223235357,4.24696522564
9120,Beveren,Aardbeienlaan,35,51.2136673129,4.27899284648
9120,Beveren,Brugstraat,77,51.2198312187,4.19891272032
9120,Beveren,Sint Gomaruslaan,8,51.1938379693,4.23507274214
9120,Beveren,Kalishoekstraat,178,51.2269045173,4.28698260127
9120,Beveren,Grote Baan,200,51.2195561753,4.28242255716
9120,Beveren,Hertenlaan,50,51.2298410341,4.27618935997
9120,Beveren,Mosselbank,56,51.2197138761,4.20811737547
9120,Beveren,Lindenlaan,43,51.2160542939,4.24264516915
9120,Beveren,Bunderhof,5,51.1792917828,4.23865686442
9120,Beveren,Zandstraat,77C,51.1915817282,4.23616158001
9120,Beveren,Heirbaan,14,51.1831857897,4.24952896994
9120,Beveren,Albert Panisstraat,120,51.2072864037,4.24406059315
9120,Beveren,Jan Bekenshoek,28,51.2171500601,4.27560652586
9120,Beveren,Kallobaan,148,51.2206495037,4.25643046883
9120,Beveren,Stationsstraat,74,51.2095620737,4.25773029324
9120,Beveren,Mirabellenlaan,6,51.211896873,4.28570013678
9120,Beveren,Melkaderlaan,129,51.2522828831,4.2730997721
9120,Beveren,Hazenhof,12,51.2143010968,4.27526698612
9120,Beveren,Gentseweg,90,51.2047028667,4.23837746728
9120,Beveren,Hennenneststraat,4,51.2262248292,4.29413351442
9120,Beveren,Klapperstraat,83,51.2113358742,4.24500561589
9120,Beveren,Grote Baan,46,51.2199436326,4.30134648618
9120,Beveren,Donkerstraat,52,51.2245444215,4.25056339837
9120,Beveren,Koolputstraat,29,51.2304092073,4.26591206345
9120,Beveren,Alfons Van Puymbroecklaan,62,51.2254660978,4.28065944068
9120,Beveren,Melseledijk,6,51.2519242409,4.27862409882
9120,Beveren,Floralaan,21,51.2209533997,4.26050159229
9120,Beveren,Windmolenstraat,19,51.2179019671,4.20849843176
9120,Beveren,Gaverlandstraat,48,51.2242485788,4.27392855375
9120,Beveren,Guldenvliesstraat,6,51.2227536843,4.2751326477
9120,Beveren,Kalishoekstraat,217,51.2298976793,4.2878267671
9120,Beveren,Willem Van Doornyckstraat,57,51.1806727486,4.23562537811
9120,Beveren,Drie Lindekens,59,51.2180176321,4.24366537335
9120,Beveren,Meersenweg,26,51.2246698272,4.26818560502
9120,Beveren,Sint-Martenslaan,40,51.2110701086,4.24598084736
9120,Beveren,Gentseweg,72,51.2048875689,4.23902483758
9120,Beveren,Cyriel Buysselaan,5,51.2278293389,4.28178607149
9120,Beveren,Grote Baan,207,51.2200656425,4.28131951792
9120,Beveren,Sint-Martenslaan,1,51.211986023,4.25167777455
9120,Beveren,Gerard Walschaplaan,25,51.2043478365,4.24263829818
9120,Beveren,Kasteeldreef,23,51.2145921807,4.25667938824
9120,Beveren,Lodewijk de Vochtstraat,66,51.2080649388,4.2338958708
9120,Beveren,Lindenlaan,204,51.2112871995,4.22807745615
9120,Beveren,Laurierstraat,13,51.2277956825,4.2678290401
9120,Beveren,Alfons Van Puymbroecklaan,80,51.2263082156,4.28065528535
9120,Beveren,August De Boeckstraat,18,51.207636834,4.23046832363
9120,Beveren,Stuurstraat,134,51.1815360132,4.21627636319
9120,Beveren,Kallobaan,166,51.2213618985,4.25611830486
9120,Beveren,Molenbeekweg,3,51.2178677058,4.28456091872
9120,Beveren,Pauwstraat,141,51.2101118217,4.2992765879
9120,Beveren,Lindenlaan,61,51.2162618951,4.24093276721
9120,Beveren,Dijkstraat,152,51.230201104,4.27244254419
9120,Beveren,Emiel Fleerackerslaan,21,51.228661479,4.28530361011
9120,Beveren,Kalishoekstraat,56,51.2228916288,4.28335341902
9120,Beveren,Keizer Karelstraat,3,51.2237965632,4.27692470854
9120,Beveren,Brugstraat,69,51.2198989799,4.19859086119
9120,Beveren,Veldstraat,12,51.1904441698,4.29392944371
9120,Beveren,Schoolstraat,53,51.222722084,4.27939737915
9120,Beveren,Van Craenenbroeckstraat,26,51.220657369,4.24972957167
9120,Beveren,van Brouchovenstraat,2,51.2095655754,4.26386790835
9120,Beveren,Klaasdekkerstraat,1,51.223838,4.21975213462
9120,Beveren,Bergmolenstraat,52,51.2299974465,4.27879099996
9120,Beveren,Zandstraat,49C,51.188610849,4.23648622598
9120,Beveren,Zillebeek,115,51.222254191,4.22282274248
9120,Beveren,Kruisdijklaan,3,51.2504531134,4.27648945208
9120,Beveren,Onze-Lieve-Vrouwstraat,129,51.2090771699,4.23811789042
9120,Beveren,Kalishoekstraat,92,51.2237819977,4.28574269791
9120,Beveren,Oude Zandstraat,75,51.2108030501,4.25176358258
9120,Beveren,Beekstraat,23,51.2157100023,4.18664877929
9120,Beveren,Kasteeldreef,140,51.2202565012,4.25460491512
9120,Beveren,Kerkstraat,75,51.2114466086,4.19547542958
9120,Beveren,Zandstraat,170,51.1924449838,4.23495912896
9120,Beveren,Bunderhof,71,51.1788195586,4.23721883883
9120,Beveren,Kerselarenhof,1,51.2226368293,4.24561547641
9120,Beveren,Victoriestraat,32A,51.2526325063,4.2763781761
9120,Beveren,Heirbaan,138,51.1906497003,4.29517127716
9120,Beveren,Klein Laarstraat,54,51.2216446378,4.16911963866
9120,Beveren,Piet Stautstraat,42,51.2053104442,4.25986316055
9120,Beveren,Kerkstraat,124,51.2100771513,4.19365339662
9120,Beveren,Gentseweg,215,51.2003679252,4.2305967796
9120,Beveren,Wilhelmietenlaan,24,51.2125618372,4.24880732067
9120,Beveren,Kattestraat,18,51.2180205623,4.29930184828
9120,Beveren,Lindenlaan,185,51.2118633827,4.230163204
9120,Beveren,Kuiperstraat,17,51.1794951969,4.24266061214
9120,Beveren,Drie Lindekens,77,51.2182460659,4.24319016196
9120,Beveren,Stuurstraat,10,51.1883070164,4.23550258625
9120,Beveren,Gentstraat,13,51.2149956134,4.27934137013
9120,Beveren,Kallobaan,184,51.2219228525,4.25601103743
9120,Beveren,Grote Baan,225,51.2199306896,4.27981175208
9120,Beveren,Kruisbessenlaan,41,51.2165677671,4.28579221426
9120,Beveren,Stationsstraat,92,51.209059543,4.25803341586
9120,Beveren,Zillebeek,84,51.2226263369,4.22557785571
