PKANCODE,COMMUNE_NL,STREET_NL,HUISNR,LAT,LON
9170,Sint-Gillis-Waas,Polenlaan,50,51.2524047482,4.08189022165
9170,Sint-Gillis-Waas,Drieske Nijperstraat,11,51.2204858524,4.12916609286
9170,Sint-Gillis-Waas,Spaanskwartier,20,51.2636019435,4.11406708336
9170,Sint-Gillis-Waas,Nieuwstraat,54,51.2219107869,4.12956601599
9170,Sint-Gillis-Waas,Buitenstraat,102,51.2499758266,4.07589520624
9170,Sint-Gillis-Waas,Kloosterstraat,35,51.2608772852,4.15143216229
9170,Sint-Gillis-Waas,Sint-Niklaasstraat,177,51.2026250636,4.14700345566
9170,Sint-Gillis-Waas,Klapdorp,40,51.1909295352,4.09272377458
9170,Sint-Gillis-Waas,Willem Van Saeftingelaan,28,51.260619876,4.10557180392
9170,Sint-Gillis-Waas,Bergstraat,4,51.2514776252,4.08197469074
9170,Sint-Gillis-Waas,Reepstraat,190,51.2267795491,4.09278347267
9170,Sint-Gillis-Waas,Koning Boudewijnlaan,9,51.1985130706,4.0709362564
9170,Sint-Gillis-Waas,Pompstraat,75,51.215772218,4.12397101923
9170,Sint-Gillis-Waas,Lage Kerkwegel,16,51.2179288248,4.13023788396
9170,Sint-Gillis-Waas,Boomgaardstraat,18,51.2569607852,4.14771456326
9170,Sint-Gillis-Waas,Laarstraat,9,51.2083486353,4.14498172851
9170,Sint-Gillis-Waas,Grouwesteenstraat,21,51.2003836367,4.10176727689
9170,Sint-Gillis-Waas,Kluizenhof,33,51.2282483473,4.0899023677
9170,Sint-Gillis-Waas,Oude Molenstraat,129,51.2621587046,4.11277701274
9170,Sint-Gillis-Waas,Prins Philiplaan,10,51.198331925,4.07564652738
9170,Sint-Gillis-Waas,Aststraat,77,51.2139307748,4.11391457329
9170,Sint-Gillis-Waas,Zavelstraat,29,51.2356460489,4.0974056208
9170,Sint-Gillis-Waas,Sportlaan,27,51.2227684494,4.11900854033
9170,Sint-Gillis-Waas,Puyveldestraat,16,51.1846190025,4.06383683104
9170,Sint-Gillis-Waas,Polderstraat,52,51.2631623372,4.14241643608
9170,Sint-Gillis-Waas,Stationstraat,134,51.2182082675,4.11655167472
9170,Sint-Gillis-Waas,Bagoniestraatje,12B,51.1949460518,4.07835530951
9170,Sint-Gillis-Waas,Heidestraat,56,51.2525668053,4.08476516421
9170,Sint-Gillis-Waas,Smoutstraat,19,51.2130874273,4.14072702753
9170,Sint-Gillis-Waas,Sint-Niklaasstraat,195,51.2011318507,4.14750885416
9170,Sint-Gillis-Waas,Nieuwstraat,72,51.2225551994,4.12953738429
9170,Sint-Gillis-Waas,Recolettenlaan,27,51.2603904958,4.1048035303
9170,Sint-Gillis-Waas,Reepstraat,172,51.22692743,4.0962119555
9170,Sint-Gillis-Waas,Smishoekstraat,39,51.257415262,4.1546949202
9170,Sint-Gillis-Waas,Bunderstraat,14,51.2042650057,4.12250082458
9170,Sint-Gillis-Waas,Kattestraat,9,51.223307798,4.08976336465
9170,Sint-Gillis-Waas,Sint-Gillisstraat,23,51.255340693,4.08930589697
9170,Sint-Gillis-Waas,Dennenlaan,21,51.197210667,4.07581693129
9170,Sint-Gillis-Waas,Kasteelstraat,2,51.2162864378,4.12982706327
9170,Sint-Gillis-Waas,Boomgaardstraat,36,51.2579762533,4.14721656013
9170,Sint-Gillis-Waas,Burg.K.L.Verbraekenstraat,9,51.2162915599,4.12236021089
9170,Sint-Gillis-Waas,Gaversstraat,67,51.2146527505,4.12079172428
9170,Sint-Gillis-Waas,Hoekstraat,2,51.2856913691,4.15064233763
9170,Sint-Gillis-Waas,Houtvoortstraat,38,51.2234617968,4.11653607571
9170,Sint-Gillis-Waas,Klingedijkstraat,59,51.2413409651,4.09794132642
9170,Sint-Gillis-Waas,Koningin Fabiolalaan,12,51.1977789892,4.07295010856
9170,Sint-Gillis-Waas,Kloosterstraat,17,51.2608231499,4.15009640789
9170,Sint-Gillis-Waas,Schoolstraat,12,51.2605092268,4.14562416236
9170,Sint-Gillis-Waas,Kerselarendreef,26,51.2592086937,4.09340495871
9170,Sint-Gillis-Waas,Schuilhoekstraat,1,51.2085140929,4.15510779917
9170,Sint-Gillis-Waas,Schooldreef,5,51.2574938163,4.09159211671
9170,Sint-Gillis-Waas,Buitenstraat,84,51.2502450233,4.07673180875
9170,Sint-Gillis-Waas,Zandstraat,177,51.2003482943,4.08076612498
9170,Sint-Gillis-Waas,Heuldonk,4,51.1918188742,4.09481985108
9170,Sint-Gillis-Waas,Pompstraat,57,51.2161183344,4.12491665467
9170,Sint-Gillis-Waas,Kluizenhof,15,51.2297363126,4.09872666063
9170,Sint-Gillis-Waas,Stationstraat,10,51.2196755888,4.12403789566
9170,Sint-Gillis-Waas,Dam,7,51.2140372601,4.12184414568
9170,Sint-Gillis-Waas,Willem Van Saeftingelaan,4,51.2590863528,4.10568043312
9170,Sint-Gillis-Waas,Aststraat,59,51.2140878758,4.11583715219
9170,Sint-Gillis-Waas,Margrietstraat,49,51.2578319073,4.14983608392
9170,Sint-Gillis-Waas,Vlasrootstraat,14,51.2035747587,4.07517712168
9170,Sint-Gillis-Waas,Sint-Niklaasstraat,159,51.2041134945,4.14682584819
9170,Sint-Gillis-Waas,Buitenstraat,120,51.2496629368,4.07469438742
9170,Sint-Gillis-Waas,Trompwegel,8,51.2526046411,4.08770647381
9170,Sint-Gillis-Waas,Oude Molenstraat,23,51.2569802716,4.10029011156
9170,Sint-Gillis-Waas,Sportlaan,3,51.222649124,4.12086998431
9170,Sint-Gillis-Waas,Ettingestraat,33,51.1901211423,4.098549102
9170,Sint-Gillis-Waas,Hogenakkerstraat,77,51.2497036708,4.08559750543
9170,Sint-Gillis-Waas,Holstraat,15,51.2224181904,4.0907872477
9170,Sint-Gillis-Waas,Heerweg,38,51.2049461685,4.08083095386
9170,Sint-Gillis-Waas,Kerkstraat,89,51.2198920479,4.12509392458
9170,Sint-Gillis-Waas,Schooldreef,75,51.2579324922,4.09882380078
9170,Sint-Gillis-Waas,Spaanskwartier,47A,51.2664037361,4.121403023
9170,Sint-Gillis-Waas,Eeckbergstraat,44D,51.2380228458,4.10953945815
9170,Sint-Gillis-Waas,Stationstraat,98,51.2184044402,4.1190357126
9170,Sint-Gillis-Waas,Kattestraat,14A,51.2226212518,4.08755324367
9170,Sint-Gillis-Waas,Vlasrootstraat,32,51.2024124214,4.07321210054
9170,Sint-Gillis-Waas,Hogenakkerstraat,24,51.2534856825,4.08949718281
9170,Sint-Gillis-Waas,Burg.G. Van Landeghemstraat,2,51.2163860552,4.12485099802
9170,Sint-Gillis-Waas,Recolettenlaan,3,51.2586811702,4.1048351061
9170,Sint-Gillis-Waas,Tybaartstraat,53,51.2178911723,4.10881937108
9170,Sint-Gillis-Waas,Hulststraat,21,51.2568740875,4.08792988538
9170,Sint-Gillis-Waas,Geinsteindestraat,22,51.1957907238,4.1295194342
9170,Sint-Gillis-Waas,Holstraat,33,51.2241906645,4.09149672081
9170,Sint-Gillis-Waas,Kronenhoekstraat,24,51.2209540937,4.12351077049
9170,Sint-Gillis-Waas,Pompstraat,93,51.2156177436,4.12359743276
9170,Sint-Gillis-Waas,Heidestraat,21,51.2540477285,4.0873316806
9170,Sint-Gillis-Waas,Stroperstraat,17,51.2380663505,4.09921776698
9170,Sint-Gillis-Waas,Reepstraat,19,51.2253644752,4.11670918293
9170,Sint-Gillis-Waas,Margrietstraat,103,51.2548819424,4.15179148866
9170,Sint-Gillis-Waas,Klingedorp,105,51.259497178,4.09134271593
9170,Sint-Gillis-Waas,Zijpstraat,3,51.219047382,4.1524275769
9170,Sint-Gillis-Waas,Pompstraat,5,51.2171038682,4.12682305227
9170,Sint-Gillis-Waas,Klapdorp,29,51.1922339524,4.09322517705
9170,Sint-Gillis-Waas,Heidestraat,74,51.2523311052,4.08404199464
9170,Sint-Gillis-Waas,Ettingestraat,15,51.1897350921,4.09565209153
9170,Sint-Gillis-Waas,Fort Bedmarstraat,8,51.2635839669,4.11302220799
9170,Sint-Gillis-Waas,Dries,30,51.1934597434,4.09638364373
9170,Sint-Gillis-Waas,Holstraat,68,51.2258893949,4.09165312654
9170,Sint-Gillis-Waas,Kerkstraat,48,51.2179786737,4.12552940342
9170,Sint-Gillis-Waas,Doornstraat,26,51.2107758214,4.13226176599
9170,Sint-Gillis-Waas,Jan Henderickxhof,7,51.2580532884,4.08896678641
9170,Sint-Gillis-Waas,Doornstraat,2,51.2113552684,4.13596623734
9170,Sint-Gillis-Waas,Doornstraat,72,51.2085477077,4.12071304824
9170,Sint-Gillis-Waas,Buitenstraat,66,51.2504820401,4.07738715572
9170,Sint-Gillis-Waas,Klompenstraat,20,51.2219770842,4.12896893936
9170,Sint-Gillis-Waas,Hogenakkerstraat,59,51.250569883,4.08782985836
9170,Sint-Gillis-Waas,Binnendijkstraat,4,51.2456486949,4.15691884363
9170,Sint-Gillis-Waas,Schooldreef,57,51.2575296373,4.09470779797
9170,Sint-Gillis-Waas,Ettingestraat,18C,51.189552841,4.09746758748
9170,Sint-Gillis-Waas,Burgemeester Van Hovelaan,48,51.2607654441,4.10233081529
9170,Sint-Gillis-Waas,Dagsterrestraat,12,51.2049939181,4.14865916507
9170,Sint-Gillis-Waas,Wallenhof,10,51.1925119062,4.09591696577
9170,Sint-Gillis-Waas,Collemanstraat,5,51.1965749793,4.0873409015
9170,Sint-Gillis-Waas,Lijkveldestraat,32,51.1852884042,4.0858668502
9170,Sint-Gillis-Waas,Broekstraat,20,51.2270634375,4.12954065978
9170,Sint-Gillis-Waas,Fort Bedmarstraat,11B,51.2651469291,4.11339302886
9170,Sint-Gillis-Waas,Schooldreef,67A,51.2576683455,4.09557319711
9170,Sint-Gillis-Waas,Heidestraat,4,51.2540759892,4.08871473781
9170,Sint-Gillis-Waas,Potterstraat,175,51.1805504182,4.10983251279
9170,Sint-Gillis-Waas,Raymond Smetstraat,6,51.2213638099,4.11938475873
9170,Sint-Gillis-Waas,Schoolstraat,16B,51.2615223955,4.14663574212
9170,Sint-Gillis-Waas,Stationstraat,169,51.2182022199,4.11451975676
9170,Sint-Gillis-Waas,Sint-Kornelisstraat,3,51.2806889655,4.15523134838
9170,Sint-Gillis-Waas,Okkevoordestraat,6,51.2242119706,4.13546063997
9170,Sint-Gillis-Waas,Turfbankenstraat,1,51.255494632,4.15059101776
9170,Sint-Gillis-Waas,Reepstraat,126,51.227296969,4.10456208422
9170,Sint-Gillis-Waas,Sint-Pietersnieuwstraat,1,51.2439477782,4.09287424729
9170,Sint-Gillis-Waas,Tybaartstraat,25,51.218147939,4.11073796844
9170,Sint-Gillis-Waas,Klapdorp,5,51.193412681,4.09499605212
9170,Sint-Gillis-Waas,Bagonielaan,19,51.1988627563,4.07749233184
9170,Sint-Gillis-Waas,Stationstraat,130A,51.2182962041,4.11703081441
9170,Sint-Gillis-Waas,Gaversstraat,39,51.2170604646,4.12030837279
9170,Sint-Gillis-Waas,Heidestraat,110,51.2519927018,4.08251408122
9170,Sint-Gillis-Waas,Koning Boudewijnlaan,62,51.199254053,4.07509980906
9170,Sint-Gillis-Waas,Blokstraat,9,51.2222295631,4.12434315384
9170,Sint-Gillis-Waas,Macharius Rheynstraat,18,51.2532522593,4.08196479748
9170,Sint-Gillis-Waas,Reepstraat,108,51.2268365229,4.10651942606
9170,Sint-Gillis-Waas,Oude Molenstraat,51,51.2581162337,4.10502767176
9170,Sint-Gillis-Waas,Lange Meersstraat,20,51.2500912267,4.14743954657
9170,Sint-Gillis-Waas,Boerenkrijglaan,16,51.2606919612,4.10711584012
9170,Sint-Gillis-Waas,Kouterstraat,46,51.292557323,4.16579486833
9170,Sint-Gillis-Waas,Margrietstraat,14,51.2600423884,4.14919856528
9170,Sint-Gillis-Waas,Gentstraat,66,51.1849633191,4.09977041981
9170,Sint-Gillis-Waas,Mgr.Bermijnstraat,25,51.1902814334,4.1003394637
9170,Sint-Gillis-Waas,Hof ter Vierschaar,5,51.1917754767,4.09673876
9170,Sint-Gillis-Waas,Zandloperstraat,3,51.2453207544,4.15270470386
9170,Sint-Gillis-Waas,Samelstraat,11,51.2166232711,4.13123192985
9170,Sint-Gillis-Waas,Oude Molenstraat,19A,51.2566304163,4.09849541894
9170,Sint-Gillis-Waas,Eeckbergstraat,4,51.2369068427,4.10012622049
9170,Sint-Gillis-Waas,Kluizendijkstraat,27,51.2347948303,4.10203315655
9170,Sint-Gillis-Waas,Turkeyenstraat,14,51.2313078517,4.14712471362
9170,Sint-Gillis-Waas,Doornstraat,54,51.2097366859,4.12727829252
9170,Sint-Gillis-Waas,Potterstraat,157,51.1836166339,4.10869856498
9170,Sint-Gillis-Waas,Potterstraat,23,51.1926483668,4.0991032588
9170,Sint-Gillis-Waas,Meerdonkdorp,39,51.2603068019,4.14802349578
9170,Sint-Gillis-Waas,Stationstraat,187,51.2183019762,4.1136756317
9170,Sint-Gillis-Waas,Eeckbergstraat,28,51.2370479399,4.10552843133
9170,Sint-Gillis-Waas,Krekeldijk,5,51.2432575758,4.13749428746
9170,Sint-Gillis-Waas,Kapelledreef,8,51.2647470838,4.10693681901
9170,Sint-Gillis-Waas,Baarstraat,32,51.2034007616,4.1330682445
9170,Sint-Gillis-Waas,Blokstraat,80,51.2235285304,4.13108935626
9170,Sint-Gillis-Waas,Sint-Niklaasstraat,71,51.2118828701,4.13581821618
9170,Sint-Gillis-Waas,Margrietstraat,32,51.2587324844,4.14966297434
9170,Sint-Gillis-Waas,Herenstraat,25,51.2226021638,4.12192774285
9170,Sint-Gillis-Waas,Potterstraat,58,51.1916384141,4.10212158649
9170,Sint-Gillis-Waas,Molenhoekstraat,54,51.2833986229,4.15778792979
9170,Sint-Gillis-Waas,Grensstraat,6,51.2909836066,4.16475740929
9170,Sint-Gillis-Waas,Blokstraat,62,51.2234549614,4.1302616573
9170,Sint-Gillis-Waas,Hoge Rode Moer,54,51.2602331276,4.09814766628
9170,Sint-Gillis-Waas,Margrietstraat,85,51.2562234433,4.15075950637
9170,Sint-Gillis-Waas,Trompwegel,43,51.251126767,4.08389636914
9170,Sint-Gillis-Waas,Klingedorp,87,51.2590246447,4.09129667397
9170,Sint-Gillis-Waas,Zandstraat,47,51.1955788652,4.09222496589
9170,Sint-Gillis-Waas,Zandstraat,53,51.1956048833,4.09162712332
9170,Sint-Gillis-Waas,Beekstraat,38,51.1946422133,4.0999376381
9170,Sint-Gillis-Waas,Kloosterstraat,55A,51.2619140801,4.15999654539
9170,Sint-Gillis-Waas,Bloempotstraat,35A,51.2568445868,4.15861453545
9170,Sint-Gillis-Waas,Gentstraat,84,51.1818287558,4.09922682456
9170,Sint-Gillis-Waas,Kapelstraat,15,51.2551553227,4.09082304795
9170,Sint-Gillis-Waas,Kluizendijkstraat,3,51.2328489086,4.10218270726
9170,Sint-Gillis-Waas,Klingedorp,69,51.2584306951,4.0912959048
9170,Sint-Gillis-Waas,Donkerstraat,11,51.2530185975,4.08810446116
9170,Sint-Gillis-Waas,Herenstraat,78,51.22465835,4.11836631617
9170,Sint-Gillis-Waas,Margrietstraat,67,51.2568947398,4.15054236896
9170,Sint-Gillis-Waas,Koningin Fabiolalaan,29,51.1971314044,4.0717803894
9170,Sint-Gillis-Waas,Koningstraat,15,51.2491680625,4.08409865362
9170,Sint-Gillis-Waas,Kemphoekstraat,4,51.2244295678,4.13445124568
9170,Sint-Gillis-Waas,Kieldrechtstraat,9,51.2557636572,4.09047994729
9170,Sint-Gillis-Waas,Gaversstraat,50,51.2170165086,4.1209944454
9170,Sint-Gillis-Waas,Sint-Niklaasstraat,53,51.2122045686,4.13454138934
9170,Sint-Gillis-Waas,Klingedijkstraat,7,51.2372498272,4.10075640602
9170,Sint-Gillis-Waas,Lijkveldestraat,49,51.1857046717,4.08515549661
9170,Sint-Gillis-Waas,Puyveldestraat,34,51.1836458501,4.06539308002
9170,Sint-Gillis-Waas,Kapelstraat,68,51.2539405745,4.08983779829
9170,Sint-Gillis-Waas,Blokstraat,44,51.2232888691,4.12875365644
9170,Sint-Gillis-Waas,Lijkveldestraat,14,51.1872121667,4.08951522329
9170,Sint-Gillis-Waas,Baarstraat,14,51.2058389503,4.14012232614
9170,Sint-Gillis-Waas,Aststraat,7,51.214352897,4.12002007191
9170,Sint-Gillis-Waas,Kemphoekstraat,28,51.2256626995,4.13436576296
9170,Sint-Gillis-Waas,Stationstraat,116,51.2182284694,4.11815199418
9170,Sint-Gillis-Waas,Zavelstraat,5,51.2358412449,4.10015525434
9170,Sint-Gillis-Waas,Macharius Rheynstraat,36,51.2529262013,4.08127541742
9170,Sint-Gillis-Waas,Bergstraat,21,51.2495806874,4.08382401751
9170,Sint-Gillis-Waas,Kerkstraat,107,51.219408964,4.12533446522
9170,Sint-Gillis-Waas,Klingedorp,34,51.2575426923,4.09035503752
9170,Sint-Gillis-Waas,Sint-Niklaasstraat,160,51.2046300621,4.14735438104
9170,Sint-Gillis-Waas,Dennenlaan,26A,51.1978287379,4.07589732364
9170,Sint-Gillis-Waas,Klapdorp,57,51.1902263755,4.09084637974
9170,Sint-Gillis-Waas,Polenlaan,67,51.2525058526,4.08114193513
9170,Sint-Gillis-Waas,Shondstraat,1,51.1977707226,4.10857767161
9170,Sint-Gillis-Waas,Kerselarendreef,9,51.2588109645,4.09236286578
9170,Sint-Gillis-Waas,Potterstraat,122,51.1885739808,4.10681041697
9170,Sint-Gillis-Waas,Kouterstraat,18,51.2919353553,4.16470035638
9170,Sint-Gillis-Waas,Eeckbergstraat,74,51.2411280249,4.12381932715
9170,Sint-Gillis-Waas,Nieuwstraat,48,51.2217412439,4.12960009076
9170,Sint-Gillis-Waas,Vosstraat,12,51.2265166146,4.15562651793
9170,Sint-Gillis-Waas,Bosstraat,26,51.2117249673,4.12906586038
9170,Sint-Gillis-Waas,Holdamstraat,6,51.2189943466,4.10319217815
9170,Sint-Gillis-Waas,Polderstraat,87,51.2706734666,4.13453712226
9170,Sint-Gillis-Waas,Stroperstraat,10,51.2345088869,4.09967582862
9170,Sint-Gillis-Waas,Zandstraat,142,51.1986310357,4.08299321495
9170,Sint-Gillis-Waas,Trompwegel,33,51.2514731132,4.08439383544
9170,Sint-Gillis-Waas,Stationstraat,3,51.2196506282,4.12313816959
9170,Sint-Gillis-Waas,Burg.K.L.Verbraekenstraat,2,51.2157009438,4.12210814396
9170,Sint-Gillis-Waas,Lijkveldestraat,113,51.1858203615,4.0728144873
9170,Sint-Gillis-Waas,Willem Van Saeftingelaan,21,51.2611633216,4.10614563951
9170,Sint-Gillis-Waas,Molenhoekstraat,90,51.2856916291,4.16308388836
9170,Sint-Gillis-Waas,Kattestraat,16,51.2220458485,4.08549252158
9170,Sint-Gillis-Waas,Drielindenstraat,2,51.2044926157,4.15659075676
9170,Sint-Gillis-Waas,Polderstraat,69,51.2637458789,4.1425699118
9170,Sint-Gillis-Waas,Pompstraat,40,51.2159335777,4.12537645532
9170,Sint-Gillis-Waas,Klapdorp,75,51.1894476766,4.08999621507
9170,Sint-Gillis-Waas,Drieske Nijperstraat,18,51.220178225,4.12821241043
9170,Sint-Gillis-Waas,Hoogstraat,38,51.19159532,4.13460076552
9170,Sint-Gillis-Waas,Kieldrechtstraat,16,51.2556999077,4.09227713844
9170,Sint-Gillis-Waas,Hogenakkerstraat,52,51.2523888415,4.08999630979
9170,Sint-Gillis-Waas,Reepstraat,47,51.2259927107,4.11323957965
9170,Sint-Gillis-Waas,Heuldonk,21,51.190109132,4.09275464892
9170,Sint-Gillis-Waas,Klingedijkstraat,70,51.241820828,4.09616432201
9170,Sint-Gillis-Waas,Laarstraat,16,51.2187535629,4.15386864821
9170,Sint-Gillis-Waas,Reepstraat,83,51.2271919472,4.10709906285
9170,Sint-Gillis-Waas,Laarstraat,2,51.2077828519,4.1433424401
9170,Sint-Gillis-Waas,Okkevoordestraat,51,51.2245827788,4.14908388183
9170,Sint-Gillis-Waas,Boomgaardstraat,11,51.2575357928,4.14787356856
9170,Sint-Gillis-Waas,Grouwesteenstraat,28,51.1996105955,4.102713652
9170,Sint-Gillis-Waas,Sint-Niklaasstraat,142,51.2067805797,4.14506835691
9170,Sint-Gillis-Waas,Lijkveldestraat,131,51.1860893331,4.06985712906
9170,Sint-Gillis-Waas,Potterstraat,104,51.1898463635,4.10497082748
9170,Sint-Gillis-Waas,Koning Boudewijnlaan,2,51.1988047497,4.07122282002
9170,Sint-Gillis-Waas,Oude Molenstraat,130,51.2605621059,4.11123630989
9170,Sint-Gillis-Waas,Blokstraat,34,51.2231412507,4.1279415196
9170,Sint-Gillis-Waas,Koningsdijk,48,51.2904516723,4.16127109199
9170,Sint-Gillis-Waas,Lijkveldestraat,95,51.1855848589,4.07479874128
9170,Sint-Gillis-Waas,Trompwegel,15,51.2525487656,4.08662197806
9170,Sint-Gillis-Waas,Kloosterstraat,10,51.2611144393,4.15018271833
9170,Sint-Gillis-Waas,Grouwesteenstraat,26A,51.1995167162,4.10297657289
9170,Sint-Gillis-Waas,Raymond Smetstraat,51,51.2217134979,4.12107533496
9170,Sint-Gillis-Waas,Sint-Niklaasstraat,25,51.2136845893,4.13168248432
9170,Sint-Gillis-Waas,Drieske Nijperstraat,4,51.2196796026,4.12948410711
9170,Sint-Gillis-Waas,Kattestraat,2,51.222949366,4.09061632875
9170,Sint-Gillis-Waas,Grensstraat,23,51.291580712,4.16356929206
9170,Sint-Gillis-Waas,Kasteelstraat,9,51.2159557967,4.12953679094
9170,Sint-Gillis-Waas,Zandstraat,160,51.1999950035,4.08023178925
9170,Sint-Gillis-Waas,Kemzekestraat,6B,51.2137086237,4.08765407904
9170,Sint-Gillis-Waas,Koning Boudewijnlaan,16,51.198681633,4.0720575338
9170,Sint-Gillis-Waas,Stationstraat,91,51.2187513703,4.11847022568
9170,Sint-Gillis-Waas,Hoge Rode Moer,48,51.2600242066,4.09777885172
9170,Sint-Gillis-Waas,Nieuwstraat,143,51.2225839653,4.13011880971
9170,Sint-Gillis-Waas,Kerkstraat,26,51.2176172662,4.12738559095
9170,Sint-Gillis-Waas,Plezantstraat,7,51.2607648078,4.14631816305
9170,Sint-Gillis-Waas,Fort Bedmarstraat,15,51.2652856928,4.11342765794
9170,Sint-Gillis-Waas,Kouterstraat,4,51.287395004,4.16283844886
9170,Sint-Gillis-Waas,Nieuwstraat,97,51.2212131605,4.13057610602
9170,Sint-Gillis-Waas,Mgr.Bermijnstraat,1,51.1905780585,4.10201219626
9170,Sint-Gillis-Waas,Kloosterstraat,45,51.2611771754,4.1532793581
9170,Sint-Gillis-Waas,Burg.G. Van Landeghemstraat,48,51.2185387236,4.12216889001
9170,Sint-Gillis-Waas,Klingedijkstraat,52,51.2400416952,4.09880858423
9170,Sint-Gillis-Waas,Potterstraat,6,51.1931480593,4.09852003007
9170,Sint-Gillis-Waas,Nieuwstraat,107,51.2214417706,4.13050366034
9170,Sint-Gillis-Waas,Gentstraat,119,51.1815452765,4.09848636289
9170,Sint-Gillis-Waas,Dries,19,51.193805443,4.096501078
9170,Sint-Gillis-Waas,Schooldreef,12,51.2576763289,4.09134421949
9170,Sint-Gillis-Waas,Herenstraat,43,51.2233127182,4.12133310588
9170,Sint-Gillis-Waas,Sportlaan,55,51.2230432289,4.11798791445
9170,Sint-Gillis-Waas,Doornstraat,9,51.2115047129,4.13485299793
9170,Sint-Gillis-Waas,Aststraat,52,51.2134525313,4.11376261987
9170,Sint-Gillis-Waas,Stationstraat,17,51.2194066003,4.12214613608
9170,Sint-Gillis-Waas,Burg.K.L.Verbraekenstraat,16,51.2164192125,4.12193604672
9170,Sint-Gillis-Waas,Oude Molenstraat,86,51.2585197797,4.10509544236
9170,Sint-Gillis-Waas,Fort Bedmarstraat,33,51.2671487708,4.11333852864
9170,Sint-Gillis-Waas,Burgemeester Van Hovelaan,26,51.259439729,4.10215730608
9170,Sint-Gillis-Waas,Heidestraat,28,51.2532889406,4.08684267014
9170,Sint-Gillis-Waas,Prins Philiplaan,17,51.1978150977,4.07474517896
9170,Sint-Gillis-Waas,Stationstraat,35,51.2193285218,4.12108295799
9170,Sint-Gillis-Waas,Kerkstraat,82,51.2193505185,4.12479961082
9170,Sint-Gillis-Waas,Kouterstraat,36,51.2922368351,4.16544432995
9170,Sint-Gillis-Waas,Holstraat,8,51.2201642657,4.09091014601
9170,Sint-Gillis-Waas,Molenhoekstraat,72,51.2853262397,4.16224356825
9170,Sint-Gillis-Waas,Smishoekstraat,49,51.257475418,4.15570782193
9170,Sint-Gillis-Waas,Geinsteindestraat,39,51.1938313543,4.13101274258
9170,Sint-Gillis-Waas,Prins Philiplaan,3,51.1984526404,4.07510183743
9170,Sint-Gillis-Waas,Koningsdijk,66,51.2900772266,4.16014261501
9170,Sint-Gillis-Waas,Molenhoekstraat,26,51.2742697894,4.1374900777
9170,Sint-Gillis-Waas,Smishoekstraat,14,51.2580402117,4.15201633815
9170,Sint-Gillis-Waas,Hoge Rode Moer,9,51.2587187245,4.09950714339
9170,Sint-Gillis-Waas,Spaanskwartier,27,51.2632167385,4.11445972031
9170,Sint-Gillis-Waas,Zwanenhoekstraat,15,51.2236508551,4.12210600126
9170,Sint-Gillis-Waas,Loeverstraat,22,51.2153545315,4.09963221453
9170,Sint-Gillis-Waas,Schooldreef,40,51.2578854699,4.09268549212
9170,Sint-Gillis-Waas,Hogenakkerstraat,70,51.2518764715,4.08975215416
9170,Sint-Gillis-Waas,Hulststraat,28,51.2565048438,4.08830840531
9170,Sint-Gillis-Waas,Recolettenlaan,20,51.2596198665,4.10384809201
9170,Sint-Gillis-Waas,Holstraat,51,51.2258399532,4.0910746684
9170,Sint-Gillis-Waas,Sint-Pietersnieuwstraat,8,51.2432424901,4.09265501597
9170,Sint-Gillis-Waas,Sint-Gillisstraat,41,51.2547735981,4.08914427968
9170,Sint-Gillis-Waas,Reepstraat,65,51.2270993638,4.10975892897
9170,Sint-Gillis-Waas,Pompstraat,29,51.2170099027,4.12557508847
9170,Sint-Gillis-Waas,Geinsteindestraat,5,51.1953283516,4.1267290767
9170,Sint-Gillis-Waas,Burg.G. Van Landeghemstraat,9,51.2179211464,4.12304391752
9170,Sint-Gillis-Waas,Sportlaan,20,51.2221205138,4.11979710956
9170,Sint-Gillis-Waas,Jan Henderickxhof,14,51.257707268,4.08894135578
9170,Sint-Gillis-Waas,Kronenhoekstraat,7,51.2204501538,4.12422735685
9170,Sint-Gillis-Waas,Smishoekstraat,18B,51.2578030883,4.15364042365
9170,Sint-Gillis-Waas,Reepstraat,12,51.2239824999,4.1180636094
9170,Sint-Gillis-Waas,Tybaartstraat,47,51.217904608,4.10945462594
9170,Sint-Gillis-Waas,Kerselarendreef,54,51.2594202656,4.09514766273
9170,Sint-Gillis-Waas,Eeckbergstraat,56,51.2384868302,4.11106756091
9170,Sint-Gillis-Waas,Akkerkens,7,51.2262870647,4.12947448812
9170,Sint-Gillis-Waas,Koningin Fabiolalaan,57,51.1972798779,4.07346342299
9170,Sint-Gillis-Waas,Ettingestraat,8,51.1886882648,4.09108122691
9170,Sint-Gillis-Waas,Macharius Rheynstraat,11,51.2538660612,4.08326403865
9170,Sint-Gillis-Waas,Kerkstraat,64,51.218800646,4.12543166622
9170,Sint-Gillis-Waas,Gaversstraat,22,51.2181646793,4.12021491345
9170,Sint-Gillis-Waas,Aststraat,14,51.2138697172,4.11845885667
9170,Sint-Gillis-Waas,Blokstraat,2,49.2933351651,2.30668956214
9170,Sint-Gillis-Waas,Bagonielaan,30,51.198392005,4.07726421422
9170,Sint-Gillis-Waas,Trompwegel,68,51.2509364539,4.08452084975
9170,Sint-Gillis-Waas,Klingedijkstraat,14,51.2377822497,4.09978169539
9170,Sint-Gillis-Waas,Zandstraat,106,51.1977377853,4.08536307182
9170,Sint-Gillis-Waas,Samelstraat,18,51.2182005988,4.13296117311
9170,Sint-Gillis-Waas,Nieuwkerkenstraat,11,51.2038850594,4.15053445208
9170,Sint-Gillis-Waas,Klapdorp,22,51.19184085,4.09363631417
9170,Sint-Gillis-Waas,Kerkstraat,46,51.2169691179,4.12862937002
9170,Sint-Gillis-Waas,Pompstraat,12,51.216765618,4.12677170425
9170,Sint-Gillis-Waas,Puyveldestraat,44,51.1826585367,4.06683251069
9170,Sint-Gillis-Waas,Kerselarendreef,72,51.2594243032,4.09631628988
9170,Sint-Gillis-Waas,Stationstraat,170,51.2177177993,4.11396005692
9170,Sint-Gillis-Waas,Burg.G. Van Landeghemstraat,26,51.2174203203,4.12261546282
9170,Sint-Gillis-Waas,Margrietstraat,7,51.2610083111,4.14762293179
9170,Sint-Gillis-Waas,Sint-Niklaasstraat,124,51.2078570305,4.14311857077
9170,Sint-Gillis-Waas,Zandstraat,96,51.1973391652,4.08623759053
9170,Sint-Gillis-Waas,Eeckbergstraat,21,51.2368382546,4.10537268416
9170,Sint-Gillis-Waas,Kerselarendreef,48,51.2592414656,4.09470950082
9170,Sint-Gillis-Waas,Hoge Rode Moer,26,51.2589599311,4.09854081651
9170,Sint-Gillis-Waas,Fort Bedmarstraat,1,51.2641249459,4.11392941805
9170,Sint-Gillis-Waas,Blokstraat,87,51.2231103339,4.13007733253
9170,Sint-Gillis-Waas,Hulststraat,36A,51.2566665962,4.08776081615
9170,Sint-Gillis-Waas,Heidestraat,127,51.2521494957,4.0820085216
9170,Sint-Gillis-Waas,Sint-Niklaasstraat,106,51.2091693384,4.14081123439
9170,Sint-Gillis-Waas,Tybaartstraat,8,51.2176649042,4.1118575715
9170,Sint-Gillis-Waas,Koningsdijk,28,51.2907262312,4.16218256937
9170,Sint-Gillis-Waas,Kardinaal J.Cardijnstraat,7,51.2187460658,4.12398064285
9170,Sint-Gillis-Waas,Nieuwstraat,26,51.2208066731,4.12980139216
9170,Sint-Gillis-Waas,Oude Molenstraat,68,51.2580776851,4.10185723978
9170,Sint-Gillis-Waas,Sint-Niklaasstraat,78,51.2115326595,4.13718460701
9170,Sint-Gillis-Waas,Kerselarendreef,90,51.2595573139,4.09819455735
9170,Sint-Gillis-Waas,Blokstraat,69,51.2227117564,4.12850412104
9170,Sint-Gillis-Waas,Holstraat,39A,51.2250432355,4.09123543128
9170,Sint-Gillis-Waas,Vlasrootstraat,60,51.2006822169,4.07166555576
9170,Sint-Gillis-Waas,Stationstraat,73,51.2189098021,4.11934961179
9170,Sint-Gillis-Waas,Burg.K.L.Verbraekenstraat,34,51.2174368465,4.12148627882
9170,Sint-Gillis-Waas,Nieuwstraat,125,51.2219656718,4.13021829597
9170,Sint-Gillis-Waas,Buitenstraat,38,51.2506980971,4.07869789609
9170,Sint-Gillis-Waas,Polenlaan,5,51.2534798588,4.084847845
9170,Sint-Gillis-Waas,Dries,5,51.1935378337,4.09739326375
9170,Sint-Gillis-Waas,Zandstraat,78,51.1968360127,4.08764648061
9170,Sint-Gillis-Waas,Okkevoordestraat,31,51.2238000058,4.13659280441
9170,Sint-Gillis-Waas,Beekstraat,66,51.1956940168,4.10246969987
9170,Sint-Gillis-Waas,Schooldreef,29,51.2574201206,4.09321639047
9170,Sint-Gillis-Waas,Doornstraat,71D,51.2089967715,4.12161647113
9170,Sint-Gillis-Waas,Blokstraat,115,51.223322552,4.13336090504
9170,Sint-Gillis-Waas,Polenlaan,39,51.2530209262,4.08223621119
9170,Sint-Gillis-Waas,Kemphoekstraat,56,51.2313847282,4.13165758899
9170,Sint-Gillis-Waas,Vendelierstraat,32,51.221023524,4.12637151085
9170,Sint-Gillis-Waas,Lijkveldestraat,42,51.1851496626,4.08449537217
9170,Sint-Gillis-Waas,Heidestraat,92,51.2520956971,4.08336738543
9170,Sint-Gillis-Waas,Doornstraat,71B,51.2090442112,4.12212507413
9170,Sint-Gillis-Waas,Raymond Smetstraat,31,51.2201713266,4.12175264263
9170,Sint-Gillis-Waas,Pompstraat,111,51.2153138615,4.12226203201
9170,Sint-Gillis-Waas,Kronenhoekstraat,52,51.2219616406,4.12300593856
9170,Sint-Gillis-Waas,Kluizendijkstraat,20,51.2284666071,4.10475274371
9170,Sint-Gillis-Waas,Reepstraat,27,51.2254316872,4.1161499726
9170,Sint-Gillis-Waas,Heidestraat,109,51.2524553242,4.08277178303
9170,Sint-Gillis-Waas,Koning Boudewijnlaan,34,51.199265604,4.07323857084
9170,Sint-Gillis-Waas,Gentstraat,38,51.1895079952,4.10027195361
9170,Sint-Gillis-Waas,Schuilhoekstraat,8,51.2057198735,4.15712792095
9170,Sint-Gillis-Waas,Kieldrechtstraat,2,51.2561458774,4.09087903446
9170,Sint-Gillis-Waas,Shondstraat,15,51.1988574842,4.11044922546
9170,Sint-Gillis-Waas,Zandstraat,242,51.2046554093,4.07639742517
9170,Sint-Gillis-Waas,Klingedorp,52,51.2582548766,4.09056365985
9170,Sint-Gillis-Waas,Herenstraat,61,51.2238660171,4.12054518342
9170,Sint-Gillis-Waas,Beekstraat,84,51.1960995191,4.10340441886
9170,Sint-Gillis-Waas,Bergstraat,28,51.2504008981,4.08375914662
9170,Sint-Gillis-Waas,Ettingestraat,3A,51.1892117169,4.09190830403
9170,Sint-Gillis-Waas,Kemphoekstraat,21,51.225246552,4.13514842861
9170,Sint-Gillis-Waas,Margrietstraat,39,51.2586807847,4.14887591748
9170,Sint-Gillis-Waas,Aststraat,32,51.213651738,4.11629274473
9170,Sint-Gillis-Waas,Vendelierstraat,14,51.2213932562,4.12696245986
9170,Sint-Gillis-Waas,Okkevoordestraat,13,51.2238274893,4.13534561062
9170,Sint-Gillis-Waas,Klingedijkstraat,32,51.2386636764,4.09939702993
9170,Sint-Gillis-Waas,Brouwershof,1,51.1908857031,4.09545126633
9170,Sint-Gillis-Waas,Raymond Smetstraat,13,51.2201972966,4.1199438966
9170,Sint-Gillis-Waas,Teerlingstraat,25,51.259387694,4.1478486288
9170,Sint-Gillis-Waas,Donkerstraat,4,51.2526295936,4.08890817739
9170,Sint-Gillis-Waas,Wallenhof,3,51.1920590246,4.09578314213
9170,Sint-Gillis-Waas,Potterstraat,51,51.1916090654,4.10034972631
9170,Sint-Gillis-Waas,Vlasrootstraat,42,51.2016781339,4.07270210118
9170,Sint-Gillis-Waas,Heerweg,48,51.2046079273,4.07913305704
9170,Sint-Gillis-Waas,Herdershof,7,51.190489387,4.09704862613
9170,Sint-Gillis-Waas,Lijkveldestraat,60,51.185013991,4.08183466703
9170,Sint-Gillis-Waas,Donkerstraat,18,51.2529188225,4.08696521894
9170,Sint-Gillis-Waas,Laarstraat,34,51.2246978836,4.15853907424
9170,Sint-Gillis-Waas,Zandstraat,195,51.201160509,4.08003230733
9170,Sint-Gillis-Waas,Stationstraat,152,51.2179374762,4.11534358982
9170,Sint-Gillis-Waas,Geinsteindestraat,9C,51.1953361679,4.12920474819
9170,Sint-Gillis-Waas,Sint-Niklaasstraat,149,51.2045561407,4.14661427482
9170,Sint-Gillis-Waas,Smishoekstraat,5,51.2571245301,4.15120595156
9170,Sint-Gillis-Waas,Sint-Niklaasstraat,45,51.2126008734,4.13399774104
9170,Sint-Gillis-Waas,Oude Molenstraat,9B,51.2560513604,4.09530591067
9170,Sint-Gillis-Waas,Klingedijkstraat,49,51.2406433411,4.09895073725
9170,Sint-Gillis-Waas,Gaversstraat,57,51.2161174396,4.12054366123
9170,Sint-Gillis-Waas,Wijnstraat,6,51.196152759,4.11394160765
9170,Sint-Gillis-Waas,Puyveldestraat,26,51.1839338226,4.06464864926
9170,Sint-Gillis-Waas,Aststraat,49,51.2139911091,4.11648826461
9170,Sint-Gillis-Waas,Kapelstraat,1,51.2557803747,4.09113173727
9170,Sint-Gillis-Waas,Margrietstraat,59,51.2576006331,4.14997941062
9170,Sint-Gillis-Waas,Klingedorp,113,51.2597552009,4.09136768522
9170,Sint-Gillis-Waas,Dennenlaan,11,51.1976540278,4.07732975893
9170,Sint-Gillis-Waas,Oude Molenstraat,15,51.2565707008,4.0975749963
9170,Sint-Gillis-Waas,Beekstraat,13,51.194076931,4.0997426174
9170,Sint-Gillis-Waas,Holstraat,23,51.2229276904,4.0912625918
9170,Sint-Gillis-Waas,Kronenhoekstraat,32,51.2212225085,4.12334676187
9170,Sint-Gillis-Waas,Oude Molenstraat,119,51.2617708467,4.11281266076
9170,Sint-Gillis-Waas,Margrietstraat,77,51.2565784608,4.15069955069
9170,Sint-Gillis-Waas,Klingedorp,9,51.2564933569,4.0903767622
9170,Sint-Gillis-Waas,Bosstraat,9,51.2138124121,4.12940421245
9170,Sint-Gillis-Waas,Heidestraat,66,51.2524183404,4.08436186991
9170,Sint-Gillis-Waas,Pompstraat,85,51.2158251869,4.12333186323
9170,Sint-Gillis-Waas,Gaversstraat,75,51.2122572824,4.11987050824
9170,Sint-Gillis-Waas,Boomgaardstraat,2,51.2569352985,4.14846141545
9170,Sint-Gillis-Waas,Gentstraat,6,51.1922649657,4.09810042844
9170,Sint-Gillis-Waas,Grouwesteenstraat,13,51.2000997763,4.10288527169
9170,Sint-Gillis-Waas,Reepstraat,40,51.2252715004,4.11458752915
9170,Sint-Gillis-Waas,Hoge Rode Moer,44,51.2598453446,4.0980567982
9170,Sint-Gillis-Waas,Beekstraat,31,51.1950271911,4.10208496032
9170,Sint-Gillis-Waas,Heuldonk,18,51.1902860551,4.09470266623
9170,Sint-Gillis-Waas,Kemphoekstraat,48,51.2296614694,4.13242164188
9170,Sint-Gillis-Waas,Zandstraat,45,51.1954460246,4.09253746966
9170,Sint-Gillis-Waas,Geinsteindestraat,9A,51.195290847,4.12875120984
9170,Sint-Gillis-Waas,Zandloperstraat,10,51.245287612,4.14958076765
9170,Sint-Gillis-Waas,Vosdreef,5,51.1943374316,4.09205964139
9170,Sint-Gillis-Waas,Pompstraat,67,51.2158957992,4.12444552485
9170,Sint-Gillis-Waas,Burgemeester Van Hovelaan,9,51.2587320256,4.10313515829
9170,Sint-Gillis-Waas,Oude Molenstraat,33,51.2575098908,4.10253617621
9170,Sint-Gillis-Waas,Zandstraat,149,51.1993920851,4.08310115878
9170,Sint-Gillis-Waas,Heidestraat,48,51.2527420369,4.08523647682
9170,Sint-Gillis-Waas,Hogenakkerstraat,32,51.2530972181,4.09011354381
9170,Sint-Gillis-Waas,Sint-Niklaasstraat,81,51.2112678944,4.13669678845
9170,Sint-Gillis-Waas,Vlasrootstraat,24,51.2028967219,4.07389710471
9170,Sint-Gillis-Waas,Reepstraat,182,51.2266420319,4.09487901917
9170,Sint-Gillis-Waas,Willem Van Saeftingelaan,18,51.2598319705,4.10517097951
9170,Sint-Gillis-Waas,Spaanskwartier,30,51.2641404406,4.11499437665
9170,Sint-Gillis-Waas,Buitenstraat,110,51.2498630955,4.07548815752
9170,Sint-Gillis-Waas,Geinsteindestraat,40,51.1944823272,4.1318776206
9170,Sint-Gillis-Waas,Kerselarendreef,16,51.2591525035,4.09270307207
9170,Sint-Gillis-Waas,Houtvoortstraat,41,51.2228275765,4.11759629619
9170,Sint-Gillis-Waas,Kloosterstraat,27,51.2607821108,4.15070314558
9170,Sint-Gillis-Waas,Koningin Fabiolalaan,22,51.1979872547,4.07356310633
9170,Sint-Gillis-Waas,Koningstraat,1,51.2494914296,4.08532309024
9170,Sint-Gillis-Waas,Houtvoortstraat,4,51.2194336507,4.11892372808
9170,Sint-Gillis-Waas,Ettingestraat,23,51.1898793426,4.0968956852
9170,Sint-Gillis-Waas,Meulenberg,10,51.1904516418,4.09319905701
9170,Sint-Gillis-Waas,Burg.G. Van Landeghemstraat,44,51.2183477917,4.12229026558
9170,Sint-Gillis-Waas,Stationstraat,108,51.2182560201,4.11864205135
9170,Sint-Gillis-Waas,Schoolstraat,22,51.2617044617,4.14700090302
9170,Sint-Gillis-Waas,Polderstraat,44,51.2627338278,4.14296276393
9170,Sint-Gillis-Waas,Kemzekestraat,2,51.2145787325,4.08960393323
9170,Sint-Gillis-Waas,Klapdorp,19,51.1927599792,4.09404531653
9170,Sint-Gillis-Waas,Sportlaan,19,51.2226688999,4.11984085299
9170,Sint-Gillis-Waas,Tybaartstraat,63,51.2178156864,4.10698894579
9170,Sint-Gillis-Waas,Hogenakkerstraat,49,51.2517305711,4.08894249541
9170,Sint-Gillis-Waas,Sint-Niklaasstraat,204,51.1950752665,4.14585659869
9170,Sint-Gillis-Waas,Schooldreef,39,51.257462852,4.09373583527
9170,Sint-Gillis-Waas,Polenlaan,29,51.2532454578,4.08272154036
9170,Sint-Gillis-Waas,Recolettenlaan,19,51.2595591471,4.10447129813
9170,Sint-Gillis-Waas,Sint-Gillisstraat,15,51.2556577103,4.0894581272
9170,Sint-Gillis-Waas,Hulststraat,11,51.2567865366,4.08838392248
9170,Sint-Gillis-Waas,Schooldreef,85,51.2580499829,4.09946258032
9170,Sint-Gillis-Waas,Buitenstraat,94,51.250073396,4.07627800386
9170,Sint-Gillis-Waas,Recolettenlaan,37,51.2610502169,4.10463290787
9170,Sint-Gillis-Waas,Klapdorp,37,51.1912731936,4.09192599894
9170,Sint-Gillis-Waas,Hogenakkerstraat,14,51.2539118827,4.0893332087
9170,Sint-Gillis-Waas,Duikeldam,4,51.2346553405,4.16431698281
9170,Sint-Gillis-Waas,Kerkstraat,9,51.2174223999,4.12871549258
9170,Sint-Gillis-Waas,Tybaartstraat,17,51.2180597952,4.11133199398
9170,Sint-Gillis-Waas,Spaanskwartier,7A,51.2616831131,4.11397855298
9170,Sint-Gillis-Waas,Oude Molenstraat,9D,51.2561013623,4.09602039506
9170,Sint-Gillis-Waas,Kluizenhof,23,51.2299505625,4.09643240445
9170,Sint-Gillis-Waas,Zwanenhoekstraat,1,51.2235723604,4.12330651607
9170,Sint-Gillis-Waas,Boomgaardstraat,28,51.2574200784,4.14742045652
9170,Sint-Gillis-Waas,Stroperstraat,3,51.2344513121,4.10048724843
9170,Sint-Gillis-Waas,Dijkstraat,11,51.2577428754,4.14238266269
9170,Sint-Gillis-Waas,Teerlingstraat,10,51.2565528765,4.14920535963
9170,Sint-Gillis-Waas,Heerweg,28,51.2055256056,4.09205153207
9170,Sint-Gillis-Waas,Polderstraat,62,51.269141055,4.13558531697
9170,Sint-Gillis-Waas,Sint-Gillisstraat,33,51.2549188453,4.08921875356
9170,Sint-Gillis-Waas,Schooldreef,67,51.2576490657,4.09531962003
9170,Sint-Gillis-Waas,Holstraat,58,51.224941441,4.09194647027
9170,Sint-Gillis-Waas,Sportlaan,37,51.2232981853,4.11860477289
9170,Sint-Gillis-Waas,Polderstraat,16,51.2614967951,4.14425519947
9170,Sint-Gillis-Waas,Tybaartstraat,35,51.2181225426,4.11017920492
9170,Sint-Gillis-Waas,Doornstraat,16,51.2108589485,4.13311137577
9170,Sint-Gillis-Waas,Gentstraat,41,51.1905445327,4.0989169886
9170,Sint-Gillis-Waas,Doornstraat,62,51.2091380249,4.12397726258
9170,Sint-Gillis-Waas,Willem Van Saeftingelaan,36,51.2612770542,4.10542942765
9170,Sint-Gillis-Waas,Plezantstraat,14,51.2605232764,4.1460219149
9170,Sint-Gillis-Waas,Kerselarendreef,44,51.2593036268,4.09445973479
9170,Sint-Gillis-Waas,Doelstraat,6,51.2600629363,4.15509092427
9170,Sint-Gillis-Waas,Heidestraat,84,51.2521922228,4.08362518256
9170,Sint-Gillis-Waas,Buitenstraat,6,51.2510150072,4.07990547499
9170,Sint-Gillis-Waas,Buitenstraat,76,51.2503768521,4.07708474895
9170,Sint-Gillis-Waas,Heidestraat,31,51.2538130346,4.08691169744
9170,Sint-Gillis-Waas,Kronenhoekstraat,14,51.2205286957,4.12369664046
9170,Sint-Gillis-Waas,Koning Boudewijnlaan,54,51.1992159096,4.07457971251
9170,Sint-Gillis-Waas,Geinsteindestraat,12,51.1956290918,4.12658932891
9170,Sint-Gillis-Waas,Pompstraat,39,51.2166652231,4.12585152914
9170,Sint-Gillis-Waas,Gentstraat,76,51.1827680317,4.09941091093
9170,Sint-Gillis-Waas,Zandstraat,222,51.2028837865,4.0777172426
9170,Sint-Gillis-Waas,Potterstraat,147,51.1848128087,4.10819677111
9170,Sint-Gillis-Waas,Sint-Pietersnieuwstraat,17,51.2432325047,4.09076609237
9170,Sint-Gillis-Waas,Sint-Helenastraat,1,51.2239473995,4.12176833732
9170,Sint-Gillis-Waas,Sint-Niklaasstraat,10,51.2145894247,4.13117227565
9170,Sint-Gillis-Waas,Geinsteindestraat,29,51.1946569092,4.13099224001
9170,Sint-Gillis-Waas,Kemphoekstraat,36,51.2265683631,4.13404314201
9170,Sint-Gillis-Waas,Stationstraat,197,51.218557064,4.11354828884
9170,Sint-Gillis-Waas,Heidestraat,100,51.2519965647,4.08310974854
9170,Sint-Gillis-Waas,Kouterstraat,54,51.2927570642,4.1659144181
9170,Sint-Gillis-Waas,Heerweg,6,51.208382056,4.11972986114
9170,Sint-Gillis-Waas,Dagsterrestraat,22,51.204108122,4.14799242046
9170,Sint-Gillis-Waas,Koning Boudewijnlaan,72,51.1991312209,4.07569717034
9170,Sint-Gillis-Waas,Bloempotstraat,4,51.2497342451,4.15666487505
9170,Sint-Gillis-Waas,Kronenhoekstraat,49,51.2218015357,4.12382122582
9170,Sint-Gillis-Waas,Kapelstraat,23,51.2545486348,4.09041169971
9170,Sint-Gillis-Waas,Schooldreef,50,51.2578205221,4.09320428765
9170,Sint-Gillis-Waas,Klingedorp,79,51.2587622502,4.09186278141
9170,Sint-Gillis-Waas,Burg.G. Van Landeghemstraat,34,51.2178356413,4.12251194486
9170,Sint-Gillis-Waas,Gaversstraat,5,51.2184000868,4.11961539587
9170,Sint-Gillis-Waas,Reepstraat,136,51.227286267,4.10287064513
9170,Sint-Gillis-Waas,Warmenauwstraat,7,51.1798801832,4.10894928647
9170,Sint-Gillis-Waas,Tybaartstraat,45,51.2179094478,4.10953045508
9170,Sint-Gillis-Waas,Zandstraat,10,51.1938915774,4.09499038824
9170,Sint-Gillis-Waas,Zandstraat,204,51.202418038,4.07817155006
9170,Sint-Gillis-Waas,Lagestraat,3,51.2455192942,4.14844417704
9170,Sint-Gillis-Waas,Kluizenhof,1,51.2282043816,4.10108957069
9170,Sint-Gillis-Waas,Molenhoekstraat,64,51.2849371281,4.16130747869
9170,Sint-Gillis-Waas,Margrietstraat,111,51.2541095768,4.1522342334
9170,Sint-Gillis-Waas,Margrietstraat,24,51.2594377053,4.14990649134
9170,Sint-Gillis-Waas,Samelstraat,21,51.2167475283,4.13201445571
9170,Sint-Gillis-Waas,Nieuwstraat,9,51.2177433997,4.12926000562
9170,Sint-Gillis-Waas,Meerdonkdorp,5,51.2595434468,4.14582159082
9170,Sint-Gillis-Waas,Schooldreef,96A,51.2581514452,4.09614966742
9170,Sint-Gillis-Waas,Macharius Rheynstraat,28,51.2530877455,4.08161918436
9170,Sint-Gillis-Waas,Gentstraat,65B,51.1884002504,4.09948204044
9170,Sint-Gillis-Waas,Eeckbergstraat,18,51.2369399905,4.10339131775
9170,Sint-Gillis-Waas,Trompwegel,51,51.2509117005,4.0835325975
9170,Sint-Gillis-Waas,Dries,22,51.1932071833,4.09654790391
9170,Sint-Gillis-Waas,Polenlaan,12,51.2531420874,4.08372781155
9170,Sint-Gillis-Waas,Gentstraat,19H,51.1919900389,4.09744672973
9170,Sint-Gillis-Waas,Doornstraat,34,51.2102801305,4.13074611427
9170,Sint-Gillis-Waas,Boerenkrijglaan,26,51.261468032,4.10675879117
9170,Sint-Gillis-Waas,Eeckbergstraat,36,51.2372866274,4.10672625307
9170,Sint-Gillis-Waas,Blokstraat,90,51.2237427534,4.13146287077
9170,Sint-Gillis-Waas,Donkerstraat,21,51.2531480906,4.08744724684
9170,Sint-Gillis-Waas,Pastorijstraat,5,51.1952630318,4.096269714
9170,Sint-Gillis-Waas,Lijkveldestraat,121,51.185896921,4.07144151992
9170,Sint-Gillis-Waas,Pastorijwegel,12,51.1945869281,4.09752937217
9170,Sint-Gillis-Waas,Lijkveldestraat,59,51.1855514725,4.08405484362
9170,Sint-Gillis-Waas,Potterstraat,33,51.1924037161,4.09966440934
9170,Sint-Gillis-Waas,Kerselarendreef,34,51.259239455,4.09376290628
9170,Sint-Gillis-Waas,Zandstraat,81,51.1967992176,4.08915226389
9170,Sint-Gillis-Waas,Reepstraat,118,51.2270652316,4.10580839236
9170,Sint-Gillis-Waas,Houtvoortstraat,31,51.2207007495,4.11883766228
9170,Sint-Gillis-Waas,Sint-Niklaasstraat,139,51.205085717,4.14664881963
9170,Sint-Gillis-Waas,Kerselarendreef,69,51.2591253309,4.09728741454
9170,Sint-Gillis-Waas,Zandstraat,63,51.1961787504,4.0906081546
9170,Sint-Gillis-Waas,Bagonielaan,27,51.1988033053,4.07652843659
9170,Sint-Gillis-Waas,Lange Meersstraat,10,51.250892805,4.14695795097
9170,Sint-Gillis-Waas,Potterstraat,68,51.1914000968,4.10302797928
9170,Sint-Gillis-Waas,Nieuwstraat,62,51.2222226791,4.12978585454
9170,Sint-Gillis-Waas,Pompstraat,50,51.2156381382,4.12472580673
9170,Sint-Gillis-Waas,Trompwegel,47,51.2510271429,4.08369545714
9170,Sint-Gillis-Waas,Kluizendijkstraat,37,51.2356025846,4.1016193414
9170,Sint-Gillis-Waas,Molenhoekstraat,11,51.2710140363,4.13146175416
9170,Sint-Gillis-Waas,Potterstraat,183,51.1801537601,4.10995955413
9170,Sint-Gillis-Waas,Hoogstraat,6,51.1915186125,4.11853036358
9170,Sint-Gillis-Waas,Potterstraat,165,51.1831266456,4.10889364718
9170,Sint-Gillis-Waas,Kemphoekstraat,18,51.2247756418,4.13414303738
9170,Sint-Gillis-Waas,Molenstraat,7,51.2061739342,4.14822835626
9170,Sint-Gillis-Waas,Kluizenmolenstraat,4,51.2332628818,4.10077253894
9170,Sint-Gillis-Waas,Lage Kerkwegel,26,51.2177647476,4.13080048211
9170,Sint-Gillis-Waas,Macharius Rheynstraat,2,51.2535840461,4.0829815856
9170,Sint-Gillis-Waas,Nieuwkerkenstraat,2,51.2048613575,4.14900891406
9170,Sint-Gillis-Waas,Bergstraat,11,51.2495936964,4.08448820172
9170,Sint-Gillis-Waas,Blokstraat,72,51.2235175758,4.13069162152
9170,Sint-Gillis-Waas,Polenlaan,57,51.2526487167,4.08145487542
9170,Sint-Gillis-Waas,Lijkveldestraat,77,51.185603881,4.08234207925
9170,Sint-Gillis-Waas,Roskamstraat,3,51.1954600276,4.14341223826
9170,Sint-Gillis-Waas,Stationstraat,126,51.2182625882,4.11745493318
9170,Sint-Gillis-Waas,Beekstraat,4,51.1936306803,4.09801971366
9170,Sint-Gillis-Waas,Zandstraat,139,51.199120048,4.08356778833
9170,Sint-Gillis-Waas,Margrietstraat,95,51.2558533362,4.15102135775
9170,Sint-Gillis-Waas,Sint-Niklaasstraat,63,51.2120874183,4.13562042621
9170,Sint-Gillis-Waas,Plasstraat,2,51.2338370904,4.10366492936
9170,Sint-Gillis-Waas,Lijkveldestraat,24,51.1856482337,4.08692964357
9170,Sint-Gillis-Waas,Klingedorp,97,51.2593112336,4.09135284522
9170,Sint-Gillis-Waas,Kluizendijkstraat,19,51.2344268888,4.10221236417
9170,Sint-Gillis-Waas,Stationstraat,179,51.2180296713,4.11382195952
9170,Sint-Gillis-Waas,Molenhoekstraat,46,51.2825312057,4.15579206337
9170,Sint-Gillis-Waas,Nieuwstraat,44,51.2216260752,4.1296313108
9170,Sint-Gillis-Waas,Houtvoortstraat,13,51.2197196091,4.1195388042
9170,Sint-Gillis-Waas,Kapelstraat,58,51.2537560079,4.09039636994
9170,Sint-Gillis-Waas,Spaanskwartier,37G,51.2648048708,4.11787691159
9170,Sint-Gillis-Waas,Bagoniestraatje,2E,51.1945419542,4.07588385955
9170,Sint-Gillis-Waas,Koningsdijk,56,51.2903788483,4.16105395811
9170,Sint-Gillis-Waas,Spaanskwartier,37,51.263864572,4.1160811125
9170,Sint-Gillis-Waas,Willem Van Saeftingelaan,11,51.2603553255,4.1061285505
9170,Sint-Gillis-Waas,Eeckbergstraat,46,51.2380857687,4.10987058578
9170,Sint-Gillis-Waas,Burgemeester Van Hovelaan,2,51.2580167951,4.10260004076
9170,Sint-Gillis-Waas,Teerlingstraat,17,51.2587121166,4.1483226834
9170,Sint-Gillis-Waas,Bagoniestraatje,12I,51.1944390905,4.07751029794
9170,Sint-Gillis-Waas,Hulststraat,36,51.256630483,4.08788307694
9170,Sint-Gillis-Waas,Reepstraat,208,51.2262525025,4.08968824097
9170,Sint-Gillis-Waas,Meulenberg,3,51.1906107727,4.09367759257
9170,Sint-Gillis-Waas,Margrietstraat,68A,51.2560133761,4.15173481327
9170,Sint-Gillis-Waas,Reepstraat,93,51.2276910002,4.10459292591
9170,Sint-Gillis-Waas,Heuldonk,11,51.1909794107,4.09457687536
9170,Sint-Gillis-Waas,Bosstraat,16,51.2128527145,4.12962707834
9170,Sint-Gillis-Waas,Potterstraat,112,51.1896772268,4.10522567346
9170,Sint-Gillis-Waas,Sint-Niklaasstraat,150,51.2066179021,4.14555263446
9170,Sint-Gillis-Waas,Koningin Fabiolalaan,39,51.197302828,4.07250319211
9170,Sint-Gillis-Waas,Gentstraat,13,51.1922823593,4.09753086184
9170,Sint-Gillis-Waas,Molenhoekstraat,4,51.2703277043,4.1282957668
9170,Sint-Gillis-Waas,Doornstraat,69,51.2094630057,4.12369566122
9170,Sint-Gillis-Waas,Gentstraat,36A,51.1896883178,4.0999602402
9170,Sint-Gillis-Waas,Gaversstraat,40,51.217416445,4.12071280742
9170,Sint-Gillis-Waas,Klingedijkstraat,60,51.2409995501,4.09768927634
9170,Sint-Gillis-Waas,Margrietstraat,100E,51.2486647746,4.15634089651
9170,Sint-Gillis-Waas,Gentstraat,109,51.1839516448,4.09873862303
9170,Sint-Gillis-Waas,Aststraat,60,51.2134420702,4.11249614673
9170,Sint-Gillis-Waas,Grouwesteenstraat,4,51.1980707279,4.10680902394
9170,Sint-Gillis-Waas,Margrietstraat,42,51.2577278131,4.15036758647
9170,Sint-Gillis-Waas,Klingedijkstraat,42,51.2393476967,4.09916169147
9170,Sint-Gillis-Waas,Klingedorp,2,51.2564149686,4.08964568785
9170,Sint-Gillis-Waas,Reepstraat,57,51.2264668956,4.11072870061
9170,Sint-Gillis-Waas,Klingedorp,16,51.2569952509,4.09010289522
9170,Sint-Gillis-Waas,Eeckbergstraat,64,51.2404635013,4.11817510776
9170,Sint-Gillis-Waas,Margrietstraat,60,51.2567964309,4.15094648864
9170,Sint-Gillis-Waas,Oude Molenstraat,8,51.2559727652,4.09412247964
9170,Sint-Gillis-Waas,Koning Boudewijnlaan,26,51.198964923,4.0726208495
9170,Sint-Gillis-Waas,Gentstraat,31,51.1913741464,4.09811602478
9170,Sint-Gillis-Waas,Fort Bedmarstraat,23,51.2663087283,4.11329756132
9170,Sint-Gillis-Waas,Smoutstraat,20,51.2138595656,4.14116376191
9170,Sint-Gillis-Waas,Aststraat,42,51.2135373884,4.1147282998
9170,Sint-Gillis-Waas,Buitenstraat,109,51.2493776901,4.07168251844
9170,Sint-Gillis-Waas,Lijkveldestraat,103,51.1862824336,4.0740637716
9170,Sint-Gillis-Waas,Polderstraat,97,51.2713956621,4.1335770494
9170,Sint-Gillis-Waas,Boomgaardstraat,9,51.2574683782,4.14792058527
9170,Sint-Gillis-Waas,Tybaartstraat,10,51.2176528241,4.11159242968
9170,Sint-Gillis-Waas,Beekstraat,102,51.1974532957,4.10668229536
9170,Sint-Gillis-Waas,Oude Molenstraat,120,51.2598300767,4.11035790515
9170,Sint-Gillis-Waas,Bosstraat,2,51.2142787508,4.13030515657
9170,Sint-Gillis-Waas,Zandstraat,150,51.1992380763,4.08159931958
9170,Sint-Gillis-Waas,Heerweg,56,51.2042580174,4.07825712516
9170,Sint-Gillis-Waas,Dennenlaan,18,51.1973153885,4.0764011109
9170,Sint-Gillis-Waas,Laarstraat,26,51.2212848361,4.15709186176
9170,Sint-Gillis-Waas,Spaanskwartier,19,51.2627831282,4.11353144871
9170,Sint-Gillis-Waas,Klapdorp,47,51.191029782,4.09177152354
9170,Sint-Gillis-Waas,Sint-Niklaasstraat,88,51.2110751628,4.13774583342
9170,Sint-Gillis-Waas,Raymond Smetstraat,43,51.2210087242,4.12155370018
9170,Sint-Gillis-Waas,Wijnstraat,31,51.1944935902,4.11491582079
9170,Sint-Gillis-Waas,Kloosterstraat,20,51.261508631,4.15099558406
9170,Sint-Gillis-Waas,Nieuwstraat,135,51.2223302892,4.13042040761
9170,Sint-Gillis-Waas,Klapdorp,83,51.189345698,4.08970846017
9170,Sint-Gillis-Waas,Kluizenhof,8,51.228942404,4.09909887806
9170,Sint-Gillis-Waas,Hogenakkerstraat,60,51.2522009017,4.08988427966
9170,Sint-Gillis-Waas,Klapdorp,30,51.1916171064,4.09335755009
9170,Sint-Gillis-Waas,Smishoekstraat,59,51.2577559565,4.15671972656
9170,Sint-Gillis-Waas,Buitenstraat,13,51.2515322591,4.07963601551
9170,Sint-Gillis-Waas,Boerenkrijglaan,7,51.2595524111,4.10706907608
9170,Sint-Gillis-Waas,Oude Molenstraat,76,51.2579292689,4.10244869714
9170,Sint-Gillis-Waas,Kardinaal J.Cardijnstraat,14,51.2183873712,4.12351864944
9170,Sint-Gillis-Waas,Geinsteindestraat,57,51.1922890232,4.13110769342
9170,Sint-Gillis-Waas,Bunderstraat,5,51.2078554312,4.11982038138
9170,Sint-Gillis-Waas,Vosdreef,12,51.1936641518,4.09238992187
9170,Sint-Gillis-Waas,Kouterstraat,26,51.2923790686,4.16478629365
9170,Sint-Gillis-Waas,Raymond Smetstraat,38,51.221626908,4.12071637957
9170,Sint-Gillis-Waas,Burg.K.L.Verbraekenstraat,26,51.2169126064,4.12155631784
9170,Sint-Gillis-Waas,Molenhoekstraat,36,51.2804339775,4.15014621509
9170,Sint-Gillis-Waas,Koningsdijk,6,51.2911352425,4.1632998885
9170,Sint-Gillis-Waas,Polderstraat,79,51.2701465031,4.13587116694
9170,Sint-Gillis-Waas,Teerlingstraat,3,51.2570100949,4.14943970837
9170,Sint-Gillis-Waas,Klapdorp,12,51.1921255314,4.09395220078
9170,Sint-Gillis-Waas,Schooldreef,22,51.2576810488,4.09174857715
9170,Sint-Gillis-Waas,Sportlaan,65,51.2225499907,4.11784012108
9170,Sint-Gillis-Waas,Puyveldestraat,54,51.1818733577,4.06710472948
9170,Sint-Gillis-Waas,Molenhoekstraat,82,51.285563542,4.16282129445
9170,Sint-Gillis-Waas,Buitenstraat,31,51.251112706,4.07876177862
9170,Sint-Gillis-Waas,Okkevoordestraat,38,51.2238477253,4.14235376803
9170,Sint-Gillis-Waas,Gaversstraat,79A,51.2112679485,4.11971206207
9170,Sint-Gillis-Waas,Okkevoordestraat,43,51.2233568714,4.14160350874
9170,Sint-Gillis-Waas,Nieuwstraat,34,51.2211795372,4.12972405508
9170,Sint-Gillis-Waas,Herenstraat,53,51.2236238764,4.12106464273
9170,Sint-Gillis-Waas,Gaversstraat,29,51.2174086978,4.1199753363
9170,Sint-Gillis-Waas,Doornstraat,55D,51.2099182944,4.12545211626
9170,Sint-Gillis-Waas,Trompwegel,23,51.2523082701,4.08580544232
9170,Sint-Gillis-Waas,Nieuwstraat,117,51.2217206967,4.13019821829
9170,Sint-Gillis-Waas,Wijnstraat,13,51.197027108,4.10960583417
9170,Sint-Gillis-Waas,Beekstraat,41,51.195687112,4.10367956681
9170,Sint-Gillis-Waas,V.Coppensstraat,7,51.2161177499,4.12315286043
9170,Sint-Gillis-Waas,Sint-Gillisstraat,51,51.2544852912,4.08900821153
9170,Sint-Gillis-Waas,Burg.K.L.Verbraekenstraat,44,51.2179644275,4.12120826054
9170,Sint-Gillis-Waas,Nieuwstraat,87,51.2208264758,4.13026189397
9170,Sint-Gillis-Waas,Sint-Gillisstraat,8,51.255901269,4.0900207552
9170,Sint-Gillis-Waas,Grensstraat,15,51.2913598167,4.16390140071
9170,Sint-Gillis-Waas,Hulststraat,4,51.2561448063,4.08961879704
9170,Sint-Gillis-Waas,Smishoekstraat,24,51.2580576432,4.15659101102
9170,Sint-Gillis-Waas,Kloosterstraat,55,51.261884948,4.15958222638
9170,Sint-Gillis-Waas,Nieuwstraat,153,51.2229179162,4.12995550075
9170,Sint-Gillis-Waas,Koning Boudewijnlaan,44,51.1992270257,4.07391695427
9170,Sint-Gillis-Waas,Reepstraat,75,51.2269830893,4.10801168297
9170,Sint-Gillis-Waas,Stroperstraat,5C,51.236244422,4.09993830899
9170,Sint-Gillis-Waas,Holstraat,41,51.2251633157,4.09131001357
9170,Sint-Gillis-Waas,Hulststraat,18,51.2563376906,4.08885373113
9170,Sint-Gillis-Waas,Kerkstraat,2,51.2155468447,4.13030656282
9170,Sint-Gillis-Waas,Recolettenlaan,30,51.260468629,4.10408838824
9170,Sint-Gillis-Waas,Loeverstraat,12,51.2151377581,4.10484174098
9170,Sint-Gillis-Waas,Zandstraat,239,51.2034967588,4.07821177656
9170,Sint-Gillis-Waas,Bloempotstraat,27A,51.2585196244,4.15911152812
9170,Sint-Gillis-Waas,Hoge Rode Moer,16,51.2585011074,4.09808063239
9170,Sint-Gillis-Waas,Potterstraat,43,51.1920611397,4.09997106642
9170,Sint-Gillis-Waas,Lange Meersstraat,3,51.247749534,4.14745879602
9170,Sint-Gillis-Waas,Lijkveldestraat,5,51.187912114,4.088756977
9170,Sint-Gillis-Waas,Vlasrootstraat,52,51.201284492,4.07222114737
9170,Sint-Gillis-Waas,Loeverstraat,29,51.215152982,4.08970827081
9170,Sint-Gillis-Waas,Kerkstraat,92,51.2195269065,4.1245981664
9170,Sint-Gillis-Waas,Heidestraat,135,51.2520555749,4.08175142818
9170,Sint-Gillis-Waas,Burg.G. Van Landeghemstraat,16,51.2165677568,4.12300107949
9170,Sint-Gillis-Waas,Beekstraat,76,51.1958695944,4.10288399458
9170,Sint-Gillis-Waas,Doornstraat,55B,51.2100096619,4.12608786421
9170,Sint-Gillis-Waas,Gaversstraat,67E,51.2134473497,4.12033930248
9170,Sint-Gillis-Waas,Potterstraat,140,51.1865887879,4.10840971911
9170,Sint-Gillis-Waas,Sint-Niklaasstraat,114,51.2084075871,4.14218250603
9170,Sint-Gillis-Waas,Macharius Rheynstraat,21,51.2538511886,4.08238910644
9170,Sint-Gillis-Waas,Vlasrootstraat,70,51.1994184898,4.0708306281
9170,Sint-Gillis-Waas,Eeckbergstraat,11,51.2365324936,4.10397065386
9170,Sint-Gillis-Waas,Shondstraat,23,51.1992848862,4.11143989568
9170,Sint-Gillis-Waas,Koningsdijk,38,51.2906030275,4.16162850215
9170,Sint-Gillis-Waas,Sint-Niklaasstraat,135B,51.2054537104,4.14650756394
9170,Sint-Gillis-Waas,Stationstraat,65,51.2189959359,4.1200031031
9170,Sint-Gillis-Waas,Baarstraat,5,51.2070345424,4.14177762588
9170,Sint-Gillis-Waas,Nieuwstraat,2,51.2182802377,4.12928387778
9170,Sint-Gillis-Waas,Samelstraat,28,51.2191279106,4.1340356835
9170,Sint-Gillis-Waas,Stationstraat,25,51.2193124955,4.12158699909
9170,Sint-Gillis-Waas,Beekstraat,94,51.1964556718,4.10414000918
9170,Sint-Gillis-Waas,Aststraat,24,51.2137237058,4.11746329527
9170,Sint-Gillis-Waas,Trompwegel,58,51.2513108045,4.08522854938
9170,Sint-Gillis-Waas,Dijkstraat,4,51.259034559,4.1445960741
9170,Sint-Gillis-Waas,Klingedorp,44,51.2579083251,4.09054151511
9170,Sint-Gillis-Waas,Zandstraat,88,51.1971005496,4.08689167541
9170,Sint-Gillis-Waas,Gaversstraat,12,51.2184456162,4.12015201917
9170,Sint-Gillis-Waas,Burgemeester Van Hovelaan,34,51.259988942,4.10200962836
9170,Sint-Gillis-Waas,Blokstraat,97,51.2231836114,4.13057995439
9170,Sint-Gillis-Waas,Klingedorp,62,51.2587182004,4.09082190169
9170,Sint-Gillis-Waas,Lijkveldestraat,52,51.1851252822,4.08310418169
9170,Sint-Gillis-Waas,Kerselarendreef,62,51.2594220554,4.09545621731
9170,Sint-Gillis-Waas,Pannekeetstraat,2,51.2460521794,4.15189103799
9170,Sint-Gillis-Waas,Stationstraat,83,51.2189505889,4.11887020296
9170,Sint-Gillis-Waas,Kerkstraat,34,51.2177936521,4.12704862538
9170,Sint-Gillis-Waas,Stationstraat,144,51.2178422299,4.11594766094
9170,Sint-Gillis-Waas,Kronenhoekstraat,42,51.2216850466,4.12316985157
9170,Sint-Gillis-Waas,Zandstraat,114,51.1978049492,4.0847706702
9170,Sint-Gillis-Waas,Potterstraat,212,51.1808862678,4.11063165875
9170,Sint-Gillis-Waas,Sint-Niklaasstraat,35,51.2130798107,4.13324343992
9170,Sint-Gillis-Waas,Nieuwstraat,69,51.2202154419,4.13035117525
9170,Sint-Gillis-Waas,Reepstraat,3,51.2251302061,4.11813647235
9170,Sint-Gillis-Waas,Oude Molenstraat,58,51.2575225834,4.10031077363
9170,Sint-Gillis-Waas,Heidestraat,117,51.2522874549,4.08241287314
9170,Sint-Gillis-Waas,Kerkstraat,74,51.2191074592,4.12505607616
9170,Sint-Gillis-Waas,Blokstraat,79,51.2229320253,4.12933005101
9170,Sint-Gillis-Waas,Zandstraat,132,51.1982436897,4.08368958699
9170,Sint-Gillis-Waas,Bergstraat,18,51.2508444721,4.08316090728
9170,Sint-Gillis-Waas,Lijkveldestraat,138,51.1858537365,4.06547101147
9170,Sint-Gillis-Waas,Kerkstraat,100,51.2185826706,4.12582339248
9170,Sint-Gillis-Waas,Molenhoekstraat,18,51.2721121843,4.13297735201
9170,Sint-Gillis-Waas,Lijkveldestraat,70,51.1849944849,4.08009576102
9170,Sint-Gillis-Waas,Vendelierstraat,24,51.22114211,4.12726663063
9170,Sint-Gillis-Waas,Nieuwkerkenstraat,9,51.2040407396,4.15029020106
9170,Sint-Gillis-Waas,Herenstraat,71,51.2241568058,4.1201653112
9170,Sint-Gillis-Waas,Nieuwstraat,16,51.2203346171,4.12989884374
9170,Sint-Gillis-Waas,Macharius Rheynstraat,9,51.2538416193,4.08334139173
9170,Sint-Gillis-Waas,Zandstraat,17,51.1944354234,4.0947740568
9170,Sint-Gillis-Waas,Kemphoekstraat,46,51.2293552458,4.13265296065
9170,Sint-Gillis-Waas,Reepstraat,154,51.2271399435,4.09988487884
9170,Sint-Gillis-Waas,Sint-Niklaasstraat,185,51.2020504752,4.14712407285
9170,Sint-Gillis-Waas,Kemphoekstraat,11,51.224712339,4.13513248839
9170,Sint-Gillis-Waas,Zandstraat,167,51.199959561,4.08170047452
9170,Sint-Gillis-Waas,Blokstraat,26,51.2241846204,4.1273635717
9170,Sint-Gillis-Waas,Koningstraat,8,51.249051491,4.0847016054
9170,Sint-Gillis-Waas,Turkeyenstraat,5,51.2282980445,4.14961743934
9170,Sint-Gillis-Waas,Puyveldestraat,7,51.1851873712,4.06346097597
9170,Sint-Gillis-Waas,Reepstraat,101,51.2278469776,4.10319728493
9170,Sint-Gillis-Waas,Zandstraat,35,51.1952736406,4.09308467231
9170,Sint-Gillis-Waas,Kerselarendreef,80,51.2594964454,4.09728181959
9170,Sint-Gillis-Waas,Kapelstraat,8,51.2550195808,4.09131444788
9170,Sint-Gillis-Waas,Sint-Niklaasstraat,17,51.2140307221,4.13131679495
9170,Sint-Gillis-Waas,Sint-Pietersnieuwstraat,10,51.2431485093,4.09240095797
9170,Sint-Gillis-Waas,Oude Molenstraat,102,51.2591850145,4.10786517619
9170,Sint-Gillis-Waas,Pastorijstraat,12,51.195311777,4.0975351829
9170,Sint-Gillis-Waas,Kwakkel,5,51.1866653974,4.06375297609
9170,Sint-Gillis-Waas,Kerkstraat,56,51.2185559749,4.12573565157
9170,Sint-Gillis-Waas,Meerdonkdorp,24,51.2606137372,4.14782234803
9170,Sint-Gillis-Waas,Sint-Niklaasstraat,132,51.207216908,4.14403715708
9170,Sint-Gillis-Waas,Blokstraat,123,51.223603537,4.13386306355
9170,Sint-Gillis-Waas,Stationstraat,162,51.2178941439,4.11433265071
9170,Sint-Gillis-Waas,Dries,40,51.1937032493,4.09619096751
9170,Sint-Gillis-Waas,Pompstraat,101,51.2154941447,4.12289924044
9170,Sint-Gillis-Waas,Potterstraat,129,51.1864810268,4.10767987421
9170,Sint-Gillis-Waas,Zandstraat,185,51.2007302571,4.08048707137
9170,Sint-Gillis-Waas,Sint-Niklaasstraat,167,51.2035365027,4.14695878771
9170,Sint-Gillis-Waas,Kluizendijkstraat,30,51.2330911874,4.10164185649
9170,Sint-Gillis-Waas,Bosstraat,34,51.2109254757,4.12903747294
9170,Sint-Gillis-Waas,Potterstraat,61,51.1914596419,4.1014877788
9170,Sint-Gillis-Waas,Reepstraat,35,51.2255692826,4.11534144521
9170,Sint-Gillis-Waas,Polenlaan,40,51.2526678732,4.08242601005
9170,Sint-Gillis-Waas,Kloosterstraat,1,51.2604016927,4.14859062309
9170,Sint-Gillis-Waas,Sint-Niklaasstraat,121A,51.2068958733,4.1438179104
9170,Sint-Gillis-Waas,Margrietstraat,30,51.2588551239,4.14987913674
9170,Sint-Gillis-Waas,Stationstraat,78,51.2187613761,4.12040739661
9170,Sint-Gillis-Waas,Herenstraat,10,51.2221772103,4.12228282004
9170,Sint-Gillis-Waas,Recolettenlaan,1,51.2584805409,4.10487090591
9170,Sint-Gillis-Waas,Blokstraat,64,51.223467559,4.13035792723
9170,Sint-Gillis-Waas,Hogenakkerstraat,22,51.2535267623,4.08949851279
9170,Sint-Gillis-Waas,Doornstraat,28,51.210592479,4.1320477539
9170,Sint-Gillis-Waas,Pompstraat,113,51.2152907093,4.12215066639
9170,Sint-Gillis-Waas,Grensstraat,4,51.2908549697,4.16469561445
9170,Sint-Gillis-Waas,Sint-Niklaasstraat,73,51.2118475243,4.13603634221
9170,Sint-Gillis-Waas,Lijkveldestraat,40,51.1851930045,4.08476470964
9170,Sint-Gillis-Waas,Kerkstraat,87,51.2187334221,4.12618214416
9170,Sint-Gillis-Waas,Stationstraat,30,51.2192105376,4.12295670429
9170,Sint-Gillis-Waas,Sportlaan,1,51.2226344719,4.12104154242
9170,Sint-Gillis-Waas,Molenhoekstraat,69,51.2843379818,4.16084847836
9170,Sint-Gillis-Waas,Holstraat,13,51.2223216653,4.09117543985
9170,Sint-Gillis-Waas,Zandstraat,55,51.1956907216,4.09162618554
9170,Sint-Gillis-Waas,Sint-Niklaasstraat,91,51.2106736289,4.13750540133
9170,Sint-Gillis-Waas,Stationstraat,96,51.2185920987,4.11906877455
9170,Sint-Gillis-Waas,Margrietstraat,12,51.2609589239,4.14803531444
9170,Sint-Gillis-Waas,Tweehagen,39,51.2156662836,4.12600126617
9170,Sint-Gillis-Waas,Zandstraat,73,51.1964547199,4.08969994972
9170,Sint-Gillis-Waas,Rode Moerstraat,1,51.2440462093,4.09583041687
9170,Sint-Gillis-Waas,Beekstraat,23,51.1943464169,4.10065889092
9170,Sint-Gillis-Waas,Kieldrechtstraat,7,51.2559336657,4.09049669638
9170,Sint-Gillis-Waas,Stroperstraat,19,51.2379431759,4.09944027266
9170,Sint-Gillis-Waas,Geinsteindestraat,24,51.1958720812,4.12988152403
9170,Sint-Gillis-Waas,Prins Philiplaan,30,51.1974627192,4.07509632272
9170,Sint-Gillis-Waas,Pompstraat,95,51.2155762928,4.12324314865
9170,Sint-Gillis-Waas,Burg.G. Van Landeghemstraat,28,51.2174793042,4.12258166156
9170,Sint-Gillis-Waas,Blokstraat,46,51.2233317883,4.12899777786
9170,Sint-Gillis-Waas,Puyveldestraat,36,51.1835942035,4.06558334497
9170,Sint-Gillis-Waas,Kerkstraat,69,51.2193504422,4.12546244075
9170,Sint-Gillis-Waas,Potterstraat,191,51.1797583399,4.1101596633
9170,Sint-Gillis-Waas,Heidestraat,76,51.2522694992,4.08391475203
9170,Sint-Gillis-Waas,Sint-Niklaasstraat,55,51.2123261676,4.13489811914
9170,Sint-Gillis-Waas,Klingedijkstraat,9,51.2373311425,4.10070353429
9170,Sint-Gillis-Waas,Kronenhoekstraat,22,51.2208454117,4.12341816064
9170,Sint-Gillis-Waas,Ettingestraat,13,51.1896663151,4.0953729969
9170,Sint-Gillis-Waas,Zijpstraat,1,51.2191734444,4.1522057179
9170,Sint-Gillis-Waas,Kerkstraat,21,51.2177847846,4.12790312144
9170,Sint-Gillis-Waas,Jan Henderickxhof,5,51.2581260575,4.08921832404
9170,Sint-Gillis-Waas,Raymond Smetstraat,21,51.2198644411,4.12049485916
9170,Sint-Gillis-Waas,Zandstraat,197,51.2013315329,4.08002095003
9170,Sint-Gillis-Waas,Reepstraat,50,51.225459646,4.11284067767
9170,Sint-Gillis-Waas,Vlasrootstraat,40,51.2019319988,4.07242607452
9170,Sint-Gillis-Waas,Kerkstraat,105,51.2194126313,4.12541331021
9170,Sint-Gillis-Waas,Zavelstraat,3,51.2358350714,4.10036633654
9170,Sint-Gillis-Waas,Stationstraat,114,51.2184080665,4.11815575483
9170,Sint-Gillis-Waas,Houtvoortstraat,51,51.2237112544,4.11709956931
9170,Sint-Gillis-Waas,Brouwershof,6,51.1913697618,4.0963207154
9170,Sint-Gillis-Waas,Sint-Niklaasstraat,179,51.2025650687,4.14698113378
9170,Sint-Gillis-Waas,Lijkveldestraat,102C,51.1854410444,4.07223992371
9170,Sint-Gillis-Waas,Reepstraat,192,51.2266817051,4.09268484637
9170,Sint-Gillis-Waas,Polenlaan,52,51.2523676279,4.08181654267
9170,Sint-Gillis-Waas,Koning Boudewijnlaan,46,51.1992427276,4.07405019415
9170,Sint-Gillis-Waas,Laarstraat,11,51.2111321087,4.14917308049
9170,Sint-Gillis-Waas,Lage Kerkwegel,18,51.2179091301,4.13032228465
9170,Sint-Gillis-Waas,Sint-Kornelisstraat,5,51.2805848744,4.15542716496
9170,Sint-Gillis-Waas,Kardinaal J.Cardijnstraat,2,51.2180788414,4.12427968823
9170,Sint-Gillis-Waas,Boomgaardstraat,16,51.2569032425,4.14775336804
9170,Sint-Gillis-Waas,Heidestraat,6,51.2539338787,4.08859842332
9170,Sint-Gillis-Waas,Oude Molenstraat,127,51.2620766795,4.11279465344
9170,Sint-Gillis-Waas,Nieuwstraat,56,51.2219841301,4.12952026646
9170,Sint-Gillis-Waas,Spaanskwartier,6A,51.2613366376,4.11336214162
9170,Sint-Gillis-Waas,Grouwesteenstraat,58,51.2053761438,4.0925596569
9170,Sint-Gillis-Waas,Kerkstraat,123,51.2202378627,4.12502084316
9170,Sint-Gillis-Waas,Dijkstraat,6,51.2584188406,4.14425236543
9170,Sint-Gillis-Waas,Puyveldestraat,18,51.1843961342,4.06389063005
9170,Sint-Gillis-Waas,Gentstraat,51,51.1901378219,4.09924217447
9170,Sint-Gillis-Waas,Smoutstraat,17,51.2129681308,4.14057662892
9170,Sint-Gillis-Waas,Stationstraat,132,51.2181994834,4.11677456825
9170,Sint-Gillis-Waas,Blokstraat,100,51.2237426456,4.13221880555
9170,Sint-Gillis-Waas,Tybaartstraat,27,51.2181544001,4.1106092632
9170,Sint-Gillis-Waas,Meerdonkdorp,19,51.259576714,4.14669040036
9170,Sint-Gillis-Waas,Bunderstraat,12,51.2050058601,4.12203633434
9170,Sint-Gillis-Waas,Baarstraat,29,51.2045799527,4.13460588795
9170,Sint-Gillis-Waas,Klapdorp,3,51.1935124294,4.09514109297
9170,Sint-Gillis-Waas,Koning Boudewijnlaan,11,51.1984733862,4.07106140502
9170,Sint-Gillis-Waas,Spaanskwartier,47,51.2662444418,4.12113379702
9170,Sint-Gillis-Waas,Mgr.Bermijnstraat,10,51.1907038689,4.10072482426
9170,Sint-Gillis-Waas,Lijkveldestraat,29,51.1861792464,4.08695390566
9170,Sint-Gillis-Waas,Buitenstraat,86,51.2501705328,4.07666811019
9170,Sint-Gillis-Waas,Hogenakkerstraat,9,51.2535815455,4.08883085711
9170,Sint-Gillis-Waas,Schuilhoekstraat,3,51.2054597267,4.15571097201
9170,Sint-Gillis-Waas,Koning Boudewijnlaan,64,51.1992383568,4.0752222303
9170,Sint-Gillis-Waas,Bosstraat,21,51.2128573408,4.12889147516
9170,Sint-Gillis-Waas,Trompwegel,76,51.2506668247,4.08400501745
9170,Sint-Gillis-Waas,Kerselarendreef,28,51.2592147127,4.09351981092
9170,Sint-Gillis-Waas,Koningin Fabiolalaan,49,51.197400708,4.07300471905
9170,Sint-Gillis-Waas,Potterstraat,38,51.1923213884,4.10069853377
9170,Sint-Gillis-Waas,Schoolstraat,14,51.2610330284,4.1461797897
9170,Sint-Gillis-Waas,Akkerkens,2,51.2234856131,4.1284367334
9170,Sint-Gillis-Waas,Klingedorp,54,51.2583986518,4.09066250481
9170,Sint-Gillis-Waas,Heuldonk,2,51.1919677822,4.094650472
9170,Sint-Gillis-Waas,Zandstraat,179,51.200623363,4.08121839729
9170,Sint-Gillis-Waas,Koningin Fabiolalaan,14,51.1977318984,4.07313381302
9170,Sint-Gillis-Waas,Kluizendijkstraat,25,51.2347382721,4.10222361734
9170,Sint-Gillis-Waas,Kieldrechtstraat,11,51.2558923838,4.09071581501
9170,Sint-Gillis-Waas,Polderstraat,26,51.2619008705,4.14395026459
9170,Sint-Gillis-Waas,Teerlingstraat,20,51.2570453862,4.1487905021
9170,Sint-Gillis-Waas,Kattestraat,11,51.2232734471,4.08948974077
9170,Sint-Gillis-Waas,Beekstraat,58,51.1955133589,4.10203526636
9170,Sint-Gillis-Waas,Vlasrootstraat,12,51.2038288544,4.07502815226
9170,Sint-Gillis-Waas,Krekeldijk,3,51.2434216044,4.13990042616
9170,Sint-Gillis-Waas,Potterstraat,210,51.1809353984,4.11057346825
9170,Sint-Gillis-Waas,Boomgaardstraat,44,51.25831271,4.14698920585
9170,Sint-Gillis-Waas,Polderstraat,2,51.2606445698,4.14561320176
9170,Sint-Gillis-Waas,Fort Bedmarstraat,41,51.2683077881,4.11408197126
9170,Sint-Gillis-Waas,Heidestraat,94,51.2520718221,4.08330680195
9170,Sint-Gillis-Waas,Kluizendijkstraat,78,51.2362852993,4.10052497268
9170,Sint-Gillis-Waas,Klingedorp,89,51.2590457861,4.09138163947
9170,Sint-Gillis-Waas,Schooldreef,60,51.2579677227,4.09369576146
9170,Sint-Gillis-Waas,Kloosterstraat,43,51.2611320464,4.15307700075
9170,Sint-Gillis-Waas,Hoge Rode Moer,56,51.2602324838,4.09829894685
9170,Sint-Gillis-Waas,Holstraat,48,51.2236911129,4.09189232345
9170,Sint-Gillis-Waas,Trompwegel,41,51.2511675764,4.08397217372
9170,Sint-Gillis-Waas,Buitenstraat,51,51.2507464879,4.07724514505
9170,Sint-Gillis-Waas,Kapelstraat,13,51.2552508813,4.09075171914
9170,Sint-Gillis-Waas,Kronenhoekstraat,2,51.2199098861,4.123848596
9170,Sint-Gillis-Waas,Kluizendijkstraat,1,51.2326769309,4.10216951432
9170,Sint-Gillis-Waas,Herenstraat,45,51.2234662633,4.12125785981
9170,Sint-Gillis-Waas,Margrietstraat,65,51.2571717372,4.15009085721
9170,Sint-Gillis-Waas,Sint-Niklaasstraat,20,51.2143133429,4.13168802729
9170,Sint-Gillis-Waas,Klingedijkstraat,128,51.2492387301,4.08564629758
9170,Sint-Gillis-Waas,Molenhoekstraat,34,51.2798676319,4.1499518076
9170,Sint-Gillis-Waas,Koningstraat,13,51.2491818823,4.08423921216
9170,Sint-Gillis-Waas,Oude Molenstraat,21,51.2569780635,4.10006909788
9170,Sint-Gillis-Waas,Gaversstraat,52,51.2169613029,4.12094350039
9170,Sint-Gillis-Waas,Hulststraat,6,51.2561610967,4.08928437255
9170,Sint-Gillis-Waas,Stationstraat,8,51.2197042006,4.12409528415
9170,Sint-Gillis-Waas,Roskamstraat,19,51.1958002671,4.1325295808
9170,Sint-Gillis-Waas,Lijkveldestraat,12,51.1874997478,4.08934029563
9170,Sint-Gillis-Waas,Plezantstraat,2,51.2600504054,4.14635895253
9170,Sint-Gillis-Waas,Schooldreef,42,51.2577358834,4.09267649221
9170,Sint-Gillis-Waas,Spaanskwartier,5,51.2614810646,4.11406618296
9170,Sint-Gillis-Waas,Baarstraat,12,51.2061555653,4.14037662065
9170,Sint-Gillis-Waas,Kemphoekstraat,26,51.2255005266,4.13435469457
9170,Sint-Gillis-Waas,Dries,32,51.1935848096,4.09647732845
9170,Sint-Gillis-Waas,Zandstraat,20,51.1944361324,4.09383848873
9170,Sint-Gillis-Waas,Wijnstraat,51,51.1915054732,4.11686826906
9170,Sint-Gillis-Waas,Holstraat,66,51.2256883467,4.09173992125
9170,Sint-Gillis-Waas,Blokstraat,11,51.2222352023,4.12441898733
9170,Sint-Gillis-Waas,Doornstraat,74,51.2084783238,4.12067349256
9170,Sint-Gillis-Waas,Margrietstraat,101,51.2550763972,4.15166467952
9170,Sint-Gillis-Waas,Heidestraat,23,51.2540028156,4.08734383974
9170,Sint-Gillis-Waas,Binnendijkstraat,6,51.245578154,4.15723107281
9170,Sint-Gillis-Waas,Sint-Gillisstraat,21,51.255446495,4.08938619455
9170,Sint-Gillis-Waas,Potterstraat,120,51.1886921021,4.10632830018
9170,Sint-Gillis-Waas,Smishoekstraat,19,51.2572895318,4.15207783335
9170,Sint-Gillis-Waas,Molenstraat,39,51.207869427,4.15109697231
9170,Sint-Gillis-Waas,Klapdorp,42,51.190881847,4.09247144435
9170,Sint-Gillis-Waas,Dagsterrestraat,14,51.2049284398,4.14873330461
9170,Sint-Gillis-Waas,Pompstraat,60,51.215485807,4.12421352731
9170,Sint-Gillis-Waas,Koning Boudewijnlaan,7,51.1985477434,4.07081986649
9170,Sint-Gillis-Waas,Raymond Smetstraat,8,51.2213777471,4.11972935365
9170,Sint-Gillis-Waas,Laarstraat,7,51.2082220516,4.14472991517
9170,Sint-Gillis-Waas,Potterstraat,173,51.1806209585,4.10978221194
9170,Sint-Gillis-Waas,Prins Philiplaan,8,51.1984399336,4.0755602975
9170,Sint-Gillis-Waas,Nieuwstraat,21,51.2181830058,4.12974080193
9170,Sint-Gillis-Waas,Kluizenhof,35,51.228109892,4.08908677542
9170,Sint-Gillis-Waas,Groenendijk,4,51.2405237189,4.12595293174
9170,Sint-Gillis-Waas,Boomgaardstraat,34,51.2578929472,4.14727296461
9170,Sint-Gillis-Waas,Grouwesteenstraat,6,51.1981561091,4.10660138926
9170,Sint-Gillis-Waas,Reepstraat,128,51.2272453423,4.10430527289
9170,Sint-Gillis-Waas,Polenlaan,59,51.2526226842,4.08139459193
9170,Sint-Gillis-Waas,Pompstraat,42,51.2158392465,4.12518073141
9170,Sint-Gillis-Waas,Potterstraat,167A,51.1819880497,4.10925664804
9170,Sint-Gillis-Waas,Heuldonk,13,51.190803268,4.09447463187
9170,Sint-Gillis-Waas,Oude Molenstraat,109,51.2611774585,4.11232181712
9170,Sint-Gillis-Waas,Heidestraat,58,51.2525226942,4.08462406341
9170,Sint-Gillis-Waas,Lijkveldestraat,111,51.18579224,4.07292751294
9170,Sint-Gillis-Waas,Recolettenlaan,25,51.2602299473,4.10475530121
9170,Sint-Gillis-Waas,Smishoekstraat,37,51.2575205281,4.15440336247
9170,Sint-Gillis-Waas,Stationstraat,149,51.2185865585,4.11590327498
9170,Sint-Gillis-Waas,Kattestraat,7,51.2235479202,4.09004821529
9170,Sint-Gillis-Waas,Bagonielaan,17,51.1989221075,4.07772272837
9170,Sint-Gillis-Waas,Nieuwstraat,74,51.2226989276,4.12949442301
9170,Sint-Gillis-Waas,Grensstraat,28,51.2908454544,4.16376274478
9170,Sint-Gillis-Waas,Sportlaan,25,51.2227140922,4.11910473392
9170,Sint-Gillis-Waas,Holstraat,31,51.2239074948,4.09094472323
9170,Sint-Gillis-Waas,Sint-Pietersnieuwstraat,3,51.2438538269,4.09255545649
9170,Sint-Gillis-Waas,Macharius Rheynstraat,16,51.2532968778,4.08205418762
9170,Sint-Gillis-Waas,Doornstraat,56,51.2097174974,4.12716892067
9170,Sint-Gillis-Waas,Heidestraat,112,51.251788599,4.08248611331
9170,Sint-Gillis-Waas,Houtvoortstraat,23,51.2203084055,4.11905159434
9170,Sint-Gillis-Waas,Boerenkrijglaan,18,51.2608637525,4.10700485692
9170,Sint-Gillis-Waas,Potterstraat,102,51.1898715733,4.1049088927
9170,Sint-Gillis-Waas,Zandstraat,234,51.2039466063,4.07699350074
9170,Sint-Gillis-Waas,Klapdorp,60,51.1896952665,4.09108697835
9170,Sint-Gillis-Waas,Zandstraat,91,51.1971598732,4.08829274329
9170,Sint-Gillis-Waas,Eeckbergstraat,26,51.2381134481,4.10477141643
9170,Sint-Gillis-Waas,Gaversstraat,70,51.216183402,4.12118233798
9170,Sint-Gillis-Waas,Dries,14,51.1927541779,4.09671189759
9170,Sint-Gillis-Waas,Margrietstraat,47,51.2579063163,4.14963361373
9170,Sint-Gillis-Waas,Hoge Rode Moer,21,51.2591300063,4.09941767593
9170,Sint-Gillis-Waas,Blokstraat,82,51.2236136217,4.13111969929
9170,Sint-Gillis-Waas,Ettingestraat,31,51.1901285481,4.09821005597
9170,Sint-Gillis-Waas,Potterstraat,155,51.1836740942,4.10866821154
9170,Sint-Gillis-Waas,Kerkstraat,28,51.2165167594,4.12975647339
9170,Sint-Gillis-Waas,Fort Bedmarstraat,13,51.2653620636,4.11353927783
9170,Sint-Gillis-Waas,Koning Boudewijnlaan,36,51.1992485415,4.0733529896
9170,Sint-Gillis-Waas,Aststraat,2,51.2139148468,4.11965732265
9170,Sint-Gillis-Waas,Margrietstraat,19,51.2599053328,4.14838237904
9170,Sint-Gillis-Waas,Hogenakkerstraat,39,51.2522283903,4.08880917407
9170,Sint-Gillis-Waas,Lijkveldestraat,57,51.1856464814,4.0841294969
9170,Sint-Gillis-Waas,Nieuwstraat,99,51.22125388,4.13057704371
9170,Sint-Gillis-Waas,Nieuwstraat,141,51.2225209665,4.13025783242
9170,Sint-Gillis-Waas,Klingedijkstraat,2,51.2367670589,4.10055671454
9170,Sint-Gillis-Waas,Kloosterstraat,8,51.2610640393,4.14990317348
9170,Sint-Gillis-Waas,Potterstraat,84,51.1907253162,4.10366534141
9170,Sint-Gillis-Waas,Klingedijkstraat,50,51.2399057494,4.09879032502
9170,Sint-Gillis-Waas,Houtvoortstraat,58,51.2250749056,4.11575595724
9170,Sint-Gillis-Waas,Potterstraat,66,51.1913104908,4.10255186918
9170,Sint-Gillis-Waas,Doornstraat,21,51.2112259252,4.1331000822
9170,Sint-Gillis-Waas,Hoogstraat,4,51.1912076319,4.11820088326
9170,Sint-Gillis-Waas,Schooldreef,14,51.2577194415,4.09140770831
9170,Sint-Gillis-Waas,Kemzekestraat,4B,51.2142935841,4.08856105015
9170,Sint-Gillis-Waas,Zandstraat,180,51.2009743572,4.07907515548
9170,Sint-Gillis-Waas,Aststraat,50,51.2135365802,4.11405840142
9170,Sint-Gillis-Waas,Gentstraat,23,51.1917233498,4.09791860599
9170,Sint-Gillis-Waas,Oude Molenstraat,84,51.2583222569,4.10414452656
9170,Sint-Gillis-Waas,Fort Bedmarstraat,31,51.2669850819,4.11463076355
9170,Sint-Gillis-Waas,Stationstraat,19,51.219485722,4.12142377489
9170,Sint-Gillis-Waas,Margrietstraat,37,51.2589761643,4.1488405775
9170,Sint-Gillis-Waas,Burgemeester Van Hovelaan,28,51.2596261073,4.10213991153
9170,Sint-Gillis-Waas,Herenstraat,17,51.2224418941,4.12218409078
9170,Sint-Gillis-Waas,Raymond Smetstraat,28,51.2207638015,4.1211287444
9170,Sint-Gillis-Waas,Prins Philiplaan,1,51.198536865,4.07513893469
9170,Sint-Gillis-Waas,Prins Philiplaan,19,51.197737394,4.07469173282
9170,Sint-Gillis-Waas,Stroperstraat,30,51.2362562268,4.09892251583
9170,Sint-Gillis-Waas,Tybaartstraat,20,51.2177325752,4.11073453555
9170,Sint-Gillis-Waas,Lijkveldestraat,75,51.18553126,4.08260511849
9170,Sint-Gillis-Waas,Molenhoekstraat,70,51.2853133455,4.16216823295
9170,Sint-Gillis-Waas,Kerkstraat,80,51.2192255859,4.12471553054
9170,Sint-Gillis-Waas,Loeverstraat,24,51.2149214507,4.09686800049
9170,Sint-Gillis-Waas,Kluizenmolenstraat,6,51.2331234157,4.10039006915
9170,Sint-Gillis-Waas,Smoutstraat,18B,51.2136184762,4.14073273929
9170,Sint-Gillis-Waas,Reynaertdreef,10,51.2586269414,4.09662577593
9170,Sint-Gillis-Waas,Stationstraat,37,51.2192573747,4.12097369835
9170,Sint-Gillis-Waas,Beekstraat,6,51.1937385957,4.09812151316
9170,Sint-Gillis-Waas,Kluizenmolenstraat,3A,51.2334075448,4.0999560578
9170,Sint-Gillis-Waas,Klingedorp,26,51.2573441024,4.09033888847
9170,Sint-Gillis-Waas,Hulststraat,26,51.2564613093,4.08840936658
9170,Sint-Gillis-Waas,Herenstraat,35,51.2230457992,4.12148023501
9170,Sint-Gillis-Waas,Aststraat,29,51.2144940829,4.11791883759
9170,Sint-Gillis-Waas,Sint-Niklaasstraat,180,51.20217876,4.14771207988
9170,Sint-Gillis-Waas,Kerselarendreef,56,51.2593544607,4.09529903572
9170,Sint-Gillis-Waas,Reepstraat,67,51.2267535175,4.10931950855
9170,Sint-Gillis-Waas,Klingedijkstraat,29,51.238808082,4.09997468004
9170,Sint-Gillis-Waas,Vendelierstraat,2,51.2221800311,4.12613492165
9170,Sint-Gillis-Waas,Hazendijk,4,51.240055445,4.12477975463
9170,Sint-Gillis-Waas,Kronenhoekstraat,39,51.2214776289,4.12388232364
9170,Sint-Gillis-Waas,Smoutstraat,10,51.2123497553,4.13845364407
9170,Sint-Gillis-Waas,Sint-Niklaasstraat,98,51.20951513,4.14048686235
9170,Sint-Gillis-Waas,Stationstraat,167,51.218226618,4.11458002304
9170,Sint-Gillis-Waas,Mgr.Bermijnstraat,17,51.1904329267,4.10087170555
9170,Sint-Gillis-Waas,Shondstraat,3,51.1978328512,4.10879063283
9170,Sint-Gillis-Waas,Kerselarendreef,21,51.2587333787,4.09285768072
9170,Sint-Gillis-Waas,Akkerkens,9,51.2263569453,4.12949460101
9170,Sint-Gillis-Waas,Trompwegel,31,51.251543533,4.08456098348
9170,Sint-Gillis-Waas,Oude Molenstraat,48,51.257174693,4.098786782
9170,Sint-Gillis-Waas,Stationstraat,1,51.2196666627,4.12319848614
9170,Sint-Gillis-Waas,Hogenakkerstraat,2,51.254270252,4.08937331965
9170,Sint-Gillis-Waas,Kerkstraat,62,51.2171361101,4.12773686257
9170,Sint-Gillis-Waas,Burg.K.L.Verbraekenstraat,4,51.2157714468,4.12208100908
9170,Sint-Gillis-Waas,Heuldonk,9,51.1911373403,4.09465490911
9170,Sint-Gillis-Waas,Kasteelstraat,21,51.2152287339,4.12998917879
9170,Sint-Gillis-Waas,Bosstraat,28,51.2115493591,4.12894555048
9170,Sint-Gillis-Waas,Bagonielaan,5,51.1994964086,4.07956773851
9170,Sint-Gillis-Waas,Kouterstraat,16,51.2916253221,4.16531109475
9170,Sint-Gillis-Waas,Vosstraat,14,51.2263390681,4.15611317829
9170,Sint-Gillis-Waas,Polderstraat,89,51.2707595494,4.13443352423
9170,Sint-Gillis-Waas,Zandstraat,144,51.1983167915,4.08187536877
9170,Sint-Gillis-Waas,Zandstraat,108,51.1975068566,4.08445717153
9170,Sint-Gillis-Waas,Stationstraat,53,51.2191575352,4.12025414917
9170,Sint-Gillis-Waas,Kattestraat,18,51.2220167012,4.08540695899
9170,Sint-Gillis-Waas,Sint-Niklaasstraat,126,51.2074417162,4.14375618907
9170,Sint-Gillis-Waas,Kerselarendreef,74,51.2594303305,4.09655348026
9170,Sint-Gillis-Waas,Buitenstraat,23,51.251388767,4.07906786068
9170,Sint-Gillis-Waas,Polderstraat,9,51.2609413944,4.14562997805
9170,Sint-Gillis-Waas,Samelstraat,34,51.2193744979,4.13437122807
9170,Sint-Gillis-Waas,Puyveldestraat,46,51.1824708755,4.06677007984
9170,Sint-Gillis-Waas,Hogenakkerstraat,50,51.2524481583,4.0894586974
9170,Sint-Gillis-Waas,Kerkstraat,44,51.2168987199,4.12866465307
9170,Sint-Gillis-Waas,Oude Molenstraat,66,51.2583031405,4.10151057914
9170,Sint-Gillis-Waas,Burgemeester Van Hovelaan,44,51.2605445119,4.10241100924
9170,Sint-Gillis-Waas,Kerselarendreef,92,51.2595690231,4.09836295453
9170,Sint-Gillis-Waas,Laarstraat,18,51.2186822439,4.15424339496
9170,Sint-Gillis-Waas,Reepstraat,85,51.2272158577,4.10701819068
9170,Sint-Gillis-Waas,Grouwesteenstraat,26,51.1994376659,4.10323883628
9170,Sint-Gillis-Waas,Vendelierstraat,29,51.2203583061,4.12695178038
9170,Sint-Gillis-Waas,Kouterstraat,44,51.292511144,4.16575406986
9170,Sint-Gillis-Waas,Kardinaal J.Cardijnstraat,9,51.2189946498,4.12396302511
9170,Sint-Gillis-Waas,Stationstraat,71,51.2189671945,4.11941428564
9170,Sint-Gillis-Waas,Sint-Niklaasstraat,111A,51.207818656,4.1420381151
9170,Sint-Gillis-Waas,Sint-Niklaasstraat,108,51.2092198054,4.14106684705
9170,Sint-Gillis-Waas,Schooldreef,32,51.2576861346,4.09234903758
9170,Sint-Gillis-Waas,Okkevoordestraat,26A,51.2241009127,4.13773058826
9170,Sint-Gillis-Waas,Dries,3,51.193487634,4.09757050739
9170,Sint-Gillis-Waas,Zandstraat,126,51.1980418332,4.08411156783
9170,Sint-Gillis-Waas,Trompwegel,13,51.2526275198,4.0867044333
9170,Sint-Gillis-Waas,Blokstraat,117,51.2234553504,4.13360729856
9170,Sint-Gillis-Waas,Puyveldestraat,11,51.1848665583,4.0633872676
9170,Sint-Gillis-Waas,Stationstraat,185,51.2182426612,4.11372146919
9170,Sint-Gillis-Waas,Molenhoekstraat,52,51.2832953801,4.15760336321
9170,Sint-Gillis-Waas,Zandstraat,162,51.2002026777,4.08013722601
9170,Sint-Gillis-Waas,Koning Boudewijnlaan,18,51.1986412188,4.07261002361
9170,Sint-Gillis-Waas,Lijkveldestraat,93,51.1855212167,4.07515985129
9170,Sint-Gillis-Waas,Gentstraat,58,51.1859557342,4.09992318741
9170,Sint-Gillis-Waas,Kluizendijkstraat,8,51.2277999083,4.10530593754
9170,Sint-Gillis-Waas,Schooldreef,49,51.2575081251,4.09434479497
9170,Sint-Gillis-Waas,Kronenhoekstraat,50,51.2218542187,4.12291432322
9170,Sint-Gillis-Waas,Sportlaan,47,51.2236917775,4.11766394065
9170,Sint-Gillis-Waas,Nieuwstraat,105,51.2213839926,4.13055720093
9170,Sint-Gillis-Waas,Kouterstraat,6,51.29040583,4.16422453113
9170,Sint-Gillis-Waas,Houtvoortstraat,6,51.2194862636,4.11889553677
9170,Sint-Gillis-Waas,Spaanskwartier,45,51.2659970203,4.12045771777
9170,Sint-Gillis-Waas,Herenstraat,63,51.2239091823,4.12046923171
9170,Sint-Gillis-Waas,Shondstraat,13,51.1987809774,4.11011287105
9170,Sint-Gillis-Waas,Doornstraat,7,51.2116186738,4.13512003447
9170,Sint-Gillis-Waas,Sint-Gillisstraat,1,51.2561372286,4.08953074846
9170,Sint-Gillis-Waas,Burg.K.L.Verbraekenstraat,14,51.2163388025,4.12195364547
9170,Sint-Gillis-Waas,Zandstraat,244,51.2047248019,4.07628867648
9170,Sint-Gillis-Waas,Sportlaan,53,51.2232610584,4.11804929871
9170,Sint-Gillis-Waas,Akkerkens,8C,51.2262304319,4.12889315986
9170,Sint-Gillis-Waas,Blokstraat,18,51.2229666887,4.12634998719
9170,Sint-Gillis-Waas,Beekstraat,86,51.196168945,4.10358041533
9170,Sint-Gillis-Waas,Bergstraat,26,51.2504340692,4.08368604293
9170,Sint-Gillis-Waas,Herenstraat,81,51.224431811,4.11954646706
9170,Sint-Gillis-Waas,Vendelierstraat,12,51.2213633185,4.12669509538
9170,Sint-Gillis-Waas,Doornstraat,56B,51.2096641902,4.12659350842
9170,Sint-Gillis-Waas,Klingedorp,107,51.2595611296,4.09166952496
9170,Sint-Gillis-Waas,Buitenstraat,58,51.2505258007,4.07763824244
9170,Sint-Gillis-Waas,Smishoekstraat,47,51.2574643171,4.15553239652
9170,Sint-Gillis-Waas,Ettingestraat,8B,51.1888085275,4.09173203907
9170,Sint-Gillis-Waas,Okkevoordestraat,15,51.2238589083,4.13546211501
9170,Sint-Gillis-Waas,Spaanskwartier,25,51.2631216547,4.11425580111
9170,Sint-Gillis-Waas,Bagoniestraatje,6,51.1953597812,4.07993078594
9170,Sint-Gillis-Waas,Pompstraat,32,51.2161604984,4.12579633056
9170,Sint-Gillis-Waas,Hogenakkerstraat,67,51.2498252923,4.08616665127
9170,Sint-Gillis-Waas,Hoge Rode Moer,7,51.2586509144,4.09952988122
9170,Sint-Gillis-Waas,Polderstraat,54,51.2632706665,4.14228582798
9170,Sint-Gillis-Waas,Klompenstraat,12,51.2223066929,4.12821591856
9170,Sint-Gillis-Waas,Bagoniestraatje,3A,51.1943480927,4.07574717104
9170,Sint-Gillis-Waas,Bagonielaan,10,51.1991185039,4.07988825665
9170,Sint-Gillis-Waas,Burg.G. Van Landeghemstraat,7,51.2168854711,4.12494700387
9170,Sint-Gillis-Waas,Samelstraat,69,51.2195900948,4.1363168517
9170,Sint-Gillis-Waas,Kronenhoekstraat,9,51.2205106201,4.12417121903
9170,Sint-Gillis-Waas,Buitenstraat,4,51.2498857573,4.08099679864
9170,Sint-Gillis-Waas,Oude Molenstraat,28,51.2567895165,4.09625874595
9170,Sint-Gillis-Waas,Herdershof,5,51.1903889222,4.09631684404
9170,Sint-Gillis-Waas,Buitenstraat,104,51.249943185,4.07578040273
9170,Sint-Gillis-Waas,Zijpstraat,8,51.2202513818,4.15391114828
9170,Sint-Gillis-Waas,Stationstraat,150,51.2178040128,4.11560308154
9170,Sint-Gillis-Waas,Wijnstraat,4,51.1961747022,4.11365437116
9170,Sint-Gillis-Waas,Smishoekstraat,30,51.2579796054,4.15900823349
9170,Sint-Gillis-Waas,Reynaertdreef,5,51.2584888591,4.0972832349
9170,Sint-Gillis-Waas,Klapdorp,59,51.1902332088,4.09061747558
9170,Sint-Gillis-Waas,Potterstraat,137,51.1858896838,4.10784965646
9170,Sint-Gillis-Waas,Molenstraat,22,51.210094295,4.15427790084
9170,Sint-Gillis-Waas,Macharius Rheynstraat,44,51.2527235942,4.08071562612
9170,Sint-Gillis-Waas,Reepstraat,14,51.2249567983,4.11719263782
9170,Sint-Gillis-Waas,Pompstraat,49,51.216408041,4.12540218075
9170,Sint-Gillis-Waas,Klingegrensstraat,2,51.2597084975,4.09188324372
9170,Sint-Gillis-Waas,Gaversstraat,59,51.215972929,4.12068382564
9170,Sint-Gillis-Waas,Eeckbergstraat,72,51.2415046451,4.12312757425
9170,Sint-Gillis-Waas,Sint-Niklaasstraat,165A,51.2036597244,4.14695319582
9170,Sint-Gillis-Waas,Sint-Pietersnieuwstraat,20,51.2428485915,4.09102613874
9170,Sint-Gillis-Waas,Gaversstraat,24,51.2181289309,4.12022712596
9170,Sint-Gillis-Waas,Samelstraat,16,51.2181101015,4.13229223395
9170,Sint-Gillis-Waas,Klingedijkstraat,12,51.2375872609,4.0998473941
9170,Sint-Gillis-Waas,Klapdorp,24,51.1918035823,4.09357387986
9170,Sint-Gillis-Waas,Reepstraat,111,51.2276417601,4.09928790138
9170,Sint-Gillis-Waas,Pompstraat,14,51.2167317431,4.12668929884
9170,Sint-Gillis-Waas,Oude Molenstraat,1,51.2553367852,4.09374906901
9170,Sint-Gillis-Waas,Smishoekstraat,65,51.2576105227,4.15787867469
9170,Sint-Gillis-Waas,Aststraat,12,51.2138281202,4.11876634057
9170,Sint-Gillis-Waas,Heidestraat,41,51.2535926904,4.08636572887
9170,Sint-Gillis-Waas,Smishoekstraat,12,51.2577412725,4.15187490749
9170,Sint-Gillis-Waas,Aststraat,85,51.214006201,4.11212897707
9170,Sint-Gillis-Waas,Sint-Niklaasstraat,197,51.2008888245,4.14718408508
9170,Sint-Gillis-Waas,Dennenlaan,13,51.1977813981,4.07700220935
9170,Sint-Gillis-Waas,Zandstraat,98,51.1974317005,4.08595434135
9170,Sint-Gillis-Waas,Reepstraat,164,51.2270551864,4.09763672469
9170,Sint-Gillis-Waas,Vlasrootstraat,128,51.188749642,4.06430151234
9170,Sint-Gillis-Waas,Klapdorp,77,51.1894705166,4.08984732006
9170,Sint-Gillis-Waas,Fort Bedmarstraat,3,51.2642875061,4.11386993505
9170,Sint-Gillis-Waas,Gaversstraat,77,51.2119903863,4.11985690243
9170,Sint-Gillis-Waas,Blokstraat,89,51.2229963687,4.13021532858
9170,Sint-Gillis-Waas,Hoge Rode Moer,28,51.258902829,4.09888466153
9170,Sint-Gillis-Waas,Blokstraat,36,51.2230911258,4.12831093651
9170,Sint-Gillis-Waas,Heidestraat,129,51.2521204375,4.08192347828
9170,Sint-Gillis-Waas,Turfbankenstraat,20,51.253800069,4.14413461053
9170,Sint-Gillis-Waas,Groenstraat,4,51.1853928717,4.08810455839
9170,Sint-Gillis-Waas,Grensstraat,21,51.2915250034,4.16363175085
9170,Sint-Gillis-Waas,Reepstraat,146,51.2269387566,4.10070701437
9170,Sint-Gillis-Waas,Nieuwstraat,28,51.2209013742,4.12978301657
9170,Sint-Gillis-Waas,Trompwegel,3,51.2527634285,4.08727410454
9170,Sint-Gillis-Waas,Gentstraat,4,51.1925574814,4.09791620821
9170,Sint-Gillis-Waas,Burg.K.L.Verbraekenstraat,32,51.2172241346,4.12155080675
9170,Sint-Gillis-Waas,Sportlaan,8,51.2221859529,4.12087129469
9170,Sint-Gillis-Waas,Warmenauwstraat,11,51.180565424,4.10880418811
9170,Sint-Gillis-Waas,Kasteelstraat,7,51.216089664,4.12955127681
9170,Sint-Gillis-Waas,Okkevoordestraat,33,51.2235262869,4.13879639605
9170,Sint-Gillis-Waas,Kemphoekstraat,54,51.2308377043,4.13256358487
9170,Sint-Gillis-Waas,Kloosterstraat,25,51.260768664,4.15062470408
9170,Sint-Gillis-Waas,Aststraat,67,51.214437592,4.11422966705
9170,Sint-Gillis-Waas,Lijkveldestraat,128,51.185673817,4.06667917402
9170,Sint-Gillis-Waas,Recolettenlaan,8,51.2588817648,4.104097809
9170,Sint-Gillis-Waas,Drieske Nijperstraat,6,51.219783899,4.12923209388
9170,Sint-Gillis-Waas,Buitenstraat,122,51.2496461377,4.07444442719
9170,Sint-Gillis-Waas,Kerselarendreef,7,51.25875222,4.09210966077
9170,Sint-Gillis-Waas,Sint-Gillisstraat,28,51.2546917089,4.08963808023
9170,Sint-Gillis-Waas,Sint-Niklaasstraat,27,51.213726913,4.13190137353
9170,Sint-Gillis-Waas,Holstraat,38,51.2230342849,4.09198954138
9170,Sint-Gillis-Waas,Nieuwstraat,123,51.2219064588,4.13018395895
9170,Sint-Gillis-Waas,Potterstraat,119,51.1880989477,4.10632848055
9170,Sint-Gillis-Waas,Burg.K.L.Verbraekenstraat,49,51.2185117736,4.12157190938
9170,Sint-Gillis-Waas,Buitenstraat,130,51.2491233486,4.0744338288
9170,Sint-Gillis-Waas,Sint-Niklaasstraat,206,51.1950285811,4.14574237779
9170,Sint-Gillis-Waas,Blokstraat,92,51.2237540868,4.1315567146
9170,Sint-Gillis-Waas,Kerselarendreef,36,51.2592503675,4.09393388444
9170,Sint-Gillis-Waas,Sportlaan,17,51.2226793851,4.11999724817
9170,Sint-Gillis-Waas,Reepstraat,25,51.2253786538,4.11644471329
9170,Sint-Gillis-Waas,Kerkstraat,115,51.2196074858,4.12492479683
9170,Sint-Gillis-Waas,Recolettenlaan,17,51.2595019313,4.10448909862
9170,Sint-Gillis-Waas,Zandstraat,83,51.1969075403,4.08892844238
9170,Sint-Gillis-Waas,Eeckbergstraat,34,51.2372169743,4.10611983066
9170,Sint-Gillis-Waas,Mgr.Bermijnstraat,20,51.1906298149,4.1002536428
9170,Sint-Gillis-Waas,Hogenakkerstraat,12,51.2539735482,4.08941190577
9170,Sint-Gillis-Waas,Zandstraat,65,51.1961399889,4.09036962159
9170,Sint-Gillis-Waas,Sint-Gillisstraat,13,51.2557199037,4.08949385199
9170,Sint-Gillis-Waas,Prins Philiplaan,20,51.1978667999,4.07529621965
9170,Sint-Gillis-Waas,Samelstraat,6,51.217549016,4.13196345423
9170,Sint-Gillis-Waas,Klapdorp,50,51.1904189008,4.091878702
9170,Sint-Gillis-Waas,Zandstraat,169,51.2000549556,4.08148886082
9170,Sint-Gillis-Waas,Nieuwstraat,64,51.2222442477,4.12947198656
9170,Sint-Gillis-Waas,Stationstraat,88,51.2186467691,4.11959132442
9170,Sint-Gillis-Waas,Potterstraat,181,51.1802770662,4.10991053513
9170,Sint-Gillis-Waas,Spaanskwartier,10,51.2617636954,4.11337327318
9170,Sint-Gillis-Waas,Recolettenlaan,35,51.2609179159,4.10463594807
9170,Sint-Gillis-Waas,Bagonielaan,25,51.1987425562,4.07682553495
9170,Sint-Gillis-Waas,Bagonie,3,51.1951423683,4.07971783247
9170,Sint-Gillis-Waas,Sint-Niklaasstraat,187,51.2018745521,4.14721046496
9170,Sint-Gillis-Waas,Stationstraat,124,51.2184101097,4.11754974851
9170,Sint-Gillis-Waas,Tybaartstraat,37,51.2181140242,4.11006503819
9170,Sint-Gillis-Waas,Potterstraat,163,51.1832525552,4.10876151421
9170,Sint-Gillis-Waas,Sportlaan,35,51.2232385532,4.11862899644
9170,Sint-Gillis-Waas,Boomgaardstraat,26,51.2573242836,4.14747964075
9170,Sint-Gillis-Waas,Houtvoortstraat,61,51.2245324703,4.11669205337
9170,Sint-Gillis-Waas,Donkerstraat,6,51.2526563724,4.08882923971
9170,Sint-Gillis-Waas,Kerkstraat,97,51.2190841679,4.12592684512
9170,Sint-Gillis-Waas,Kluizenhof,25,51.2298835681,4.0942752101
9170,Sint-Gillis-Waas,Molenstraat,9,51.2064073002,4.14809690235
9170,Sint-Gillis-Waas,Gentstraat,43,51.1904535694,4.0989568494
9170,Sint-Gillis-Waas,Blokstraat,74,51.2235291361,4.13076384917
9170,Sint-Gillis-Waas,Polderstraat,18,51.2616322359,4.14420097009
9170,Sint-Gillis-Waas,Burgemeester Van Hovelaan,11,51.2588814255,4.10310136116
9170,Sint-Gillis-Waas,Doornstraat,18,51.2108106835,4.13302246602
9170,Sint-Gillis-Waas,Heidestraat,86,51.252161678,4.08355690513
9170,Sint-Gillis-Waas,Plezantstraat,12,51.2604423838,4.1461667014
9170,Sint-Gillis-Waas,Koning Boudewijnlaan,56,51.1991890446,4.07469261856
9170,Sint-Gillis-Waas,Polenlaan,42,51.2525938611,4.08233579838
9170,Sint-Gillis-Waas,Pompstraat,103,51.2154558129,4.12279281988
9170,Sint-Gillis-Waas,Nieuwstraat,46,51.2216778172,4.12961573068
9170,Sint-Gillis-Waas,Sint-Niklaasstraat,169,51.2033056095,4.14697004078
9170,Sint-Gillis-Waas,Puyveldestraat,2,51.1858362323,4.0644640758
9170,Sint-Gillis-Waas,Zandstraat,8,51.1938779447,4.09523680163
9170,Sint-Gillis-Waas,Potterstraat,202,51.1816387572,4.11036851092
9170,Sint-Gillis-Waas,Kronenhoekstraat,12,51.2204178099,4.12336415318
9170,Sint-Gillis-Waas,Zandstraat,187,51.2007809459,4.08026285099
9170,Sint-Gillis-Waas,Stationstraat,20,51.2194544725,4.12342860702
9170,Sint-Gillis-Waas,Geinsteindestraat,14,51.1955846046,4.12707666447
9170,Sint-Gillis-Waas,Koning Boudewijnlaan,21,51.1984161436,4.07167580426
9170,Sint-Gillis-Waas,Gentstraat,61,51.1890646327,4.09930113758
9170,Sint-Gillis-Waas,Kemphoekstraat,34,51.2262784798,4.13417586561
9170,Sint-Gillis-Waas,Kapelstraat,38,51.2542253241,4.09067975908
9170,Sint-Gillis-Waas,Kapelstraat,3,51.2556166037,4.09105335545
9170,Sint-Gillis-Waas,Koning Boudewijnlaan,74,51.1991182089,4.07581485302
9170,Sint-Gillis-Waas,Puyveldestraat,28,51.1838612907,4.06482603707
9170,Sint-Gillis-Waas,Trompwegel,66,51.2510134799,4.08466919323
9170,Sint-Gillis-Waas,Hoogstraat,58,51.1917270793,4.13789326531
9170,Sint-Gillis-Waas,Geinsteindestraat,32,51.195150845,4.13149385431
9170,Sint-Gillis-Waas,Dennenlaan,9,51.1974760348,4.07787021202
9170,Sint-Gillis-Waas,Meerdonkdorp,29,51.2599680035,4.14766925432
9170,Sint-Gillis-Waas,Heerweg,4,51.2084818176,4.11989603623
9170,Sint-Gillis-Waas,Burg.G. Van Landeghemstraat,36,51.2179488506,4.12244694269
9170,Sint-Gillis-Waas,Bloempotstraat,6,51.2495612665,4.15654005458
9170,Sint-Gillis-Waas,Sint-Niklaasstraat,8,51.2146034866,4.1311025076
9170,Sint-Gillis-Waas,Oude Molenstraat,13,51.2565645608,4.09732693452
9170,Sint-Gillis-Waas,Beekstraat,15,51.1941550409,4.09986118718
9170,Sint-Gillis-Waas,Margrietstraat,9,51.2609091846,4.14772711842
9170,Sint-Gillis-Waas,Oude Molenstraat,117,51.2616930319,4.11282368827
9170,Sint-Gillis-Waas,Kerkstraat,79,51.2186810172,4.12670883617
9170,Sint-Gillis-Waas,Klingedorp,46,51.2579963703,4.09048598352
9170,Sint-Gillis-Waas,Herenstraat,55,51.2235965746,4.12081758134
9170,Sint-Gillis-Waas,Beekstraat,33,51.1953198223,4.10294920539
9170,Sint-Gillis-Waas,Grouwesteenstraat,15,51.2000813783,4.10277778775
9170,Sint-Gillis-Waas,Potterstraat,220,51.1803797856,4.11076659318
9170,Sint-Gillis-Waas,Warmenauwstraat,9,51.1798719644,4.10864472539
9170,Sint-Gillis-Waas,Vlasrootstraat,22,51.2029399849,4.07423363942
9170,Sint-Gillis-Waas,Turfbankenstraat,8,51.2544476907,4.14773317988
9170,Sint-Gillis-Waas,Willem Van Saeftingelaan,16,51.2597371853,4.10514916689
9170,Sint-Gillis-Waas,Heerweg,28A,51.2053584847,4.08198540969
9170,Sint-Gillis-Waas,Schoolstraat,24,51.2618212842,4.14708372551
9170,Sint-Gillis-Waas,Koningstraat,3,51.2493737105,4.08492149586
9170,Sint-Gillis-Waas,Kerselarendreef,18,51.2591641458,4.09280070067
9170,Sint-Gillis-Waas,Koningin Fabiolalaan,24,51.1980717463,4.07359891119
9170,Sint-Gillis-Waas,Nieuwstraat,7,51.2177067687,4.12914726858
9170,Sint-Gillis-Waas,Doornstraat,36,51.2102678005,4.13042505858
9170,Sint-Gillis-Waas,Houtvoortstraat,43,51.2231767802,4.11742809096
9170,Sint-Gillis-Waas,Herenstraat,73,51.2241221396,4.11987920853
9170,Sint-Gillis-Waas,Herenstraat,20,51.2223727671,4.12174931546
9170,Sint-Gillis-Waas,Kronenhoekstraat,40,51.2216250567,4.12319535855
9170,Sint-Gillis-Waas,Beekstraat,68,51.1957245558,4.1025399098
9170,Sint-Gillis-Waas,Klingedorp,11,51.2565753596,4.09035091939
9170,Sint-Gillis-Waas,Meerdonkdorp,3,51.2596300432,4.14555544447
9170,Sint-Gillis-Waas,Teerlingstraat,30,51.2575558048,4.14824319201
9170,Sint-Gillis-Waas,Stationstraat,47,51.2191977273,4.12056108906
9170,Sint-Gillis-Waas,Gentstraat,19J,51.1919465663,4.09722526223
9170,Sint-Gillis-Waas,Kieldrechtstraat,21,51.255670595,4.09138692832
9170,Sint-Gillis-Waas,Polderstraat,36,51.262223575,4.14348941927
9170,Sint-Gillis-Waas,Bosstraat,11,51.2136238715,4.1292891141
9170,Sint-Gillis-Waas,Potterstraat,31,51.192433293,4.09958728023
9170,Sint-Gillis-Waas,Pastorijwegel,14,51.1944472013,4.09778467295
9170,Sint-Gillis-Waas,Potterstraat,4,51.1932159089,4.09839575782
9170,Sint-Gillis-Waas,Houtvoortstraat,33,51.2211608338,4.11852331329
9170,Sint-Gillis-Waas,Beekstraat,104,51.1975785973,4.1069269449
9170,Sint-Gillis-Waas,Eeckbergstraat,69,51.2393975444,4.11939965942
9170,Sint-Gillis-Waas,Hulststraat,44,51.2567766584,4.08709765032
9170,Sint-Gillis-Waas,Houtvoortstraat,24E,51.2213902673,4.11778078866
9170,Sint-Gillis-Waas,Klapdorp,39,51.1910993581,4.09208122741
9170,Sint-Gillis-Waas,Oude Molenstraat,31,51.2574702676,4.10230276769
9170,Sint-Gillis-Waas,Kluizendijkstraat,35,51.235442147,4.10174138737
9170,Sint-Gillis-Waas,Buitenstraat,61,51.2506632916,4.07663867535
9170,Sint-Gillis-Waas,Turfbankenstraat,17,51.254617987,4.14426761431
9170,Sint-Gillis-Waas,Doornstraat,46,51.2099169125,4.12847653877
9170,Sint-Gillis-Waas,Polenlaan,32,51.2528121246,4.08286842847
9170,Sint-Gillis-Waas,Klingedijkstraat,118,51.2485974276,4.08644504905
9170,Sint-Gillis-Waas,Pompstraat,52,51.2155892613,4.12460469833
9170,Sint-Gillis-Waas,Koning Boudewijnlaan,48,51.1992289539,4.07418619502
9170,Sint-Gillis-Waas,Kerkstraat,7,51.2174086388,4.12893325304
9170,Sint-Gillis-Waas,Raymond Smetstraat,47,51.2213963805,4.12146033056
9170,Sint-Gillis-Waas,Sint-Niklaasstraat,30,51.2139149979,4.13255544509
9170,Sint-Gillis-Waas,Boerenkrijglaan,2,51.2598848028,4.10617589097
9170,Sint-Gillis-Waas,Kouterstraat,34,51.2921627266,4.16541741551
9170,Sint-Gillis-Waas,Blokstraat,21,51.2221658668,4.12518857032
9170,Sint-Gillis-Waas,Lage Kerkwegel,28,51.2177181942,4.13093826091
9170,Sint-Gillis-Waas,Nieuwstraat,11,51.2178092918,4.12930790099
9170,Sint-Gillis-Waas,Kemphoekstraat,16,51.2247287553,4.13415973431
9170,Sint-Gillis-Waas,Roskamstraat,1,51.1954941933,4.14374839725
9170,Sint-Gillis-Waas,Hogenakkerstraat,40,51.252800677,4.08949526223
9170,Sint-Gillis-Waas,Holstraat,56,51.2247263674,4.09195490123
9170,Sint-Gillis-Waas,Schooldreef,70,51.2579972346,4.09440752896
9170,Sint-Gillis-Waas,Kloosterstraat,53,51.261738353,4.15871874508
9170,Sint-Gillis-Waas,Lijkveldestraat,22,51.1857244468,4.08722782257
9170,Sint-Gillis-Waas,Doornstraat,64,51.2087652603,4.12305881771
9170,Sint-Gillis-Waas,Voshoek,2,51.2267011288,4.15960671168
9170,Sint-Gillis-Waas,Kluizendijkstraat,17,51.2343307473,4.1022276595
9170,Sint-Gillis-Waas,Margrietstraat,93,51.2558905101,4.15080489083
9170,Sint-Gillis-Waas,Klingedorp,99,51.2593672655,4.09136769713
9170,Sint-Gillis-Waas,Oude Molenstraat,26A,51.2565809856,4.09547642117
9170,Sint-Gillis-Waas,Doelstraat,4,51.2603084052,4.15504037937
9170,Sint-Gillis-Waas,Baarstraat,22,51.2048736087,4.13643446673
9170,Sint-Gillis-Waas,Stationstraat,177,51.2181475558,4.11409425654
9170,Sint-Gillis-Waas,Willem Van Saeftingelaan,34,51.2612141281,4.10550685495
9170,Sint-Gillis-Waas,Zandstraat,30,51.1945693106,4.09347635408
9170,Sint-Gillis-Waas,Houtvoortstraat,15,51.2197978824,4.11948843458
9170,Sint-Gillis-Waas,Smishoekstraat,3,51.2569937598,4.15126013358
9170,Sint-Gillis-Waas,Holdamstraat,4,51.2189196811,4.10332528158
9170,Sint-Gillis-Waas,Wijnstraat,43,51.1926160124,4.11619511961
9170,Sint-Gillis-Waas,Zandstraat,224,51.2029989192,4.07749360894
9170,Sint-Gillis-Waas,Heidestraat,33,51.2538160008,4.08676042344
9170,Sint-Gillis-Waas,Holstraat,21,51.222812981,4.09137062753
9170,Sint-Gillis-Waas,Potterstraat,145,51.1849580911,4.10800488276
9170,Sint-Gillis-Waas,Aststraat,39,51.2140134991,4.11695740967
9170,Sint-Gillis-Waas,Sint-Pietersnieuwstraat,19,51.2431013897,4.09054691423
9170,Sint-Gillis-Waas,Gaversstraat,60,51.2166550822,4.12108008582
9170,Sint-Gillis-Waas,Margrietstraat,57,51.2576481382,4.1499561256
9170,Sint-Gillis-Waas,Heidestraat,102,51.252115478,4.0828848668
9170,Sint-Gillis-Waas,Kronenhoekstraat,29,51.2211310108,4.12387068415
9170,Sint-Gillis-Waas,Reepstraat,60,51.225700483,4.11240018006
9170,Sint-Gillis-Waas,Bagoniestraatje,15,51.1953856497,4.07966525804
9170,Sint-Gillis-Waas,Oude Molenstraat,87B,51.2591279725,4.11001512105
9170,Sint-Gillis-Waas,Potterstraat,110,51.1897098143,4.1051668443
9170,Sint-Gillis-Waas,Sint-Gillisstraat,31,51.2551332197,4.08891494991
9170,Sint-Gillis-Waas,Heidestraat,120,51.2517128177,4.08199845497
9170,Sint-Gillis-Waas,Geinsteindestraat,49,51.1929661826,4.13095505548
9170,Sint-Gillis-Waas,Heidestraat,68,51.2524116676,4.08427797738
9170,Sint-Gillis-Waas,Oude Molenstraat,92,51.2586575044,4.10571364695
9170,Sint-Gillis-Waas,Bosstraat,7,51.2140117961,4.12950322767
9170,Sint-Gillis-Waas,Margrietstraat,75,51.2566651657,4.15063311104
9170,Sint-Gillis-Waas,Schooldreef,52,51.2579358258,4.09327465822
9170,Sint-Gillis-Waas,Gaversstraat,42,51.2173561808,4.12073588359
9170,Sint-Gillis-Waas,Lage Kerkwegel,2,51.2185938047,4.12859755513
9170,Sint-Gillis-Waas,Reepstraat,42,51.2253124874,4.11387557852
9170,Sint-Gillis-Waas,Burg.G. Van Landeghemstraat,11,51.2180352281,4.12300939752
9170,Sint-Gillis-Waas,Zandstraat,206,51.2024777406,4.07803268014
9170,Sint-Gillis-Waas,Reepstraat,138,51.227318231,4.10261479131
9170,Sint-Gillis-Waas,Klingedijkstraat,40,51.2390295609,4.09926404581
9170,Sint-Gillis-Waas,Ettingestraat,21,51.189982478,4.09655937349
9170,Sint-Gillis-Waas,Grensstraat,38,51.2912941146,4.16348554446
9170,Sint-Gillis-Waas,Burgemeester Van Hovelaan,7,51.258586394,4.10316592554
9170,Sint-Gillis-Waas,Lijkveldestraat,101,51.1856378427,4.07434487361
9170,Sint-Gillis-Waas,Sint-Niklaasstraat,83,51.211093972,4.13692876324
9170,Sint-Gillis-Waas,Aststraat,40,51.213548792,4.11501660666
9170,Sint-Gillis-Waas,Hoge Rode Moer,46,51.2598847926,4.09777650895
9170,Sint-Gillis-Waas,Margrietstraat,22,51.2594225411,4.14933627705
9170,Sint-Gillis-Waas,Hoge Rode Moer,11,51.2587817846,4.09949044939
9170,Sint-Gillis-Waas,Teerlingstraat,8,51.2565764128,4.14934419481
9170,Sint-Gillis-Waas,Pompstraat,70,51.2152271293,4.12343518306
9170,Sint-Gillis-Waas,Zandstraat,259,51.2048107541,4.07684430841
9170,Sint-Gillis-Waas,Heidestraat,15,51.2541377816,4.08774451692
9170,Sint-Gillis-Waas,Burg.G. Van Landeghemstraat,46,51.2184318724,4.12226563413
9170,Sint-Gillis-Waas,Buitenstraat,132B,51.2488736807,4.07346909765
9170,Sint-Gillis-Waas,Turkeyenstraat,22,51.2318557918,4.14679240296
9170,Sint-Gillis-Waas,Polenlaan,14,51.2530977192,4.08362982462
9170,Sint-Gillis-Waas,Blokstraat,48,51.2233874784,4.12960212066
9170,Sint-Gillis-Waas,Stationstraat,106,51.2184317963,4.11870938228
9170,Sint-Gillis-Waas,Eeckbergstraat,16,51.2369738827,4.1031932463
9170,Sint-Gillis-Waas,Macharius Rheynstraat,26,51.25312947,4.08170114353
9170,Sint-Gillis-Waas,Boerenkrijglaan,28,51.2616880119,4.10669380706
9170,Sint-Gillis-Waas,Doornstraat,66B,51.2085643623,4.12132755611
9170,Sint-Gillis-Waas,Buitenstraat,15,51.2514932388,4.07952095861
9170,Sint-Gillis-Waas,Burgemeester Van Hovelaan,18,51.2590442468,4.10231885825
9170,Sint-Gillis-Waas,Herenstraat,27,51.2226692562,4.12185997021
9170,Sint-Gillis-Waas,Reepstraat,103,51.2277039184,4.10049834486
9170,Sint-Gillis-Waas,Schoolstraat,5,51.2609987381,4.1465876614
9170,Sint-Gillis-Waas,Doornstraat,11,51.2115384159,4.13448691048
9170,Sint-Gillis-Waas,Kluizenhof,6,51.2290138129,4.10026549539
9170,Sint-Gillis-Waas,Koningin Fabiolalaan,5,51.1981647299,4.07231990279
9170,Sint-Gillis-Waas,Klapdorp,85,51.1892216152,4.08969117777
9170,Sint-Gillis-Waas,Beekstraat,29A,51.1948113833,4.10160924964
9170,Sint-Gillis-Waas,Wijnstraat,33,51.1935779918,4.11544950072
9170,Sint-Gillis-Waas,Zandstraat,170,51.2006253153,4.07965675805
9170,Sint-Gillis-Waas,Macharius Rheynstraat,7,51.2538182504,4.08341644642
9170,Sint-Gillis-Waas,Tybaartstraat,30,51.2177120075,4.1101643004
9170,Sint-Gillis-Waas,Molenstraat,2,51.2062470662,4.14686094437
9170,Sint-Gillis-Waas,Potterstraat,198,51.1819910365,4.11037629066
9170,Sint-Gillis-Waas,Dijkstraat,16,51.257854653,4.14330792655
9170,Sint-Gillis-Waas,Gentstraat,113B,51.1820321247,4.09869506912
9170,Sint-Gillis-Waas,Kemphoekstraat,44,51.2283416184,4.13292148658
9170,Sint-Gillis-Waas,Oude Molenstraat,74,51.2579005535,4.10222954909
9170,Sint-Gillis-Waas,Vosdreef,14,51.1933032363,4.09226345319
