PKANCODE,COMMUNE_NL,STREET_NL,HUISNR,LAT,LON
9200,Dendermonde,Hagewijkpark,69,51.0513209375,4.10334265433
9200,Dendermonde,Klinkaertstraat,17,51.0004537822,4.02050804207
9200,Dendermonde,Jozef De Troetselstraat,41,50.9966232797,4.01407709305
9200,Dendermonde,Begijnhof,43,51.0274448724,4.09858216091
9200,Dendermonde,Zwarte Beekstraat,20,51.0298797929,4.16852106657
9200,Dendermonde,Sint-Rochusstraat,9,51.0277912952,4.09802581581
9200,Dendermonde,Beukenlaan,39,51.0299128397,4.11659167168
9200,Dendermonde,Vlassenbroek,89,51.0481967251,4.13032002785
9200,Dendermonde,Reynoutstraat,40,51.0471221587,4.09928797658
9200,Dendermonde,Kerkstraat,87,51.0313658807,4.09440128368
9200,Dendermonde,Sint-Ursmarusstraat,118,51.0357770849,4.16658937841
9200,Dendermonde,Burgemeester Potiaulaan,58,51.0207449012,4.11313129943
9200,Dendermonde,Lindestraat,15,51.0266076196,4.06337063081
9200,Dendermonde,Mevrouw Courtmanspark,76,51.0055848881,4.0576104175
9200,Dendermonde,Ouburg,48,51.0052951904,4.06039174497
9200,Dendermonde,Ros Beiaardstraat,32,51.0354718422,4.08644471957
9200,Dendermonde,Donckstraat,116,51.0360607739,4.08725980633
9200,Dendermonde,De Dammenlaan,133,51.036845095,4.07960887103
9200,Dendermonde,Noordlaan,18,51.0335557081,4.09979311353
9200,Dendermonde,Zijpestraat,52,51.0054364907,4.06325543304
9200,Dendermonde,Hoofdstraat,187,51.0316759989,4.04279396007
9200,Dendermonde,Mandekensstraat,260,51.023127136,4.15743145045
9200,Dendermonde,Hof ter Bremptstraat,50,51.0354990063,4.09249352975
9200,Dendermonde,Greffelinck,6B,51.0294782407,4.0967598063
9200,Dendermonde,Hof ten Rode,49,51.0291560956,4.17055330938
9200,Dendermonde,Sint-Jacobstraat,47,51.0300025696,4.10532032547
9200,Dendermonde,Hoge Weg,16,51.0193470942,4.117822037
9200,Dendermonde,Rosstraat,156,51.0291727893,4.15827250997
9200,Dendermonde,Koebosstraat,10,51.0305159963,4.06389630308
9200,Dendermonde,Begijnhoflaan,68,51.0278204993,4.09591300975
9200,Dendermonde,Brusselsestraat,76,51.0268613581,4.10038024761
9200,Dendermonde,Baleunisstraat,28,51.0244645037,4.11467634953
9200,Dendermonde,Emiel Van Winckellaan,49,51.0305431191,4.09541208079
9200,Dendermonde,Kloosterstraat,40,51.0350172142,4.16282493998
9200,Dendermonde,Veldstraat,25,51.0188631741,4.11683385055
9200,Dendermonde,Leopold II-laan,69,51.0302448594,4.10545666998
9200,Dendermonde,Hemelstraat,157,51.022435072,4.10453669638
9200,Dendermonde,Kasteelstraat,22,51.0327477283,4.10374903697
9200,Dendermonde,Bakkerstraat,245,51.0581142244,4.09640835388
9200,Dendermonde,Vrankrijkstraat,52,50.9972992324,4.01960636261
9200,Dendermonde,Zevenhoevenstraat,15,51.0380054295,4.14549948436
9200,Dendermonde,Gentsesteenweg,141,51.0316085121,4.08378421363
9200,Dendermonde,Karel Eeckhoutstraat,12,51.0417623069,4.1063277062
9200,Dendermonde,Gaverstraat,43,51.0568803979,4.10881708439
9200,Dendermonde,Hamsesteenweg,70,51.0620276691,4.10902364863
9200,Dendermonde,Kwintijnpoort,34,51.0348494757,4.09230945229
9200,Dendermonde,Vlotgraslaan,34,51.0349718062,4.08253559051
9200,Dendermonde,Ouburg,66,51.0041725116,4.05993651191
9200,Dendermonde,Scheutlagestraat,52,50.9927911038,4.06729031934
9200,Dendermonde,Vrankrijkstraat,98A,50.9959565182,4.02462165733
9200,Dendermonde,Mevrouw Courtmanspark,58,51.006387672,4.05810761946
9200,Dendermonde,Gasthuisstraat,156,51.0203962089,4.08362067763
9200,Dendermonde,Sint-Jorisgilde,53,51.0286293516,4.09588079715
9200,Dendermonde,Dijkstraat,29,51.0306551361,4.10055185906
9200,Dendermonde,Burgemeester Potiaulaan,76,51.0211384889,4.11360931715
9200,Dendermonde,Warmen Haard,15,51.0191494218,4.08552515426
9200,Dendermonde,Spoorwegstraat,1,51.0217661678,4.1182547862
9200,Dendermonde,Gentsesteenweg,303,51.0304107201,4.07307716905
9200,Dendermonde,Theodoor Vermylenstraat,10,51.0332943092,4.17088740445
9200,Dendermonde,Groeneweg,51,51.0600695381,4.10173736679
9200,Dendermonde,Bakkerstraat,263,51.0600834019,4.0951081528
9200,Dendermonde,Singelweg,25,50.9942375697,4.06966166098
9200,Dendermonde,Hullekenstraat,170,51.0279025785,4.12077600278
9200,Dendermonde,Botermelkstraat,6,51.017999581,4.08939093449
9200,Dendermonde,Noordlaan,36,51.0335561146,4.09886831816
9200,Dendermonde,Oude baan,105,51.0140447292,4.06673260457
9200,Dendermonde,Ros Beiaardstraat,14,51.0346705679,4.08671228571
9200,Dendermonde,Oliestraat,4,51.0158165667,4.09665852815
9200,Dendermonde,Oude Molenstraat,74,51.0603931465,4.11154434942
9200,Dendermonde,Kier,17,51.0353646289,4.1656228446
9200,Dendermonde,Volkaertwegel,19B,51.0458815466,4.11037286321
9200,Dendermonde,Korte Dijkstraat,93,51.0307679519,4.12112836936
9200,Dendermonde,Kleinzand,21,51.0486441517,4.0990005824
9200,Dendermonde,Smidsestraat,94,51.0573438068,4.11595417231
9200,Dendermonde,Schoonaardebaan,92,51.0059763841,4.01823430209
9200,Dendermonde,Denderbellestraat,21,51.0161422029,4.09629082317
9200,Dendermonde,Steenweg van Aalst,5,51.0305110345,4.07157247195
9200,Dendermonde,Grootzand,41,51.0470222993,4.10753365286
9200,Dendermonde,Dorpsplein,3,51.0357755304,4.16463934919
9200,Dendermonde,Hof ten Rode,67,51.0287098635,4.16963491601
9200,Dendermonde,Torrestraat,2,51.0197806009,4.12344992974
9200,Dendermonde,Rootjensweg,7,51.0554955238,4.10302593932
9200,Dendermonde,Onze-Lieve-Vrouwstraat,22,51.0108913625,4.05760973095
9200,Dendermonde,Nieuwstraat,81,50.9987711657,4.0090053925
9200,Dendermonde,Pastoor Claeysstraat,48,51.0212037393,4.11636436492
9200,Dendermonde,Serwouterstraat,22,51.0194954861,4.12036376595
9200,Dendermonde,Lambroeckstraat,1,51.0088991165,4.06073369391
9200,Dendermonde,Resedalaan,57,51.0132854399,4.11121267754
9200,Dendermonde,Schuiteplasstraat,33,50.9945322554,4.01981596071
9200,Dendermonde,Tulpenlaan,2,51.014877267,4.11213692217
9200,Dendermonde,Mandekensstraat,242,51.0234859735,4.15788080122
9200,Dendermonde,Bakkerstraat,21,51.0435878241,4.10348263726
9200,Dendermonde,Oude baan,87,51.0133190885,4.06566624565
9200,Dendermonde,Constabelstraat,64,51.0075245548,4.02340169023
9200,Dendermonde,Brukkelen,4,50.9962833917,3.99935192827
9200,Dendermonde,Bijlokestraat,7,51.0367003375,4.08455525446
9200,Dendermonde,Baasrodestraat,223,51.0390333639,4.14533020559
9200,Dendermonde,Stuifstraat,35,51.0245208859,4.05041064065
9200,Dendermonde,Dokter Haekstraat,27,51.0523959909,4.10642711247
9200,Dendermonde,Mevrouw Courtmansstraat,17,51.0075485883,4.06142361861
9200,Dendermonde,Lindestraat,33,51.0251369381,4.06251301347
9200,Dendermonde,Molenberg,7,51.0316493243,4.16659074665
9200,Dendermonde,Heidepark,63,51.0277340143,4.06049005138
9200,Dendermonde,Sint-Ursmarusstraat,136,51.0356337453,4.16761091675
9200,Dendermonde,Nederstraat,40,51.0107364531,4.06119884422
9200,Dendermonde,Baasrodestraat,80,51.0387977644,4.15223559956
9200,Dendermonde,Pijnderslaan,47,51.0324402267,4.11475735307
9200,Dendermonde,Meibosstraat,84,51.0389467517,4.15701894284
9200,Dendermonde,Rosstraat,39,51.0343768141,4.16096416263
9200,Dendermonde,Hagewijkpark,61B,51.0501304635,4.10227794813
9200,Dendermonde,Theodoor Vermylenstraat,134,51.0300811363,4.16661403019
9200,Dendermonde,Oude Molenstraat,56,51.0593912884,4.11297638024
9200,Dendermonde,Brusselsestraat,58,51.0271582429,4.09993496131
9200,Dendermonde,Emanuel Hielstraat,65,51.0203273403,4.10656593662
9200,Dendermonde,Heidestraat,33,51.0289063117,4.06233090161
9200,Dendermonde,Broekstraat,66,51.0398015062,4.14567929297
9200,Dendermonde,Schoonaardebaan,56,51.0046895992,4.01588896165
9200,Dendermonde,Vrankrijkstraat,70,50.9967773614,4.02038032676
9200,Dendermonde,Hoogveld,20,51.0338296611,4.13287141666
9200,Dendermonde,Eegene,101,51.0092277672,4.02458192154
9200,Dendermonde,Eegene,19,51.017667352,4.04435343454
9200,Dendermonde,Ganzegavers,17,51.0559052539,4.10669289296
9200,Dendermonde,Stenen Stichel,10,51.0198461467,4.11912612815
9200,Dendermonde,Palingbotterstraat,6,51.0358479797,4.16236108992
9200,Dendermonde,Fabriekstraat,15,51.0317294396,4.17568854579
9200,Dendermonde,Hof ten Bos,103,51.0048882338,4.06719968822
9200,Dendermonde,Gaverstraat,61,51.0570078327,4.1075813248
9200,Dendermonde,Otterstraat,187,51.0219886065,4.11382646797
9200,Dendermonde,Plattenakker,10,51.0182737791,4.10908608351
9200,Dendermonde,Van Langenhovestraat,159,51.0174299217,4.10316524981
9200,Dendermonde,Hofstraat,52,51.011837578,4.05963401587
9200,Dendermonde,Langestraat,28A,50.9907074515,4.00335667549
9200,Dendermonde,Steenweg naar Wetteren,14,51.0037237821,4.01016191102
9200,Dendermonde,Hullekenstraat,88,51.0256122377,4.11829841003
9200,Dendermonde,Benedenstraat,6,50.9954795602,4.06784170429
9200,Dendermonde,Kloostergoedstraat,75,50.9966518893,4.0538820276
9200,Dendermonde,Lambroeckstraat,71,51.0057511002,4.05482959592
9200,Dendermonde,Prinsenmeers,8,51.0356736515,4.09418377959
9200,Dendermonde,Platanenlaan,3,51.0288000455,4.1182205385
9200,Dendermonde,Zandstraat,60,51.0299507356,4.06847897399
9200,Dendermonde,Oude Vest,123,51.0315054845,4.10384885281
9200,Dendermonde,Nederstraat,29,51.0101918508,4.06083891952
9200,Dendermonde,Mevrouw Courtmanspark,112,51.0055070405,4.05931836486
9200,Dendermonde,Hekkenhoek,2A,51.0501687537,4.08841488435
9200,Dendermonde,Oudegemse baan,162,51.0167283742,4.06576308684
9200,Dendermonde,Volaardestraat,52,51.0188098037,4.13389414691
9200,Dendermonde,Heirbaan,240,51.0106318655,4.11688326991
9200,Dendermonde,Hof ten Rode,85,51.0283961209,4.16845012994
9200,Dendermonde,Broekkantstraat,252,51.041358207,4.15510585275
9200,Dendermonde,Jozef Van Bogaertstraat,24,51.0198703676,4.1084490298
9200,Dendermonde,Tinnenpotstraat,48,51.0347867358,4.11876255558
9200,Dendermonde,Lambroeckstraat,232,51.0012800251,4.0436001984
9200,Dendermonde,Beekweidestraat,25,51.0202109823,4.09669833582
9200,Dendermonde,Beekstraat,6,51.0142097408,4.12399003538
9200,Dendermonde,Schoonaardebaan,4,51.0035708163,4.01177157093
9200,Dendermonde,Resedalaan,22,51.0137840822,4.11192144919
9200,Dendermonde,Langestraat,9D,50.9917549866,4.01044974021
9200,Dendermonde,Theodoor Vermylenstraat,116,51.030875965,4.1672032008
9200,Dendermonde,Vondelparklaan,9,51.0201580934,4.1037161936
9200,Dendermonde,Otterstraat,45,51.0230942419,4.10809478864
9200,Dendermonde,Spoorwegstraat,142,51.0258028812,4.12265162044
9200,Dendermonde,Emiel Van Winckellaan,32,51.0306669171,4.09619767784
9200,Dendermonde,Hofstraat,194,51.0219353051,4.05263476564
9200,Dendermonde,Burgemeester Potiaulaan,94,51.0215663011,4.1142439341
9200,Dendermonde,Vijfde Januaristraat,38,51.0197360005,4.11372924201
9200,Dendermonde,Koning Boudewijnlaan,69,51.0351613285,4.08504416606
9200,Dendermonde,Geerstraat,104,51.0311535531,4.14900736274
9200,Dendermonde,Rozenlaan,29,51.0144135746,4.11353070886
9200,Dendermonde,Prinsenmeers,43,51.0362272965,4.09550515059
9200,Dendermonde,Eegene,37,51.0129261363,4.03390471297
9200,Dendermonde,Van Langenhovestraat,106,51.018438597,4.10424964134
9200,Dendermonde,Hof ten Rode,32,51.0307166758,4.17049540767
9200,Dendermonde,Hoofdstraat,63,51.0292104846,4.05184108449
9200,Dendermonde,Ommegancklaan,22,51.0321719022,4.11271739335
9200,Dendermonde,Kolvenierslaan,32,51.031022044,4.1131839684
9200,Dendermonde,Smeyskensstraat,27,51.0330945652,4.15688508571
9200,Dendermonde,Ouburg,102,51.0021057701,4.0594400777
9200,Dendermonde,Oliestraat,28,51.0163292686,4.09703263481
9200,Dendermonde,Boonwijkstraat,56,51.0194656592,4.09408217395
9200,Dendermonde,Kolvenierslaan,49,51.0317057372,4.11371767983
9200,Dendermonde,Vlotgraslaan,16,51.0348310291,4.0833117174
9200,Dendermonde,Nieuwstraat,63,50.9986259542,4.0097603794
9200,Dendermonde,Meibosstraat,31,51.0389930848,4.15804685794
9200,Dendermonde,Cyriel De Baerestraat,8,51.0385820308,4.16074352924
9200,Dendermonde,Driehuizen,38,51.0340250673,4.17048215955
9200,Dendermonde,Sint-Margrietstraat,48,51.0461194326,4.09685600039
9200,Dendermonde,Dijkstraat,5,51.0304952204,4.09976161107
9200,Dendermonde,Smeyskensstraat,73,51.0336281684,4.15405469942
9200,Dendermonde,Lambroeckstraat,25,51.0083799613,4.05924485818
9200,Dendermonde,Sint-Gillislaan,27,51.0226255095,4.10726317644
9200,Dendermonde,Heidepark,45,51.0271194669,4.05916502949
9200,Dendermonde,Bankveldstraat,22,51.0559847346,4.11928147354
9200,Dendermonde,Rimeirstraat,3,50.9897927611,4.00175378068
9200,Dendermonde,Steenweg naar Wetteren,67,51.0024823907,4.00581916501
9200,Dendermonde,Brusselsestraat,94,51.0263163782,4.10066943862
9200,Dendermonde,Sint-Jacobstraat,35,51.030195716,4.10506592903
9200,Dendermonde,Schoolstraat,60,51.0370755557,4.07602690166
9200,Dendermonde,Hoge Weg,34,51.0184958527,4.11974440966
9200,Dendermonde,Broekkantstraat,270,51.0410383541,4.15504300273
9200,Dendermonde,Killeweg,23,51.0376171877,4.11655598978
9200,Dendermonde,Sportpleinstraat,28,51.0461971633,4.10296565219
9200,Dendermonde,Ringstraat,28,51.0519804387,4.10891197044
9200,Dendermonde,Rodeweg,24,51.0161210919,4.09055585585
9200,Dendermonde,Sparrenlaan,14,51.0288052259,4.11634787895
9200,Dendermonde,Briel,21,51.0309747618,4.18186560148
9200,Dendermonde,Koning Boudewijnlaan,16,51.034215104,4.08461806247
9200,Dendermonde,Prateveld,18,51.0243111142,4.12532536927
9200,Dendermonde,Prinsenmeers,61,51.0357782353,4.09692075404
9200,Dendermonde,Steenweg naar Wetteren,85,51.0023617613,4.00509166486
9200,Dendermonde,Singelweg,1,50.9958953446,4.06951577941
9200,Dendermonde,Donckstraat,134,51.036488257,4.08713149554
9200,Dendermonde,Vrijstraat,8,51.0279768964,4.05472724296
9200,Dendermonde,Hofstraat,24,51.0105740472,4.06062395825
9200,Dendermonde,Hoofdstraat,10,51.0291731278,4.05610124038
9200,Dendermonde,Hekkestraat,8,51.0567386841,4.0951439224
9200,Dendermonde,Krekelhoek,32,51.045550264,4.10302350306
9200,Dendermonde,Hemelstraat,122,51.0216430902,4.10475850314
9200,Dendermonde,Ganzegavers,45,51.0554736937,4.10819688763
9200,Dendermonde,Mandekensstraat,88,51.0271904349,4.17258454465
9200,Dendermonde,Brusselsestraat,6,51.0286660606,4.09847421007
9200,Dendermonde,Platanenlaan,27,51.0291902888,4.11908257948
9200,Dendermonde,Leugestraat,10,51.049314329,4.10507144332
9200,Dendermonde,Vossenhoek,109,51.0413702052,4.10367140623
9200,Dendermonde,Haagstraat,159,51.0146348144,4.12393651916
9200,Dendermonde,Schoonaardebaan,74,51.0051424652,4.01687860921
9200,Dendermonde,Zandstraat,14,51.0304460828,4.07126696728
9200,Dendermonde,Lindanusstraat,96,51.027839016,4.10384530895
9200,Dendermonde,Bevrijdingslaan,70,51.0266218826,4.06024890888
9200,Dendermonde,Oude Brugstraat,8A,51.0040639506,4.01135194496
9200,Dendermonde,Nieuwstraat,45,50.9973432554,4.01034184615
9200,Dendermonde,Scheepswerfstraat,41,51.0365525053,4.16316650717
9200,Dendermonde,Meibosstraat,13,51.0403713719,4.15784605087
9200,Dendermonde,Oudegemse baan,144,51.0158620398,4.06514820138
9200,Dendermonde,Vijfbunderstraat,9,51.0619882334,4.1059461035
9200,Dendermonde,Moeskouterlaan,4,51.0134545205,4.10948622128
9200,Dendermonde,Koning Albertstraat,38,51.0181333201,4.11484827134
9200,Dendermonde,Mevrouw Courtmanspark,130,51.0054051915,4.0564188024
9200,Dendermonde,Oude Vest,158,51.0312997838,4.104918884
9200,Dendermonde,Kloostergoedstraat,22,50.998491477,4.04457481022
9200,Dendermonde,Sint-Jorisgilde,12B,51.0290592365,4.09807922855
9200,Dendermonde,Langveldstraat,13,51.0190945036,4.09676223931
9200,Dendermonde,Hoofdstraat,45,51.0293970996,4.05341869318
9200,Dendermonde,Losweg,9,51.0093588262,4.02714702539
9200,Dendermonde,Sportpleinstraat,4,51.0454727553,4.10538064646
9200,Dendermonde,Varenbergstraat,37,51.0098597059,4.06454766765
9200,Dendermonde,Bevrijdingslaan,213,51.0192645084,4.04209403262
9200,Dendermonde,Denstraat,40,51.0593662457,4.12130880251
9200,Dendermonde,Otterstraat,17,51.023334137,4.10694680465
9200,Dendermonde,Papiermolenstraat,10,51.0319546501,4.10336062958
9200,Dendermonde,Otterstraat,63,51.022906567,4.10883640854
9200,Dendermonde,Bevrijdingslaan,24,51.0281021501,4.0639980802
9200,Dendermonde,Korte Dijkstraat,111,51.030323548,4.12113555983
9200,Dendermonde,Rootjensweg,42,51.0535663735,4.10082736612
9200,Dendermonde,Hofstraat,70,51.0128124386,4.05873897824
9200,Dendermonde,Sint-Ursmarusstraat,30,51.0377920538,4.16293838219
9200,Dendermonde,Veerstraat,7,51.0324257197,4.10178484421
9200,Dendermonde,Kolvenierslaan,14,51.0307284083,4.11237173591
9200,Dendermonde,Lange Dijkstraat,140,51.0259194773,4.12885780699
9200,Dendermonde,Schuiteplasstraat,15,50.9952644893,4.02123710641
9200,Dendermonde,Broekkantstraat,81,51.0407510379,4.15848496918
9200,Dendermonde,Schoonaardebaan,28,51.0042762794,4.01346519118
9200,Dendermonde,Clement Leybaertstraat,10,51.0331698775,4.11627066822
9200,Dendermonde,Winningstraat,47,51.0226410919,4.12227723655
9200,Dendermonde,H. Vandemeulebrouckeplein,19,51.0165123782,4.11205103259
9200,Dendermonde,Opstalstraat,9,51.0062493994,4.02873919619
9200,Dendermonde,Broekkantstraat,224,51.0417657542,4.15494872294
9200,Dendermonde,Constabelstraat,36,51.0070312792,4.02262167472
9200,Dendermonde,Moeskouterlaan,28,51.0119718411,4.11058663195
9200,Dendermonde,Heerlijkheidstraat,14,51.0055459372,4.01909721893
9200,Dendermonde,Koning Albertstraat,102,51.0195756862,4.11647216492
9200,Dendermonde,Sint-Gillislaan,3,51.0233290635,4.10579661752
9200,Dendermonde,Bookmolenstraat,84,51.0349693909,4.15383985348
9200,Dendermonde,Merelstraat,21,51.023232091,4.11828944009
9200,Dendermonde,Dokter De Witteplein,8,51.0150588937,4.11133277387
9200,Dendermonde,De Leksstraat,21,51.0306143119,4.16943938977
9200,Dendermonde,Hofstraat,141,51.0198338848,4.05278972851
9200,Dendermonde,Grootzand,113D,51.043294689,4.10400204064
9200,Dendermonde,Begonialaan,23,51.0141255354,4.1119016267
9200,Dendermonde,Bakkerstraat,210,51.0586817101,4.09528492673
9200,Dendermonde,Rootjensweg,77,51.0532636895,4.104768714
9200,Dendermonde,Hamsesteenweg,24,51.0573694161,4.10695258059
9200,Dendermonde,Lambroeckstraat,160,51.0044435578,4.05137796059
9200,Dendermonde,Dokter Haekstraat,98,51.0493572022,4.10786248945
9200,Dendermonde,Oude Vest,70,51.0289513047,4.10204037533
9200,Dendermonde,Rijckelstraat,37,51.0329642901,4.04869624298
9200,Dendermonde,Hekkestraat,61,51.0551576833,4.08688007294
9200,Dendermonde,Achthoek,5,51.0165294159,4.10711955533
9200,Dendermonde,Vrijstraat,61,51.0251925196,4.05374798063
9200,Dendermonde,Lindanusstraat,43,51.0284785239,4.10349631263
9200,Dendermonde,Van Langenhovestraat,53,51.0185010643,4.10767834532
9200,Dendermonde,Oude Molenstraat,28,51.0580668124,4.11458197429
9200,Dendermonde,Breestraat,84,51.0156744555,4.10853969302
9200,Dendermonde,Oudegemse baan,73,51.0124848327,4.06330617968
9200,Dendermonde,Koebosstraat,55A,51.031426685,4.05978480952
9200,Dendermonde,Kerkhofweg,16,51.0278728284,4.07043229083
9200,Dendermonde,Knaptandstraat,12,51.0355145672,4.11960780776
9200,Dendermonde,Hullekenstraat,124,51.0265684962,4.1192329303
9200,Dendermonde,Sint-Jacobstraat,17,51.0303573877,4.10444435302
9200,Dendermonde,Reynoutstraat,5,51.0455634479,4.10193384072
9200,Dendermonde,Klinkaertstraat,81,51.0033879826,4.02641529664
9200,Dendermonde,Vosakkerslaan,3,51.0518222075,4.09848614804
9200,Dendermonde,Broekkouter,2,51.0388923653,4.15531867369
9200,Dendermonde,Lange Dijkstraat,129,51.0270853279,4.12637748058
9200,Dendermonde,Weggevoerdenstraat,50,51.0192077682,4.10706087946
9200,Dendermonde,Kloosterstraat,5,51.0366691386,4.1627797744
9200,Dendermonde,Pijnderslaan,19,51.0321491075,4.11335731167
9200,Dendermonde,Coensbroekwegel,1,51.0089711054,4.10341911875
9200,Dendermonde,Sas,20,51.0298937845,4.09484580505
9200,Dendermonde,Steenweg naar Wetteren,103,51.0022690819,4.00447991922
9200,Dendermonde,Bevrijdingslaan,194,51.0232299981,4.05165997732
9200,Dendermonde,Sint-Jorisgilde,25,51.0283712738,4.09759654598
9200,Dendermonde,Grootzand,130,51.0438463983,4.10531191797
9200,Dendermonde,Pastoor J. De Harduynstraat,40,51.0115040405,4.06037418929
9200,Dendermonde,Scheutlagestraat,24,50.9940034981,4.06705292265
9200,Dendermonde,Vlasmarkt,11,51.0299758668,4.09934320905
9200,Dendermonde,Varenbergstraat,20,51.0094090317,4.06383259199
9200,Dendermonde,Oudegemse baan,55,51.0115004045,4.06308730136
9200,Dendermonde,Boonwijkstraat,74,51.0189783633,4.0940449775
9200,Dendermonde,Van Langenhovestraat,47,51.0184720778,4.10794415444
9200,Dendermonde,Burgemeester Potiaulaan,6,51.0195057203,4.11154283953
9200,Dendermonde,Korte Haagstraat,40,51.0156936618,4.12638624352
9200,Dendermonde,Groeneweg,23,51.0564093387,4.10446589663
9200,Dendermonde,Gentsesteenweg,59,51.0316577571,4.08665954004
9200,Dendermonde,Bareelstraat,5,51.0221919892,4.11393268612
9200,Dendermonde,Botermelkstraat,76,51.0195176238,4.08657927884
9200,Dendermonde,Steenweg naar Wetteren,121,51.0021801448,4.00327805153
9200,Dendermonde,Rozenlaan,5,51.0151556577,4.1134209375
9200,Dendermonde,Putteveld,8,51.0269713161,4.12785607401
9200,Dendermonde,Beekakkerstraat,23,51.0181677051,4.08974465197
9200,Dendermonde,Sint-Rochusstraat,44,51.0284030734,4.09649363185
9200,Dendermonde,Lijsterlaan,27,51.0491368017,4.09573743594
9200,Dendermonde,Weidekouter,3,51.0053252774,4.05952316006
9200,Dendermonde,Grootbroekstraat,8,51.0452632805,4.10775576993
9200,Dendermonde,Schuurkouter,46,51.0319484382,4.16385324588
9200,Dendermonde,Grootzand,113B,51.0437543838,4.10400030291
9200,Dendermonde,Bevrijdingslaan,59,51.0275446658,4.06116438299
9200,Dendermonde,Hullekenstraat,17,51.0237657595,4.11600566925
9200,Dendermonde,Oudegemse baan,91,51.0128080014,4.06358764823
9200,Dendermonde,Oudegemse baan,180,51.017544224,4.06600707521
9200,Dendermonde,Bookmolenstraat,102,51.034087272,4.15377660033
9200,Dendermonde,Rosstraat,85,51.0320004455,4.16043809364
9200,Dendermonde,Ommegancklaan,57,51.0326577234,4.11241023957
9200,Dendermonde,Molenkouterstraat,12,51.0033194373,4.01378258988
9200,Dendermonde,Zuidlaan,2,51.025559345,4.10143447939
9200,Dendermonde,Breestraat,66,51.0162109126,4.10902367071
9200,Dendermonde,Grote Markt,31,51.0314181355,4.0976038925
9200,Dendermonde,Beekweidestraat,8,51.019361783,4.09971821983
9200,Dendermonde,Baleunisstraat,56,51.0241794149,4.1127829248
9200,Dendermonde,Bookmolenstraat,209,51.0282029229,4.15306885587
9200,Dendermonde,Schuurkouter,64,51.0319848217,4.16576732634
9200,Dendermonde,Kloosterstraat,29,51.0340881034,4.16364917327
9200,Dendermonde,Sint-Jorisgilde,1,51.0288820399,4.09857973408
9200,Dendermonde,Emanuel Hielstraat,12,51.0217332093,4.10627161132
9200,Dendermonde,Vosakkerslaan,27,51.0498134382,4.0981737073
9200,Dendermonde,Werf,6,51.0316523405,4.10208076786
9200,Dendermonde,Mevrouw Courtmanspark,6,51.0070966527,4.06050843099
9200,Dendermonde,Pieter Goruslaan,12,51.0323573683,4.0799283347
9200,Dendermonde,Fabriekstraat,68,51.0313271567,4.17528933755
9200,Dendermonde,Ros Beiaardstraat,60,51.036497294,4.08609837894
9200,Dendermonde,Stuivenbergstraat,42,51.046341066,4.1038006151
9200,Dendermonde,Martelarenlaan,12,51.0402586772,4.10269700948
9200,Dendermonde,Lindanusstraat,61,51.0280246285,4.10404040227
9200,Dendermonde,Nieuwburcht,19,51.0354216556,4.08816751282
9200,Dendermonde,Theodoor Vermylenstraat,98,51.0312205111,4.16783437493
9200,Dendermonde,Donaustraat,20,51.0116783297,4.09920137928
9200,Dendermonde,Rosstraat,121,51.0303536237,4.15935359922
9200,Dendermonde,Orchideeënlaan,3,51.0117004568,4.11347805202
9200,Dendermonde,De Dammenlaan,44,51.033742223,4.08236289129
9200,Dendermonde,Leliënlaan,6,51.0142250641,4.11100331943
9200,Dendermonde,Pater De Smetlaan,9,51.0336576726,4.08685950833
9200,Dendermonde,Mandekensstraat,232,51.0238394578,4.15830324449
9200,Dendermonde,Lambroeckstraat,53,51.0073985263,4.05689026419
9200,Dendermonde,Olieslagerstraat,79,51.0181886652,4.12528926457
9200,Dendermonde,Broekstraat,13,51.0398468526,4.14973732712
9200,Dendermonde,Constabelstraat,11,51.0079908184,4.02407605497
9200,Dendermonde,Tuinlaan,11,51.0588887938,4.10868927942
9200,Dendermonde,Singelweg,78,50.9972294841,4.05772461047
9200,Dendermonde,Wissenstraat,15,51.0283539205,4.14594006635
9200,Dendermonde,Mevrouw Courtmanspark,147,51.0059283639,4.05662376621
9200,Dendermonde,Volaardestraat,87,51.0167926749,4.14022724518
9200,Dendermonde,Olieslagerstraat,2,51.0195268905,4.12330175339
9200,Dendermonde,Jef Scheirsstraat,48,51.0142479635,4.06195589695
9200,Dendermonde,Otterstraat,35,51.023186655,4.10777173171
9200,Dendermonde,Oude Vest,52,51.0288581308,4.10138376461
9200,Dendermonde,Broekkouter,26,51.0398773767,4.15571427634
9200,Dendermonde,Kalendijk,14,51.0247796261,4.10543116014
9200,Dendermonde,Posthoornstraat,37,51.0333954304,4.11877167468
9200,Dendermonde,Gasthuisstraat,85,51.0212616976,4.08922686162
9200,Dendermonde,Sint-Ursmarusstraat,47,51.0380700323,4.16311509695
9200,Dendermonde,Hekkestraat,43,51.0558003938,4.08990835714
9200,Dendermonde,Gentsesteenweg,95,51.0316851351,4.08589214249
9200,Dendermonde,Denstraat,5,51.0574436344,4.11698787095
9200,Dendermonde,Westbroek,7,51.0455496512,4.09655799326
9200,Dendermonde,Buisstraat,13,51.0217357164,4.11907118852
9200,Dendermonde,Denstraat,29,51.0578096007,4.1183955665
9200,Dendermonde,Heidepark,10,51.0268888522,4.05703114432
9200,Dendermonde,Van Langenhovestraat,214,51.0176804243,4.09922920157
9200,Dendermonde,Vijverstraat,21,51.0355008871,4.08487459712
9200,Dendermonde,Ringstraat,56,51.0522571052,4.10931418962
9200,Dendermonde,Korte Dijkstraat,57,51.0332084957,4.12113602602
9200,Dendermonde,Wilgenlaan,32,51.0200260145,4.10258476214
9200,Dendermonde,Bleienpark,22,51.0080359154,4.05501393774
9200,Dendermonde,Baasrodestraat,151,51.0388132727,4.14909584742
9200,Dendermonde,Oud Strijdersplein,21,51.0155726047,4.11293771242
9200,Dendermonde,Scheepswerfstraat,13,51.0359481969,4.16541402551
9200,Dendermonde,Opstalplein,2,51.0031408786,4.02927887314
9200,Dendermonde,Noordlaan,100,51.0337303252,4.09601409027
9200,Dendermonde,Zeelsebaan,50,51.0447033667,4.09319994263
9200,Dendermonde,Lomeersstraat,2,51.0500001289,4.10852947198
9200,Dendermonde,Van Langenhovestraat,170,51.0179305022,4.10140337573
9200,Dendermonde,Baasrodestraat,44,51.038886382,4.15424837639
9200,Dendermonde,Emanuel Hielstraat,83,51.0197964644,4.10596861063
9200,Dendermonde,Constabelstraat,46,51.0074137777,4.02320716241
9200,Dendermonde,Burgem. Paul Hendrickxplein,9,51.0142572359,4.11030032222
9200,Dendermonde,Hoofdstraat,81,51.029311758,4.04979340522
9200,Dendermonde,Hoeksken,4,51.0264870798,4.13154376788
9200,Dendermonde,Paddenhoek,3,51.0033949998,4.03393109401
9200,Dendermonde,Statiewegel,6,51.0041097926,4.01474798747
9200,Dendermonde,Bevrijdingslaan,158,51.0248149597,4.05539565039
9200,Dendermonde,Schuurkouter,82,51.0318008742,4.16727179357
9200,Dendermonde,Tulpenlaan,26,51.0140850547,4.1122186292
9200,Dendermonde,Begijnhof,33,51.0275816433,4.09758343168
9200,Dendermonde,Bakkerstraat,109,51.0469875921,4.10249771928
9200,Dendermonde,Beukenlaan,49,51.0291170385,4.11747731584
9200,Dendermonde,Molenkouterstraat,30,51.0030246608,4.01273211732
9200,Dendermonde,Ouburg,38,51.0061086645,4.06030590244
9200,Dendermonde,Mandekensstraat,106,51.026980339,4.17149156579
9200,Dendermonde,Dokter Haekstraat,55,51.0490732286,4.10712607084
9200,Dendermonde,Sint-Onolfsdijk,79,51.047628496,4.06610982679
9200,Dendermonde,Emanuel Hielstraat,30,51.0212762105,4.10595135015
9200,Dendermonde,Gaverstraat,15,51.0565096532,4.11101465465
9200,Dendermonde,Vlassenbroek,125,51.0465224662,4.12842866861
9200,Dendermonde,Baasrodestraat,9,51.0375790127,4.15991491795
9200,Dendermonde,Breestraat,173,51.0124301374,4.10688789314
9200,Dendermonde,Spoorwegstraat,25,51.0224840273,4.11867469008
9200,Dendermonde,Haagstraat,71,51.0144024022,4.12004555905
9200,Dendermonde,Frans Van Schoorstraat,6,51.0193211232,4.10966988715
9200,Dendermonde,Onze-Lieve-Vrouwstraat,50,51.0099092758,4.05502193656
9200,Dendermonde,Torrestraat,26,51.0204455515,4.12520003372
9200,Dendermonde,Dijkstraat,57,51.0306626716,4.10165531222
9200,Dendermonde,Kapellestraat,24,51.0261038864,4.05515100004
9200,Dendermonde,Hemelstraat,68,51.0204283429,4.10257435775
9200,Dendermonde,Rosstraat,192,51.027740132,4.15843373032
9200,Dendermonde,Mandekensstraat,124,51.0267963401,4.17026122055
9200,Dendermonde,Kleinzand,109,51.0462820158,4.09308300934
9200,Dendermonde,Kapucijnenlaan,25,51.0192385579,4.10437938649
9200,Dendermonde,Sint-Gillislaan,98,51.0183222064,4.11133227224
9200,Dendermonde,Broekkantstraat,134,51.0414876349,4.15820306072
9200,Dendermonde,Weidekouter,27,51.0045252312,4.05638063195
9200,Dendermonde,Watertorenstraat,32,51.0146331362,4.11580771555
9200,Dendermonde,Koningin Astridlaan,14,51.0309584735,4.10045361755
9200,Dendermonde,Sint-Christianastraat,20,51.0326151097,4.09053008563
9200,Dendermonde,Verbindingsstraat,3,51.0469975413,4.10424510635
9200,Dendermonde,Scheepswerfstraat,31,51.0363484548,4.16358042286
9200,Dendermonde,Oude Heirbaan,25,51.0179738081,4.06755015164
9200,Dendermonde,Rosstraat,49,51.0339295479,4.16123586787
9200,Dendermonde,Tragelweg,4,51.0287477962,4.07996138016
9200,Dendermonde,Korte Haagstraat,29,51.0158456275,4.12571097427
9200,Dendermonde,Baasrodestraat,62,51.0391865909,4.15334562849
9200,Dendermonde,Korte Dijkstraat,22,51.0350184893,4.12060269481
9200,Dendermonde,Heirstraat,6,51.0294704708,4.06466088432
9200,Dendermonde,Provinciale baan,141,51.0306488345,4.18829626078
9200,Dendermonde,Krekeldries,14,51.019830843,4.09360046033
9200,Dendermonde,Torrestraat,79,51.0216380929,4.12701745045
9200,Dendermonde,De Dammenlaan,80,51.0340285575,4.0814146713
9200,Dendermonde,Lange Dijkstraat,51,51.0286283541,4.12361652907
9200,Dendermonde,Pastoor J. De Harduynstraat,29,51.0111810502,4.06078312891
9200,Dendermonde,Sint-Sebastiaanstraat,4,51.0103096431,4.06209448576
9200,Dendermonde,Moleneinde,32,51.0021874041,4.01638175565
9200,Dendermonde,Begijnhof,15,51.0268259118,4.09788798731
9200,Dendermonde,Baasrodestraat,205,51.0385125571,4.14643522194
9200,Dendermonde,Haagstraat,53,51.0137678097,4.11916940553
9200,Dendermonde,Gasthuisstraat,49,51.0222377614,4.09095175026
9200,Dendermonde,Robert Ramlotstraat,9,51.0179864429,4.0939022818
9200,Dendermonde,Binnestraat,28,51.0175358835,4.10705993565
9200,Dendermonde,Heirstraat,51,51.0298775172,4.06095864539
9200,Dendermonde,Posthoornstraat,19,51.0331156544,4.11939201516
9200,Dendermonde,Sint-Onolfsdijk,26,51.0458416684,4.08703771047
9200,Dendermonde,Steenweg van Aalst,75,51.0267057038,4.06856088506
9200,Dendermonde,Migrostraat,13,50.9956614822,4.02662575961
9200,Dendermonde,Kruisstraat,1,51.0113861787,4.11643735303
9200,Dendermonde,Denderbellestraat,4,51.0177701179,4.09450024988
9200,Dendermonde,Volkaertwegel,7,51.0468354892,4.10899250639
9200,Dendermonde,Buisstraat,31,51.0216522854,4.11970372872
9200,Dendermonde,Hemelstraat,86,51.0209052827,4.10388343049
9200,Dendermonde,Diepestraat,50,51.0202121871,4.08751032334
9200,Dendermonde,Noordlaan,89,51.0332848851,4.09202171447
9200,Dendermonde,Kouterlaan,7,51.0518295618,4.11522187691
9200,Dendermonde,Kapucijnenlaan,1,51.0200877002,4.1046347044
9200,Dendermonde,Vlietbergstraat,44,51.0184319259,4.12157677629
9200,Dendermonde,Leo Bruynincxstraat,20,51.0278265103,4.10264145709
9200,Dendermonde,Steenweg van Aalst,22,51.0298132739,4.0715255724
9200,Dendermonde,Grootzand,112,51.0443726514,4.10613515281
9200,Dendermonde,Heirbaan,86,51.0152593745,4.11395362802
9200,Dendermonde,Blauwe Steenstraat,11,51.0328179892,4.1181004471
9200,Dendermonde,Schoonaardebaan,127,51.0063705373,4.01834776397
9200,Dendermonde,Volkswelzijnstraat,2,51.0181627222,4.10557700379
9200,Dendermonde,Zevendagwand,3,51.0243768188,4.1222035589
9200,Dendermonde,Rijckelstraat,19,51.0336345097,4.05062209767
9200,Dendermonde,Ganzegavers,35,51.0550123468,4.10688158266
9200,Dendermonde,Korte Dijkstraat,75,51.0315641541,4.12037775342
9200,Dendermonde,Torrestraat,97,51.0215812667,4.12833067711
9200,Dendermonde,Broekkantstraat,116,51.0412865627,4.15881607591
9200,Dendermonde,Moleneinde,14,51.00300391,4.01527648062
9200,Dendermonde,Moerstraat,127,51.0091026034,4.10118404453
9200,Dendermonde,Basiel De Cockplein,24,51.0155757333,4.11012476623
9200,Dendermonde,Hemelstraat,23,51.0183933789,4.10014874765
9200,Dendermonde,Patrijzenlaan,32,51.0281614631,4.11686891848
9200,Dendermonde,De Dammenlaan,9,51.0330030316,4.08098685658
9200,Dendermonde,Knaptandstraat,30,51.0355744263,4.11858357399
9200,Dendermonde,Hamsesteenweg,59,51.0645182736,4.11125625147
9200,Dendermonde,Bloemstestraat,5,51.0467411728,4.09766394095
9200,Dendermonde,Breestraat,120,51.0137405654,4.10720990506
9200,Dendermonde,Fabriekstraat,86,51.0304269218,4.17678811872
9200,Dendermonde,Holstraat,3,50.9919406582,4.00236370537
9200,Dendermonde,Vlassenhout,10,51.0319930193,4.13152507759
9200,Dendermonde,Smidsestraat,6,51.0541936109,4.10748203425
9200,Dendermonde,Reigerslaan,19,51.0502301183,4.09960726234
9200,Dendermonde,Sint-Ursmarusstraat,164,51.0358187087,4.16796283668
9200,Dendermonde,Robert Ramlotstraat,80,51.01747082,4.09056139709
9200,Dendermonde,Zeelsebaan,39,51.0442205357,4.09601329553
9200,Dendermonde,Gaverstraat,33,51.0567916759,4.10967607607
9200,Dendermonde,Ommegancklaan,111,51.0337030224,4.11422104816
9200,Dendermonde,Oude baan,52,51.0123438657,4.06535477405
9200,Dendermonde,De Dammenlaan,62,51.0343458634,4.08174390358
9200,Dendermonde,Ridderstraat,30,51.0301867593,4.09781528049
9200,Dendermonde,Hoogveld,91,51.0242943454,4.14407604057
9200,Dendermonde,Buisstraat,84,51.020052851,4.12209841849
9200,Dendermonde,Vlasbloemstraat,4,51.0454582676,4.09404980985
9200,Dendermonde,Oud Kerkhofstraat,1,51.0406346402,4.1031547068
9200,Dendermonde,Leeuwerikenlaan,23,51.0305198844,4.11437686552
9200,Dendermonde,Prinskouterstraat,13,51.0194489065,4.10659763481
9200,Dendermonde,Meirgatstraat,7,51.0309261524,4.16976579519
9200,Dendermonde,Mevrouw Courtmansstraat,35,51.0074275221,4.0604314558
9200,Dendermonde,Vossenhoek,38,51.0431584012,4.10726356161
9200,Dendermonde,Krizantenlaan,7,51.014846909,4.1102946545
9200,Dendermonde,Weldadigheidstraat,23,51.0274157678,4.10334609102
9200,Dendermonde,Hullekenstraat,106,51.0260578296,4.11919159967
9200,Dendermonde,Zijpestraat,24,51.0065735429,4.0623250549
9200,Dendermonde,Kruisstraat,78,51.0106516033,4.11083056676
9200,Dendermonde,Hagewijkpark,80,51.0507415377,4.1018805799
9200,Dendermonde,Kerkstraat,70,51.0318868833,4.094903029
9200,Dendermonde,Bevrijdingslaan,131,51.0255462104,4.05596675944
9200,Dendermonde,Snuifmolenstraat,18,51.021284858,4.10143601194
9200,Dendermonde,Hullekenstraat,177,51.0280735203,4.11952356243
9200,Dendermonde,Klein Kwartier,13,51.0322133769,4.09193993166
9200,Dendermonde,Burgemeester Potiaulaan,41,51.02059593,4.11220956914
9200,Dendermonde,Provinciale baan,113,51.0300449566,4.185379445
9200,Dendermonde,Varenbergstraat,55,51.0101540335,4.06683101519
9200,Dendermonde,Schoonaardebaan,109,51.0060263091,4.01761158603
9200,Dendermonde,Geerstraat,61,51.0334826287,4.15022690463
9200,Dendermonde,Sint-Jacobstraat,63,51.0297923,4.10583767702
9200,Dendermonde,Oudegemse baan,20,51.009756851,4.06283704351
9200,Dendermonde,Hullekenstraat,45,51.0241986291,4.11665756288
9200,Dendermonde,Stuivenbergstraat,24,51.046415454,4.10482606028
9200,Dendermonde,Tragel,2,51.0292935826,4.09057828282
9200,Dendermonde,Pastoor Claeysstraat,41,51.0217160161,4.11593902554
9200,Dendermonde,Heirbaan,23,51.0167546791,4.11352240381
9200,Dendermonde,Palingbotterstraat,23,51.0353849517,4.1614861999
9200,Dendermonde,Heirbaan,150,51.012428491,4.11448012082
9200,Dendermonde,Langestraat,19A,50.9909491674,4.0074670946
9200,Dendermonde,Grootzand,58,51.0459648525,4.10742118181
9200,Dendermonde,Lijsterlaan,45,51.0496912869,4.0938958221
9200,Dendermonde,Prinsenmeers,15,51.0368305606,4.09430760648
9200,Dendermonde,Scheepswerfstraat,58,51.0368795309,4.16327271677
9200,Dendermonde,Breestraat,31,51.0168563828,4.11105713968
9200,Dendermonde,Zandstraat,103,51.030556028,4.06811316139
9200,Dendermonde,Onze-Lieve-Vrouwkerkplein,32,51.0319508222,4.0931376686
9200,Dendermonde,Hullekenstraat,63,51.0245943958,4.11673126599
9200,Dendermonde,Briel,28,51.0312440734,4.18375122532
9200,Dendermonde,Ros Beiaardstraat,39,51.0355940448,4.08589866466
9200,Dendermonde,Broekkantstraat,162,51.0414766411,4.15728172746
9200,Dendermonde,Korte Haagstraat,5,51.0148720403,4.12450230588
9200,Dendermonde,Volkswelzijnstraat,9,51.018118332,4.10606835561
9200,Dendermonde,Baasrodestraat,97,51.0384400752,4.15395043595
9200,Dendermonde,Sint-Ursmarusstraat,5,51.0380971742,4.16126108299
9200,Dendermonde,Theodoor Vermylenstraat,144,51.0295764507,4.16606553686
9200,Dendermonde,Smidsestraat,129,51.0569996353,4.11554210764
9200,Dendermonde,Ringstraat,21,51.0530483344,4.10777165515
9200,Dendermonde,Smisstraat,35,51.0181130772,4.12730765163
9200,Dendermonde,Bevrijdingslaan,113,51.0264908483,4.05820289923
9200,Dendermonde,Onze-Lieve-Vrouwstraat,29,51.0096627352,4.05547356311
9200,Dendermonde,Pastoor J. De Harduynstraat,5,51.0117970278,4.06249102334
9200,Dendermonde,Hof ten Bos,50,51.0079348251,4.06924128371
9200,Dendermonde,Sint-Gillislaan,55,51.0213258461,4.10859616949
9200,Dendermonde,Franz Courtensstraat,14,51.0321927463,4.10020963341
9200,Dendermonde,Oude baan,70,51.0130643288,4.06608341704
9200,Dendermonde,Stuifstraat,10,51.026860483,4.05315578761
9200,Dendermonde,Vijfbunderstraat,26,51.06052357,4.10285267666
9200,Dendermonde,Moeskouterlaan,21,51.012483968,4.11075880286
9200,Dendermonde,Zijpestraat,59,51.0044139869,4.06514044388
9200,Dendermonde,Cyriel De Baerestraat,15,51.0393820724,4.16060125741
9200,Dendermonde,Noordlaan,11,51.0329556349,4.10286485208
9200,Dendermonde,Vrankrijkstraat,69,50.997749284,4.0211755505
9200,Dendermonde,Lijsterlaan,63,51.0491123192,4.09213115466
9200,Dendermonde,Molenstraat,65,51.0268416294,4.09913868984
9200,Dendermonde,Oudegemse baan,134,51.0155116844,4.06498943515
9200,Dendermonde,H. Vandemeulebrouckeplein,12,51.016594771,4.11124982267
9200,Dendermonde,Hoogveld,27,51.0312469678,4.13951071384
9200,Dendermonde,Otterstraat,116,51.0216918109,4.11151704013
9200,Dendermonde,Lindanusstraat,1,51.0292537783,4.10211620288
9200,Dendermonde,Lambroeckstraat,132,51.0055234197,4.05355439075
9200,Dendermonde,Grootzand,76,51.0454069179,4.10694031438
9200,Dendermonde,Volaardestraat,24,51.0200333148,4.13120153488
9200,Dendermonde,Zandstraat,95,51.0307135436,4.06858286082
9200,Dendermonde,Sint-Gillislaan,179,51.017916295,4.11242287124
9200,Dendermonde,Gasthuisstraat,32,51.0229554087,4.09085756798
9200,Dendermonde,Hof ten Rode,50,51.0299015794,4.1703524487
9200,Dendermonde,Dijkstraat,22,51.03021558,4.10004204283
9200,Dendermonde,Verbindingsstraat,37,51.0478483211,4.10363024889
9200,Dendermonde,Ganzegavers,10,51.0562859214,4.10794477121
9200,Dendermonde,Schuurkouter,11,51.0323890668,4.16260494795
9200,Dendermonde,Baasrodestraat,105,51.0385094223,4.15333148274
9200,Dendermonde,Emiel Van Winckellaan,50,51.0309629266,4.09561405732
9200,Dendermonde,Breestraat,13,51.0170668245,4.11184378405
9200,Dendermonde,Begijnhoflaan,43,51.027090182,4.09562162369
9200,Dendermonde,Dorpsplein,20,51.0362121211,4.16302884987
9200,Dendermonde,Bijlokestraat,14,51.037039313,4.08545211613
9200,Dendermonde,Eegene,118,51.0096368936,4.02360771808
9200,Dendermonde,Kloosterstraat,75,51.0323720058,4.16323455443
9200,Dendermonde,Baasrodestraat,79,51.0382799292,4.15476413114
9200,Dendermonde,Vrankrijkstraat,87,50.9970870538,4.02246008724
9200,Dendermonde,Lange Dijkstraat,165,51.0265832269,4.1292548099
9200,Dendermonde,Pater Ruttenplein,36,51.0343751469,4.0850074326
9200,Dendermonde,Winningstraat,29,51.0228990543,4.12132022984
9200,Dendermonde,Zwarte Beekstraat,27,51.0295626793,4.16911712988
9200,Dendermonde,Rosstraat,32,51.0364591384,4.16112674728
9200,Dendermonde,Bookmolenstraat,255,51.0273122931,4.15584666251
9200,Dendermonde,Donckstraat,91,51.0354457688,4.08681868661
9200,Dendermonde,Kolvenierslaan,42,51.0312121,4.11373704019
9200,Dendermonde,Geerstraat,43,51.0350313882,4.15063698661
9200,Dendermonde,Denstraat,75,51.0597299794,4.1241775257
9200,Dendermonde,Oudegemse baan,116,51.0141850317,4.06455640489
9200,Dendermonde,Rootjensweg,14,51.0561457121,4.10203540149
9200,Dendermonde,Scheldedijk,34,51.0385969674,4.09818904092
9200,Dendermonde,Broekkantstraat,144,51.0412393434,4.15804333908
9200,Dendermonde,Brusselsestraat,41,51.0278508413,4.0998517411
9200,Dendermonde,Schippersdijk,60,51.0345820944,4.14542936459
9200,Dendermonde,Vondelparklaan,16,51.0204556043,4.10450550618
9200,Dendermonde,Vossenhoek,66,51.0411443612,4.10409458802
9200,Dendermonde,Sint-Gillislaan,91,51.0203197759,4.10998148553
9200,Dendermonde,Distelstraat,37,51.0364925299,4.14212349933
9200,Dendermonde,Scheepswerfstraat,76,51.0373548128,4.16267183464
9200,Dendermonde,Hagewijkpark,62,51.050937797,4.10181400389
9200,Dendermonde,Otterstraat,88,51.0218555455,4.11030225539
9200,Dendermonde,Camille Marchantplein,24,51.0167880814,4.10762872708
9200,Dendermonde,Industrieweg,10A,51.0304354888,4.14360347103
9200,Dendermonde,Prinsenmeers,33,51.0362723136,4.0949541434
9200,Dendermonde,Dokter Haekstraat,10,51.0535301642,4.10684649766
9200,Dendermonde,Sint-Jacobstraat,45,51.0300268377,4.10527899229
9200,Dendermonde,Robert Ramlotstraat,2,51.0185705879,4.09418674338
9200,Dendermonde,Robert Ramlotstraat,72,51.0173345646,4.09110403374
9200,Dendermonde,Stationsstraat,32A,51.0239463103,4.10130056172
9200,Dendermonde,Posthoornstraat,83,51.0326349292,4.11719261688
9200,Dendermonde,Lodewijk Dosfelstraat,24,51.0328875101,4.09280314221
9200,Dendermonde,Burgem. Paul Hendrickxplein,2,51.0146846629,4.11025692897
9200,Dendermonde,Koning Albertstraat,13,51.0177750577,4.11311896234
9200,Dendermonde,Sint-Ursulastraat,11,51.0285551341,4.05855615221
9200,Dendermonde,Jasmijnenlaan,7,51.0116382364,4.11264095193
9200,Dendermonde,Nijverheidsstraat,36,51.0283293405,4.10231445939
9200,Dendermonde,Ros Beiaardstraat,42,51.035850152,4.08631541576
9200,Dendermonde,Hofstraat,69,51.011935225,4.05861609773
9200,Dendermonde,Elsbosstraat,23,51.0253867279,4.1192872446
9200,Dendermonde,Nieuwstraat,10,50.996187403,4.01309578558
9200,Dendermonde,Gentsesteenweg,166,51.0320846318,4.07930119582
9200,Dendermonde,Narcissenlaan,3,51.0112393956,4.11198195941
9200,Dendermonde,Meibosstraat,38,51.0395934475,4.15698323421
9200,Dendermonde,Mevrouw Courtmanspark,129,51.0052938822,4.05647781526
9200,Dendermonde,Hof ten Rode,39,51.029595622,4.17144380886
9200,Dendermonde,Kroonveldlaan,21,51.0317190109,4.11084839735
9200,Dendermonde,Kerkstraat,44,51.0323144004,4.09645626169
9200,Dendermonde,Lambroeckstraat,88,51.0079159213,4.05667851678
9200,Dendermonde,Broekkouter,62,51.0411565673,4.15400602331
9200,Dendermonde,Hofstraat,131,51.0186889052,4.05442553974
9200,Dendermonde,Zandstraat,77,51.0308695183,4.06943789404
9200,Dendermonde,Tinnenpotstraat,64,51.0345036246,4.11810470586
9200,Dendermonde,Smidsestraat,41,51.0546033019,4.1086917805
9200,Dendermonde,Moerstraat,28,51.0099909982,4.10421386121
9200,Dendermonde,Opstalstraat,16,51.002972137,4.0313408995
9200,Dendermonde,Hoofdstraat,17,51.0297549335,4.05570635011
9200,Dendermonde,Vijfde Januaristraat,31,51.0200826756,4.11429658365
9200,Dendermonde,Emiel Van Winckellaan,39,51.0304130171,4.09563208249
9200,Dendermonde,Killeweg,6,51.0369775111,4.11756041924
9200,Dendermonde,Spoorwegstraat,106,51.024773999,4.12089315318
9200,Dendermonde,Korte Dijkstraat,40,51.0344379812,4.12004933771
9200,Dendermonde,Grootzand,94,51.0449564453,4.10635847046
9200,Dendermonde,Koning Albertstraat,66,51.0187315528,4.11543790239
9200,Dendermonde,Denderstraat,32,51.0257177283,4.06729762401
9200,Dendermonde,Lindanusstraat,33,51.0286792333,4.10320908855
9200,Dendermonde,Otterstraat,134,51.0216391712,4.11310619284
9200,Dendermonde,Donckstraat,73,51.0346674014,4.08708026357
9200,Dendermonde,Serscampveldstraat,21,51.0195858761,4.09510233054
9200,Dendermonde,Theodoor Vermylenstraat,180,51.0279620666,4.16656598688
9200,Dendermonde,Eegene,30,51.0139257705,4.03350769657
9200,Dendermonde,Resedalaan,29,51.013395558,4.11299089527
9200,Dendermonde,Korte Dijkstraat,113A,51.0302210471,4.12095192492
9200,Dendermonde,Volaardestraat,59,51.0184685464,4.13687982836
9200,Dendermonde,Vlassenbroek,64,51.0478158149,4.1325343242
9200,Dendermonde,Tinnenpotstraat,82,51.0338873359,4.11814720066
9200,Dendermonde,Hekkestraat,1,51.0577610464,4.09578495085
9200,Dendermonde,Oude Vest,141,51.0318758877,4.10487644329
9200,Dendermonde,Heidestraat,43,51.0286700188,4.06082302085
9200,Dendermonde,Zevenhoevenstraat,43,51.036965545,4.14255206628
9200,Dendermonde,Sportpleinstraat,21,51.0460793184,4.10468920179
9200,Dendermonde,Platanenlaan,20,51.0290767299,4.11983611764
9200,Dendermonde,Denderbellestraat,145,51.0117389582,4.0944217627
9200,Dendermonde,Plattenakker,17,51.0172374258,4.10937227615
9200,Dendermonde,Hekkestraat,33,51.0560710106,4.0912263579
9200,Dendermonde,Papiermolenstraat,17,51.0320684222,4.10394803157
9200,Dendermonde,Kwintijnpoort,62,51.0344240226,4.09466069444
9200,Dendermonde,Vlotgraslaan,62,51.0363641069,4.08227018845
9200,Dendermonde,Karel Eeckhoutstraat,5,51.0424807216,4.10459922858
9200,Dendermonde,Vrijstraat,1,51.0291770241,4.05398266641
9200,Dendermonde,Hunnenbergstraat,13,51.0110080343,4.06849909861
9200,Dendermonde,Schoonaardebaan,21,51.0043480146,4.01245280646
9200,Dendermonde,Lindanusstraat,15,51.0290532868,4.10253871128
9200,Dendermonde,Donckstraat,17,51.0326011671,4.08764236805
9200,Dendermonde,Fabriekstraat,104,51.0297835448,4.17810134268
9200,Dendermonde,Donckstraat,55,51.0340357459,4.08727109652
9200,Dendermonde,Clement Leybaertstraat,17,51.0333227781,4.11576518299
9200,Dendermonde,Sint-Gillislaan,73,51.0208593313,4.10966738605
9200,Dendermonde,Koning Albertstraat,84,51.0191462452,4.11603694472
9200,Dendermonde,Ommegancklaan,85,51.0330763741,4.1130876769
9200,Dendermonde,Otterstraat,10,51.0229852085,4.10740555484
9200,Dendermonde,Veldweg,1,51.0059094796,4.03075814081
9200,Dendermonde,Lijsterlaan,3,51.0482319183,4.09513348938
9200,Dendermonde,Vijfde Januaristraat,13,51.0203596847,4.11369735081
9200,Dendermonde,Steenweg van Grembergen,27,51.0385509107,4.10057817041
9200,Dendermonde,Varenbergstraat,73,51.0103158837,4.06815128858
9200,Dendermonde,Heidestraat,61,51.0285532519,4.05965448191
9200,Dendermonde,Leopold II-laan,44,51.0290818705,4.10627143577
9200,Dendermonde,Cyriel De Baerestraat,1,51.0389262678,4.15995497998
9200,Dendermonde,Broekkouter,44,51.0406913165,4.1556558325
9200,Dendermonde,Bareelstraat,22,51.0227222524,4.11459854943
9200,Dendermonde,Langveldstraat,1A,51.0194611436,4.09745417846
9200,Dendermonde,Provinciale baan,69,51.0294301703,4.18323150834
9200,Dendermonde,Sint-Ursmarusstraat,19,51.0385113137,4.16219340937
9200,Dendermonde,Donckstraat,3,51.0323318553,4.08786922163
9200,Dendermonde,Hullekenstraat,195,51.0282379077,4.12023783636
9200,Dendermonde,Migrostraat,119,50.9904923357,4.03386100532
9200,Dendermonde,Koning Albertstraat,31,51.0181738006,4.11361131555
9200,Dendermonde,Nijverheidsstraat,18,51.0280747974,4.10192861126
9200,Dendermonde,Meersstraat,20,51.0197766544,4.08390791111
9200,Dendermonde,Clement Leybaertstraat,3,51.0328964436,4.11615067859
9200,Dendermonde,Vijfde Januaristraat,66,51.0193536426,4.11470571157
9200,Dendermonde,Begonialaan,6,51.0148399713,4.11135677447
9200,Dendermonde,Bleienpark,40,51.009267161,4.0567768276
9200,Dendermonde,Burgemeester Portmanslaan,26,51.0232734024,4.0944137975
9200,Dendermonde,Plattenakker,3,51.0180210816,4.10981629547
9200,Dendermonde,Hofstraat,87,51.0127225698,4.05690590904
9200,Dendermonde,Heirbaan,39A,51.0162581189,4.11372931674
9200,Dendermonde,Hagewijkpark,44,51.0528651946,4.10148542435
9200,Dendermonde,Fortstraat,108,51.0113631728,4.12128039637
9200,Dendermonde,Sint-Ursmarusstraat,83,51.0387219549,4.16458919087
9200,Dendermonde,Kolvenierslaan,60,51.0317680167,4.11416909967
9200,Dendermonde,Koning Boudewijnlaan,62,51.0348811743,4.08558275984
9200,Dendermonde,Leugestraat,17,51.0497069001,4.10279574657
9200,Dendermonde,Vrijstraat,15,51.0280008912,4.0536458831
9200,Dendermonde,Nieuwburcht,37,51.0356208046,4.08879076715
9200,Dendermonde,Prinsenmeers,1,51.0361374761,4.09360009802
9200,Dendermonde,Lindestraat,61,51.0244719625,4.06149025531
9200,Dendermonde,Theodoor Vermylenstraat,162,51.028690626,4.16630185041
9200,Dendermonde,Vondelparklaan,34,51.020666049,4.10346804655
9200,Dendermonde,Bevrijdingslaan,7,51.0288704466,4.06427633182
9200,Dendermonde,Zijbaan,22,51.003805304,4.0165106569
9200,Dendermonde,Mevrouw Courtmanspark,41,51.0068018771,4.05875102505
9200,Dendermonde,Ouburg,119,50.9971262195,4.05593141587
9200,Dendermonde,Denstraat,57,51.0587528098,4.12108067915
9200,Dendermonde,Dr Frans De Hovrestraat,28,51.0108299312,4.06487210507
9200,Dendermonde,Sint-Apolloniastraat,12,51.0284648056,4.05746826968
9200,Dendermonde,Sint-Margrietstraat,64,51.0462326357,4.0977299078
9200,Dendermonde,Baleunisstraat,21,51.0237199877,4.11382362463
9200,Dendermonde,Ommegancklaan,5,51.031362729,4.11103339422
9200,Dendermonde,Ommegancklaan,39,51.0322557974,4.11210893052
9200,Dendermonde,Emanuel Hielstraat,136,51.0186682246,4.10547640493
9200,Dendermonde,Rimeirstraat,7A,50.9891497088,4.00271990237
9200,Dendermonde,Nederstraat,22,51.0099669422,4.06180462084
9200,Dendermonde,Nijverheidsstraat,4,51.0277875196,4.10173552976
9200,Dendermonde,Burgemeester Portmanslaan,79,51.022452516,4.09495463913
9200,Dendermonde,Bankveldstraat,29,51.0548845145,4.11989305431
9200,Dendermonde,Veldstraat,8,51.0187289559,4.11594569995
9200,Dendermonde,Kleinzand,28,51.0478830507,4.09844965534
9200,Dendermonde,Provinciale baan,131,51.0305153501,4.18689036312
9200,Dendermonde,Bevrijdingslaan,87,51.0269668644,4.05969172817
9200,Dendermonde,Noordlaan,46,51.0336450365,4.09856272581
9200,Dendermonde,Dalialaan,24,51.0143257774,4.11060817764
9200,Dendermonde,Hof ter Bremptstraat,32,51.0362511102,4.09133913926
9200,Dendermonde,Gentsesteenweg,148,51.0319585596,4.08012694639
9200,Dendermonde,Kloosterstraat,57,51.033227,4.16331335594
9200,Dendermonde,Rootjensweg,60,51.0542037978,4.10218464302
9200,Dendermonde,Westbroek,14,51.045465221,4.09728986436
9200,Dendermonde,Theodoor Vermylenstraat,63,51.0307488943,4.16817424001
9200,Dendermonde,Broekstraat,38,51.0403646209,4.15032049408
9200,Dendermonde,Huiveldestraat,3,51.0531123276,4.07489596618
9200,Dendermonde,Schippersdijk,14,51.0348316116,4.1489662026
9200,Dendermonde,Pater De Smetlaan,16,51.0339902754,4.08652405721
9200,Dendermonde,Zwijvickstraat,7,51.0275683906,4.10126994867
9200,Dendermonde,Mevrouw Courtmanspark,23,51.006950463,4.05967402876
9200,Dendermonde,Losweg,2,51.0073265877,4.02684807025
9200,Dendermonde,Gentsesteenweg,60,51.032161772,4.08775163222
9200,Dendermonde,Bleienpark,29,51.0088334676,4.05638174603
9200,Dendermonde,Stuivenbergstraat,77,51.046709505,4.10295134231
9200,Dendermonde,Koning Albertstraat,119,51.0199685428,4.11589954889
9200,Dendermonde,Botermelkstraat,41,51.0181459176,4.08711924338
9200,Dendermonde,De Dammenlaan,186,51.035258841,4.08058310544
9200,Dendermonde,Theodoor Vermylenstraat,234,51.026740395,4.16689908544
9200,Dendermonde,Kapittelstraat,25,51.0325763139,4.09265157932
9200,Dendermonde,Diepestraat,85,51.0197762454,4.08722119823
9200,Dendermonde,Spoorwegstraat,47,51.0236714332,4.11911748092
9200,Dendermonde,Karel Hofmanstraat,11,51.0105649922,4.10823143781
9200,Dendermonde,Kleinzand,84,51.0462047214,4.09405214211
9200,Dendermonde,Vlassenbroek,26,51.0464085807,4.13212715273
9200,Dendermonde,Frans Vertongenstraat,11,51.0153699407,4.06204190557
9200,Dendermonde,Broekkantstraat,98,51.04122265,4.15942362665
9200,Dendermonde,Lijsterlaan,10,51.0486576516,4.09572197017
9200,Dendermonde,Zijpestraat,7,51.0073380196,4.0628596428
9200,Dendermonde,Papiermolenstraat,3,51.0318611438,4.10279250319
9200,Dendermonde,Donckstraat,35,51.0329794949,4.08744451072
9200,Dendermonde,Koebosstraat,45,51.03207816,4.06069274076
9200,Dendermonde,Pieter Goruslaan,5,51.0332273502,4.07942259465
9200,Dendermonde,Ommegancklaan,50,51.0326458763,4.11391372208
9200,Dendermonde,Oude baan,24,51.01117678,4.06597446664
9200,Dendermonde,Volaardestraat,105,51.0163657665,4.14227146698
9200,Dendermonde,Zeelsebaan,67,51.0453634968,4.09249719835
9200,Dendermonde,Bakkerstraat,181,51.0519918255,4.09994157718
9200,Dendermonde,Vosakkerslaan,20,51.0502495297,4.09689709838
9200,Dendermonde,De Dammenlaan,168,51.0353776645,4.08035740561
9200,Dendermonde,Knaptandstraat,19,51.0350975776,4.1193154803
9200,Dendermonde,Hof ten Bos,14,51.0093914347,4.06860803828
9200,Dendermonde,Plattenakker,35,51.0174669623,4.10906560525
9200,Dendermonde,Hertsgaard,8,51.0128513713,4.10770120236
9200,Dendermonde,Zwarte Beekstraat,55,51.0288973148,4.16805855663
9200,Dendermonde,Kerkstraat,24,51.0320316253,4.09755872221
9200,Dendermonde,Singelweg,61,50.9952546095,4.06092959191
9200,Dendermonde,Grootbroekstraat,15,51.0443550609,4.1092791595
9200,Dendermonde,Beekakkerstraat,6,51.0177549709,4.09113617829
9200,Dendermonde,Bakkerstraat,84,51.045470912,4.10215539258
9200,Dendermonde,Sint-Jacobstraat,10,51.0302571012,4.10417749217
9200,Dendermonde,Bakkerstraat,66,51.0445634676,4.10219405735
9200,Dendermonde,Tinnenpotstraat,26,51.0345562665,4.11966050966
9200,Dendermonde,Reynoutstraat,22,51.0460891357,4.10027242384
9200,Dendermonde,Heirbaan,104,51.0146180098,4.11412397889
9200,Dendermonde,Hauweg,14,51.0150769105,4.09769925115
9200,Dendermonde,Ridderstraat,19,51.0300410261,4.0981590976
9200,Dendermonde,Broekkouter,115,51.0405164709,4.15033433111
9200,Dendermonde,Bakkerstraat,217,51.055189715,4.098350651
9200,Dendermonde,Pater De Smetlaan,34,51.0339012509,4.08587194317
9200,Dendermonde,Beekweidestraat,1,51.0199206064,4.09915406123
9200,Dendermonde,Greffelinck,11,51.0294466446,4.09658451219
9200,Dendermonde,Koning Albertstraat,137,51.020504141,4.11629073593
9200,Dendermonde,Sint-Jorisgilde,8,51.0290954688,4.09819961474
9200,Dendermonde,Theodoor Vermylenstraat,81,51.0301389588,4.16746993766
9200,Dendermonde,Steenweg van Aalst,40,51.0296403028,4.07112482151
9200,Dendermonde,Scheutlagestraat,7,50.9937388546,4.06814343455
9200,Dendermonde,Veldstraat,71,51.018094956,4.11885910194
9200,Dendermonde,Hondstraat,3,51.020871918,4.12735161788
9200,Dendermonde,Vossenhoek,31,51.0441490215,4.10780545742
9200,Dendermonde,Stuivenbergstraat,59,51.0466629605,4.10355937084
9200,Dendermonde,Rosstraat,138,51.0305072261,4.15848178341
9200,Dendermonde,Kloosterstraat,22,51.0360860121,4.16256876403
9200,Dendermonde,Pijnderslaan,37,51.0323927985,4.11427220196
9200,Dendermonde,Vlasmarkt,36,51.0293735714,4.09830891444
9200,Dendermonde,Hoofdstraat,3,51.0297076827,4.0566346631
9200,Dendermonde,Opstalstraat,2,51.0064235921,4.027270971
9200,Dendermonde,Hemelstraat,104,51.020997184,4.10522333813
9200,Dendermonde,Hemelstraat,139,51.0221389284,4.10419644254
9200,Dendermonde,Mevrouw Courtmanspark,140,51.0064162206,4.05551047127
9200,Dendermonde,Olieslagerstraat,90,51.0176242196,4.12501799675
9200,Dendermonde,Oudegemse baan,169,51.0166610313,4.06509315541
9200,Dendermonde,Emanuel Hielstraat,101,51.0190872645,4.10586540683
9200,Dendermonde,Kleinzand,66,51.0466068656,4.09559158724
9200,Dendermonde,Moerstraat,145,51.0092534148,4.10141045208
9200,Dendermonde,Oude Molenstraat,21,51.0582843282,4.11532706863
9200,Dendermonde,Torrestraat,48,51.0208754295,4.12586423823
9200,Dendermonde,Tinnenpotstraat,46,51.0347939243,4.11893117124
9200,Dendermonde,Mandekensstraat,206,51.024541301,4.16067527323
9200,Dendermonde,Sint-Margrietstraat,26,51.0460756463,4.09556644499
9200,Dendermonde,Jozef De Troetselstraat,13,50.9989607869,4.01634001718
9200,Dendermonde,Heerlijkheidstraat,42,51.0061326094,4.0226448289
9200,Dendermonde,Wilgenlaan,39,51.0196149875,4.10180837092
9200,Dendermonde,Bookmolenstraat,119,51.0325144917,4.15389271255
9200,Dendermonde,Robert Ramlotstraat,16,51.0184546783,4.09335940879
9200,Dendermonde,Gasthuisstraat,138,51.0213732316,4.08455112606
9200,Dendermonde,Zandstraat,141,51.0297956569,4.06600929376
9200,Dendermonde,Koebosstraat,9H,51.0317809141,4.06406043562
9200,Dendermonde,Koebosstraat,81,51.0301724192,4.05741759815
9200,Dendermonde,Putteveld,15,51.027491502,4.12802687952
9200,Dendermonde,Gentsesteenweg,42,51.0321506468,4.08916130019
9200,Dendermonde,Burgem. Paul Hendrickxplein,16,51.0138307989,4.11034427923
9200,Dendermonde,Constabelstraat,18,51.0074324265,4.02239387989
9200,Dendermonde,Tuinlaan,18,51.0581110168,4.10825826633
9200,Dendermonde,Steenweg naar Wetteren,7,51.0033638124,4.0104436169
9200,Dendermonde,Olieslagerstraat,72,51.0180611693,4.12457806984
9200,Dendermonde,Van Langenhovestraat,78,51.018527997,4.10523577043
9200,Dendermonde,Tuinwijk,26,51.0350067735,4.08849247627
9200,Dendermonde,Broekkantstraat,63,51.0408528789,4.15969832083
9200,Dendermonde,Heidepark,27,51.0266757838,4.05777049094
9200,Dendermonde,Otterstraat,169,51.0220987192,4.11278628554
9200,Dendermonde,Noordlaan,117,51.0329161454,4.08677614562
9200,Dendermonde,Veldschansstraat,12,51.0213534829,4.10280584513
9200,Dendermonde,De Dammenlaan,34,51.0337011558,4.08184992035
9200,Dendermonde,Orchideeënlaan,20,51.0111946745,4.11378545061
9200,Dendermonde,Heirstraat,112,51.0292742989,4.05751207916
9200,Dendermonde,Volaardestraat,70,51.0176289156,4.13717498289
9200,Dendermonde,Martelarenlaan,19,51.0376107874,4.10202481555
9200,Dendermonde,Coensbroekwegel,8,51.0085497253,4.10303308563
9200,Dendermonde,Jozef Van Bogaertstraat,52,51.0195428453,4.10793792218
9200,Dendermonde,Oude Vest,95,51.0305360454,4.10302281896
9200,Dendermonde,Sint-Margrietstraat,46,51.0461413454,4.09634009166
9200,Dendermonde,Martelarenlaan,5,51.0415364615,4.10205640212
9200,Dendermonde,Sint-Onolfsdijk,48,51.0489535056,4.07814296154
9200,Dendermonde,Grootzand,140,51.0431420636,4.10496980533
9200,Dendermonde,Grote Markt,38,51.0313899356,4.09855603359
9200,Dendermonde,Nachtegaalstraat,27,51.0333451873,4.09382374978
9200,Dendermonde,Heirbaan,51,51.0158539948,4.114032771
9200,Dendermonde,Zandstraat,42,51.0302969551,4.06963142407
9200,Dendermonde,Vossenhoek,13,51.0446600525,4.1070765236
9200,Dendermonde,Ouburg,13,51.0074107202,4.06202052196
9200,Dendermonde,Vijfbunderstraat,44,51.0594232779,4.0987525991
9200,Dendermonde,Scheepswerfstraat,6,51.0363666531,4.16599945641
9200,Dendermonde,Vlassenbroek,11,51.0390482041,4.13689140456
9200,Dendermonde,Molenkouterstraat,19,51.0024501326,4.01319920765
9200,Dendermonde,Lange Dijkstraat,112,51.0261771658,4.12752033643
9200,Dendermonde,Begijnhoflaan,23,51.0265445716,4.09609974027
9200,Dendermonde,Hullekenstraat,10,51.0232472627,4.11596057014
9200,Dendermonde,Krekeldries,12A,51.0198532583,4.09369154132
9200,Dendermonde,Dokter De Witteplein,1,51.0154379722,4.11129521209
9200,Dendermonde,Theodoor Vermylenstraat,45,51.0312666871,4.1690907873
9200,Dendermonde,Putteveld,1,51.0271191593,4.12674392192
9200,Dendermonde,Torrestraat,72,51.0210816421,4.1271361856
9200,Dendermonde,Akkerlaan,10,51.049206143,4.09397011098
9200,Dendermonde,Brusselsestraat,112,51.0258742378,4.10119878225
9200,Dendermonde,Populierenlaan,6,51.0188476645,4.10259842494
9200,Dendermonde,Vlasmarkt,4,51.0298371689,4.0988724508
9200,Dendermonde,Boerderijstraat,2,51.0290339415,4.15192908416
9200,Dendermonde,Scheepswerfstraat,38,51.0363556449,4.1642538879
9200,Dendermonde,Baasrodestraat,123,51.0383369878,4.15106190617
9200,Dendermonde,Mandekensstraat,170,51.0251654652,4.1633253712
9200,Dendermonde,Heirstraat,86,51.0291266596,4.05900068716
9200,Dendermonde,Olieslagerstraat,54,51.0184604992,4.12420388748
9200,Dendermonde,Geerstraat,23,51.036701702,4.15154894974
9200,Dendermonde,Smidsestraat,58,51.0565240714,4.11239438641
9200,Dendermonde,Pater De Smetlaan,2,51.0340568311,4.08702861367
9200,Dendermonde,Boerderijstraat,18,51.0292928471,4.15033035735
9200,Dendermonde,Sint-Gillislaan,108,51.0180825902,4.11151244054
9200,Dendermonde,Vriesenrot,2,51.0347027789,4.13126275498
9200,Dendermonde,Leo Bruynincxstraat,27,51.0280944067,4.10237224029
9200,Dendermonde,Volaardestraat,7,51.0212409089,4.13062177098
9200,Dendermonde,De Dammenlaan,69,51.035066637,4.07987701716
9200,Dendermonde,Vondelparklaan,2,51.0202637887,4.10535529507
9200,Dendermonde,Snuifmolenstraat,4,51.0207988678,4.10114076506
9200,Dendermonde,Paardentrapstraat,15,51.0224715849,4.09379977201
9200,Dendermonde,Pieter Goruslaan,37,51.032814129,4.07990228663
9200,Dendermonde,Weldadigheidstraat,6,51.0274479689,4.10263633314
9200,Dendermonde,Emanuel Hielstraat,37,51.021084065,4.10698129881
9200,Dendermonde,Vlotgraslaan,44,51.0358251558,4.08243187155
9200,Dendermonde,Watertorenstraat,39,51.0148380078,4.11640028337
9200,Dendermonde,Baasrodestraat,26,51.0386494512,4.15560036744
9200,Dendermonde,Schaapveld,8,51.0246774593,4.13912230318
9200,Dendermonde,Sint-Onolfsdijk,72,51.0475504171,4.06997075879
9200,Dendermonde,Steenweg van Aalst,29,51.0297108729,4.07041504778
9200,Dendermonde,Koning Boudewijnlaan,24,51.0345601561,4.0846769909
9200,Dendermonde,Ridderstraat,5,51.0302214401,4.09835677347
9200,Dendermonde,Dokter De Witteplein,15,51.0150433902,4.11218033336
9200,Dendermonde,Posthoornstraat,65,51.033284052,4.1177104807
9200,Dendermonde,Tulpenlaan,9,51.0143294749,4.11267686423
9200,Dendermonde,Veldschansstraat,30,51.0215555568,4.10240677237
9200,Dendermonde,Kazernestraat,6,51.0320859065,4.0994380161
9200,Dendermonde,Knaptandstraat,5,51.0353148483,4.12012795116
9200,Dendermonde,Smidsestraat,23,51.0538226339,4.10796958743
9200,Dendermonde,Mandekensstraat,152,51.025481394,4.16460068481
9200,Dendermonde,Oude Heirbaan,8,51.015870028,4.06570293099
9200,Dendermonde,Van Langenhovestraat,124,51.0181799694,4.10324380822
9200,Dendermonde,Bakkerstraat,145,51.0496352533,4.10159894227
9200,Dendermonde,Olieslagerstraat,48,51.018739353,4.12373284626
9200,Dendermonde,Van Langenhovestraat,177,51.0176171157,4.10202736935
9200,Dendermonde,Haagstraat,25,51.013732954,4.11752727235
9200,Dendermonde,Baasrodestraat,158,51.0395340274,4.14564990916
9200,Dendermonde,Spoorwegstraat,71,51.0244565758,4.1196029083
9200,Dendermonde,Kapucijnenlaan,8,51.0199810368,4.10404940623
9200,Dendermonde,Vier Uitersten,4,50.9940739544,4.01116618629
9200,Dendermonde,Ros Beiaardstraat,77,51.0366959674,4.08554215488
9200,Dendermonde,Schippersdijk,113,51.03399373,4.14271877946
9200,Dendermonde,Torrestraat,9,51.0202441359,4.12382404723
9200,Dendermonde,Brugstraat,13,51.0193236965,4.0841700417
9200,Dendermonde,Stationsstraat,24,51.0243926451,4.10143143006
9200,Dendermonde,Lodewijk Dosfelstraat,59,51.0331114201,4.09256931098
9200,Dendermonde,Oud Kerkhofstraat,8,51.0406255869,4.10392655697
9200,Dendermonde,Broekkouter,80,51.0409496343,4.15237681637
9200,Dendermonde,Broekkantstraat,45,51.0398642271,4.15896558372
9200,Dendermonde,Onze-Lieve-Vrouwstraat,67,51.0083751033,4.05052767774
9200,Dendermonde,Zwarte Zustersstraat,24,51.0301527593,4.09480694561
9200,Dendermonde,Bookmolenstraat,202,51.0282254162,4.15185284877
9200,Dendermonde,Lange Dijkstraat,86,51.0264192304,4.12619861107
9200,Dendermonde,Baasrodestraat,241,51.0387724097,4.14367128557
9200,Dendermonde,Hoofdstraat,35,51.0295419557,4.05397309104
9200,Dendermonde,Theodoor Vermylenstraat,216,51.0271643971,4.16668202685
9200,Dendermonde,Mandekensstraat,322,51.0219642461,4.15484899086
9200,Dendermonde,Kruisstraat,8,51.0117349061,4.116119712
9200,Dendermonde,Korte Dijkstraat,29,51.0347810792,4.12141229072
9200,Dendermonde,Korte Haagstraat,22,51.0152069562,4.12545121482
9200,Dendermonde,Diepestraat,67,51.0201999947,4.08831734687
9200,Dendermonde,Damhof,11,51.035822214,4.08549752888
9200,Dendermonde,Bakkerstraat,163,51.0505794941,4.10082103262
9200,Dendermonde,Rijckelstraat,65,51.0304088838,4.04929756519
9200,Dendermonde,Ouburg,31,51.006278323,4.06155859647
9200,Dendermonde,Hoogveld,98,51.0227312768,4.14974443265
9200,Dendermonde,Verbindingsstraat,20,51.0478384134,4.10426289819
9200,Dendermonde,Reigerslaan,12,51.0505028479,4.0985850196
9200,Dendermonde,Pastoor J. De Harduynstraat,22,51.0121293787,4.06191160374
9200,Dendermonde,Oudegemse baan,3,51.0094565715,4.06212841292
9200,Dendermonde,Knaptandstraat,37,51.0351990545,4.11892830256
9200,Dendermonde,Beukenlaan,50,51.0279942918,4.11764040772
9200,Dendermonde,Bakkerstraat,110,51.0473570123,4.10133141241
9200,Dendermonde,Dokter Haekstraat,33B,51.0517234451,4.1065535223
9200,Dendermonde,Ridderstraat,37,51.0297018232,4.0978649781
9200,Dendermonde,Molenstraat,83,51.0266287558,4.09838658908
9200,Dendermonde,Onze-Lieve-Vrouwstraat,49,51.0088692013,4.05275452253
9200,Dendermonde,Sint-Onolfsdijk,9,51.0387261769,4.09551170298
9200,Dendermonde,Oude baan,59,51.0132025631,4.06502689119
9200,Dendermonde,Mevrouw Courtmanspark,94,51.006131035,4.0588607455
9200,Dendermonde,Statieplein,6,51.0238203377,4.10140390188
9200,Dendermonde,Sint-Rochusstraat,16,51.0281671321,4.0982626956
9200,Dendermonde,Heirstraat,68,51.0290687832,4.06017238289
9200,Dendermonde,Rijckelstraat,12,51.0338718125,4.05262591253
9200,Dendermonde,Broekkantstraat,180,51.0414507224,4.15676312118
9200,Dendermonde,Vlassenhout,17,51.0327019083,4.13247307193
9200,Dendermonde,Oude Vest,77,51.0295566835,4.10174656402
9200,Dendermonde,Blauwe Steenstraat,18,51.0308158241,4.11812724432
9200,Dendermonde,Weidekouter,20,51.004393581,4.05758639817
9200,Dendermonde,Voortweg,15,51.0471877116,4.10962128734
9200,Dendermonde,Hekkenhoek,41,51.0526307205,4.08643901685
9200,Dendermonde,Kouterlaan,14,51.0514094675,4.11474367568
9200,Dendermonde,Tweebokstraat,2,50.9996826746,4.0085649055
9200,Dendermonde,Leopold II-laan,24,51.0283777137,4.10605000879
9200,Dendermonde,Volkaertwegel,14,51.0457446555,4.10910748897
9200,Dendermonde,Lange Dijkstraat,183,51.0260971224,4.13046643937
9200,Dendermonde,Moleneinde,7,51.0035592568,4.01545466078
9200,Dendermonde,Smidsestraat,76,51.0568108463,4.11361075191
9200,Dendermonde,Gasthuisstraat,50,51.0227414937,4.0901058582
9200,Dendermonde,Wastijnestraat,6,51.0196504939,4.08767630203
9200,Dendermonde,Blauwe Steenstraat,4,51.0315419219,4.11747488691
9200,Dendermonde,Hemelstraat,6,51.0181692705,4.10109390073
9200,Dendermonde,Sint-Onolfsdijk,90,51.0481602476,4.06056958635
9200,Dendermonde,Vlassenhout,3,51.0324933817,4.12909222887
9200,Dendermonde,Sint-Rochusstraat,2,51.0281814404,4.09874070779
9200,Dendermonde,Lambroeckstraat,114,51.0064515853,4.05508479355
9200,Dendermonde,Buisstraat,38,51.0207720464,4.11977580968
9200,Dendermonde,Pastoor Claeysstraat,21,51.0218299408,4.11515808691
9200,Dendermonde,Zeelsebaan,85,51.0510286411,4.08182738333
9200,Dendermonde,Baasrodestraat,176,51.0395691311,4.14439290854
9200,Dendermonde,Basiel De Cockplein,7,51.0158145112,4.11108252265
9200,Dendermonde,Ouburg,84,51.0032042647,4.05985868089
9200,Dendermonde,Rosstraat,50,51.0355604665,4.16059367076
9200,Dendermonde,Weggevoerdenstraat,32,51.0200322796,4.10731852072
9200,Dendermonde,Volkaertwegel,21A,51.0452227075,4.11035723984
9200,Dendermonde,Van Langenhovestraat,242,51.0178332242,4.09800527689
9200,Dendermonde,Kapellestraat,7,51.0283936109,4.05634534025
9200,Dendermonde,Perrebroekstraat,26,51.0183957574,4.09753330188
9200,Dendermonde,Eegene,136,51.0087854218,4.02200815975
9200,Dendermonde,Volkswelzijnstraat,13A,51.0178851578,4.10619093874
9200,Dendermonde,Oude Vest,24,51.0283496676,4.10061249798
9200,Dendermonde,Grootzand,129,51.0422134507,4.10326440462
9200,Dendermonde,Heirbaan,6,51.0172389295,4.11248870337
9200,Dendermonde,Hagewijkpark,24,51.051780549,4.10182860528
9200,Dendermonde,Oude Molenstraat,64,51.0597646894,4.11231249166
9200,Dendermonde,Hoeksken,48,51.0256835112,4.13188407095
9200,Dendermonde,Hoofdstraat,159,51.0303814575,4.04444971083
9200,Dendermonde,Scheutlagestraat,42,50.99306585,4.06649688529
9200,Dendermonde,Mandekensstraat,132,51.0259744372,4.16632082301
9200,Dendermonde,Theodoor Vermylenstraat,242,51.026569777,4.16694828177
9200,Dendermonde,Smidsestraat,84,51.0570697848,4.11405321628
9200,Dendermonde,Mevrouw Courtmanspark,48,51.006621166,4.05853479481
9200,Dendermonde,Ouburg,76,51.0036346009,4.05973090347
9200,Dendermonde,Industrieweg,7,51.0318827914,4.14175941858
9200,Dendermonde,De Dammenlaan,105,51.0362129783,4.0796797733
9200,Dendermonde,Hamsesteenweg,60,51.0614006579,4.10888704173
9200,Dendermonde,Rosstraat,29,51.0349352068,4.16075654183
9200,Dendermonde,Eegene,5,51.020573742,4.04633021899
9200,Dendermonde,Zuidlaan,34,51.0256075703,4.09979175364
9200,Dendermonde,Otterstraat,53,51.0229986443,4.10844166426
9200,Dendermonde,Spoorwegstraat,17,51.0222810057,4.11852469313
9200,Dendermonde,Perrebroekstraat,9,51.0189642481,4.09828621096
9200,Dendermonde,Scheldedreef,23A,51.0401460313,4.09904586263
9200,Dendermonde,Denderbellestraat,11,51.0166229719,4.09591537121
9200,Dendermonde,Ganzegavers,3,51.0566673587,4.10694451692
9200,Dendermonde,Frans Van Schoorstraat,13,51.018557822,4.11047332395
9200,Dendermonde,Nieuwstraat,71,50.9982293988,4.00921581791
9200,Dendermonde,Vijfde Januaristraat,41,51.0199545647,4.11462279229
9200,Dendermonde,Heirstraat,31,51.0297317427,4.06245523203
9200,Dendermonde,Bakkerstraat,273,51.0614029679,4.09463614282
9200,Dendermonde,Hoofdstraat,55,51.029291827,4.05254144536
9200,Dendermonde,Boonwijkstraat,11,51.0211345674,4.09438795658
9200,Dendermonde,Dalialaan,7,51.0152619493,4.11099948121
9200,Dendermonde,Eksterstraat,1,51.016974647,4.12776640143
9200,Dendermonde,Ommegancklaan,14,51.0319833468,4.11248491479
9200,Dendermonde,Smeyskensstraat,19,51.0327727766,4.15754829242
9200,Dendermonde,Oude baan,115,51.0144554453,4.06715533394
9200,Dendermonde,Ros Beiaardstraat,22,51.0349554757,4.08661804865
9200,Dendermonde,Hoge Weg,26,51.018887669,4.1188849548
9200,Dendermonde,Serscampveldstraat,6,51.0199259573,4.09850656448
9200,Dendermonde,Briel,11,51.0302219326,4.18266473885
9200,Dendermonde,Eegene,91,51.0101243608,4.0262232468
9200,Dendermonde,Rosstraat,184,51.0281678166,4.15852660751
9200,Dendermonde,Robert Ramlotstraat,69,51.0170241899,4.09118866784
9200,Dendermonde,Mandekensstraat,8,51.0281799169,4.17683464415
9200,Dendermonde,Schoonaardebaan,82,51.0052017325,4.01761191296
9200,Dendermonde,Weidestraat,23,51.0176250602,4.10403888754
9200,Dendermonde,Dokter Haekstraat,17,51.0532339183,4.10629364127
9200,Dendermonde,Kerkstraat,77,51.0314601057,4.09471934254
9200,Dendermonde,Oude Molenstraat,82,51.0601583023,4.11098419818
9200,Dendermonde,Koning Boudewijnlaan,79,51.0352196451,4.08567138967
9200,Dendermonde,Heidepark,53,51.0272743616,4.05975284929
9200,Dendermonde,Oudegemse baan,19,51.010090002,4.06246112187
9200,Dendermonde,Vrankrijkstraat,42,50.997639716,4.02026552154
9200,Dendermonde,Reynoutstraat,50,51.0474511363,4.09896408919
9200,Dendermonde,Migrostraat,6,50.995606981,4.02537975342
9200,Dendermonde,Kloosterstraat,50,51.0347214188,4.16284419976
9200,Dendermonde,Geerstraat,96,51.0315599421,4.14890766897
9200,Dendermonde,Ommegancklaan,32,51.0324009248,4.11312371582
9200,Dendermonde,Wissenstraat,1,51.0287220936,4.14144883438
9200,Dendermonde,Baleunisstraat,18,51.0243623753,4.11622067573
9200,Dendermonde,Hof ter Bremptstraat,40,51.036480393,4.09251569677
9200,Dendermonde,Mevrouw Courtmanspark,104,51.0063198686,4.05956918399
9200,Dendermonde,Van Langenhovestraat,114,51.018422477,4.10395586647
9200,Dendermonde,Oude Heirbaan,17,51.0172026572,4.06713796867
9200,Dendermonde,Volkswelzijnstraat,16,51.0178687798,4.10557751109
9200,Dendermonde,Gasthuisstraat,166,51.0200559296,4.0843111159
9200,Dendermonde,Ouburg,58,51.0046060865,4.06001572477
9200,Dendermonde,Heirstraat,13,51.0298295767,4.06385642916
9200,Dendermonde,Steenweg van Aalst,39,51.0292871309,4.06984797633
9200,Dendermonde,Resedalaan,49,51.0133169933,4.11170825955
9200,Dendermonde,Pastoor Claeysstraat,58,51.021102948,4.11677409002
9200,Dendermonde,Spoorwegstraat,35,51.0232482734,4.11913925698
9200,Dendermonde,Mandekensstraat,10,51.0281492483,4.17676948422
9200,Dendermonde,Bosstraat,33,51.0075752315,4.05042153599
9200,Dendermonde,Kapucijnenlaan,17,51.019496638,4.10450121162
9200,Dendermonde,Dijkstraat,39,51.0306886849,4.10087725669
9200,Dendermonde,Prinskouterstraat,4,51.0197232203,4.10731211786
9200,Dendermonde,Meibosstraat,94,51.0390281844,4.15706477077
9200,Dendermonde,Zuidlaan,16,51.0254223179,4.10070618695
9200,Dendermonde,Hof ten Bos,113,51.0045696705,4.06587132111
9200,Dendermonde,Bakkerstraat,255,51.0590210999,4.09577533666
9200,Dendermonde,Steenweg van Grembergen,12,51.0354533912,4.10237210683
9200,Dendermonde,Heidestraat,23,51.0290813767,4.06307713571
9200,Dendermonde,Zevenhoevenstraat,23,51.0373506107,4.1443775599
9200,Dendermonde,Nieuwstraat,53,50.9977671691,4.00989287488
9200,Dendermonde,Kier,3,51.035130176,4.16760851073
9200,Dendermonde,Sleutelbloemlaan,12,51.011971839,4.10992901658
9200,Dendermonde,Otterstraat,71,51.0228327284,4.10914581855
9200,Dendermonde,Sint-Gillislaan,35,51.022324668,4.10743602644
9200,Dendermonde,H. Vandemeulebrouckeplein,27,51.0160670938,4.11181961148
9200,Dendermonde,Schoonaardebaan,46,51.0045799233,4.01423809111
9200,Dendermonde,Brusselsestraat,104,51.0260954489,4.10103574065
9200,Dendermonde,Kolvenierslaan,22,51.0308737547,4.11278291953
9200,Dendermonde,Theodoor Vermylenstraat,20,51.0331289153,4.17019326724
9200,Dendermonde,Noordlaan,28,51.0335827041,4.09941146546
9200,Dendermonde,Meibosstraat,58,51.0394335175,4.15752703689
9200,Dendermonde,Mevrouw Courtmanspark,122,51.0050070488,4.0575021194
9200,Dendermonde,De Dammenlaan,123,51.0365562741,4.07898462461
9200,Dendermonde,Klein Kwartier,4,51.0320757736,4.09210154693
9200,Dendermonde,Mevrouw Courtmanspark,66,51.0064974859,4.05768558265
9200,Dendermonde,Singelweg,15,50.9950730607,4.07095471839
9200,Dendermonde,Hagewijkpark,79,51.0507961294,4.10213198218
9200,Dendermonde,Hoofdstraat,195,51.0332946631,4.04159176318
9200,Dendermonde,Eegene,111,51.0076742748,4.02200967139
9200,Dendermonde,Acacialaan,9,51.0164159794,4.11427626297
9200,Dendermonde,Hof ten Bos,57,51.0068417445,4.07062518197
9200,Dendermonde,Dorpsplein,19,51.0361968272,4.16291842617
9200,Dendermonde,Baasrodestraat,233,51.0389743956,4.14428682116
9200,Dendermonde,Hoofdstraat,91,51.0289788358,4.04907509098
9200,Dendermonde,Onze-Lieve-Vrouwstraat,32,51.0106469608,4.05635628503
9200,Dendermonde,Hemelstraat,61,51.0199600648,4.10088958066
9200,Dendermonde,Heidepark,3,51.0265192883,4.05610537943
9200,Dendermonde,Beukenlaan,29,51.0305228912,4.11644855207
9200,Dendermonde,Plesbosstraat,3,50.9938543727,4.02767746268
9200,Dendermonde,Voortweg,6,51.0478020025,4.10895835051
9200,Dendermonde,Oude baan,133,51.0148043478,4.06653647702
9200,Dendermonde,Oude Molenstraat,46,51.0590212292,4.11360771847
9200,Dendermonde,Theodoor Vermylenstraat,124,51.030684716,4.16706731404
9200,Dendermonde,Baasrodestraat,90,51.0390173976,4.15166484818
9200,Dendermonde,Hemelstraat,130,51.0218275982,4.10530476263
9200,Dendermonde,Smisstraat,8,51.0191356549,4.12524031788
9200,Dendermonde,Lindestraat,23,51.026189611,4.06322568053
9200,Dendermonde,Broekkouter,89,51.0404587518,4.15213569121
9200,Dendermonde,Mevrouw Courtmansstraat,3,51.0103387486,4.05964174743
9200,Dendermonde,Leopold II-laan,79,51.0305639817,4.10622836632
9200,Dendermonde,Sint-Elooistraat,13,51.0435334418,4.10597601136
9200,Dendermonde,Buisstraat,6,51.0213598812,4.11856095652
9200,Dendermonde,Smisstraat,45,51.0171685519,4.12750731933
9200,Dendermonde,Constabelstraat,74,51.0066016033,4.02477443207
9200,Dendermonde,Platanenlaan,19,51.0291043431,4.11865297132
9200,Dendermonde,Prateveld,2,51.0256720687,4.12290017753
9200,Dendermonde,Oude baan,77,51.0138297397,4.06534317616
9200,Dendermonde,Oude Molenstraat,102,51.061775124,4.10941233306
9200,Dendermonde,Zwarte Beekstraat,10,51.03013868,4.1693199547
9200,Dendermonde,Koebosstraat,88,51.0299070881,4.05773453695
9200,Dendermonde,Driehuizen,4,51.0349595747,4.16931175036
9200,Dendermonde,Oude Vest,44,51.0286616746,4.10128453107
9200,Dendermonde,Kwintijnpoort,26,51.0344944353,4.09178419964
9200,Dendermonde,Oudegemse baan,35,51.0106861046,4.06278539108
9200,Dendermonde,Vlotgraslaan,26,51.0350094986,4.08288108202
9200,Dendermonde,Torrestraat,44,51.0206880279,4.12578696304
9200,Dendermonde,Jozef Van Bogaertstraat,60,51.0196421711,4.10761100298
9200,Dendermonde,Hof ten Rode,22,51.0310549949,4.17031792724
9200,Dendermonde,Lindanusstraat,86,51.0279326492,4.10367044951
9200,Dendermonde,Veldstraat,47,51.0187890031,4.11813784137
9200,Dendermonde,Zandstraat,24,51.0307018834,4.07082799475
9200,Dendermonde,Bevrijdingslaan,14,51.0281837423,4.06440494362
9200,Dendermonde,Moerstraat,11,51.009874903,4.10580226854
9200,Dendermonde,Ros Beiaardstraat,59,51.0361898357,4.08570959139
9200,Dendermonde,Sint-Gillislaan,17,51.0228401251,4.10683795953
9200,Dendermonde,H. Vandemeulebrouckeplein,5,51.0160402476,4.11117405652
9200,Dendermonde,Hofstraat,184,51.0205074961,4.05311313596
9200,Dendermonde,Steenweg naar Wetteren,141,51.0019619087,4.00120302919
9200,Dendermonde,Lindestraat,1,51.0271105322,4.06422973512
9200,Dendermonde,Hemelstraat,165,51.0226016223,4.1047297392
9200,Dendermonde,Moeskouterlaan,36,51.0112994798,4.11068009846
9200,Dendermonde,Hofstraat,16,51.0101372493,4.0605836506
9200,Dendermonde,Kruisstraat,17,51.010700926,4.11496425418
9200,Dendermonde,Hoogveld,12,51.0351628939,4.13115649737
9200,Dendermonde,Vijfde Januaristraat,4,51.0204233133,4.11298454322
9200,Dendermonde,Broekkantstraat,280,51.0411921746,4.15381422774
9200,Dendermonde,Brusselsestraat,84,51.0265439144,4.10048155494
9200,Dendermonde,Leugestraat,8A,51.0494812323,4.10534331732
9200,Dendermonde,Heirbaan,61,51.0155333578,4.11424313885
9200,Dendermonde,Burgemeester Potiaulaan,31,51.0203866548,4.11195731047
9200,Dendermonde,Killeweg,15,51.0374008725,4.11937367277
9200,Dendermonde,Bankveldstraat,32,51.0553424534,4.12038197652
9200,Dendermonde,Bleienpark,49,51.009519575,4.05616515849
9200,Dendermonde,Theodoor Vermylenstraat,106,51.0311807926,4.16741957205
9200,Dendermonde,Kerkstraat,95,51.0308610641,4.09351712811
9200,Dendermonde,Bakkerstraat,11,51.0432776922,4.10347797365
9200,Dendermonde,Brusselsestraat,31,51.0282026871,4.0991876057
9200,Dendermonde,Pijnderslaan,5,51.0318766261,4.11280696061
9200,Dendermonde,Platanenlaan,37,51.0295714556,4.11943735205
9200,Dendermonde,Fabriekstraat,1,51.0322674017,4.17446262959
9200,Dendermonde,Hemelstraat,112,51.0214292781,4.10481585974
9200,Dendermonde,Volaardestraat,42,51.0193944725,4.13273141495
9200,Dendermonde,Processiestraat,11,51.020223226,4.1107174224
9200,Dendermonde,Hoogveld,65,51.0295776124,4.14062546707
9200,Dendermonde,Grootzand,38,51.0477480822,4.10818929968
9200,Dendermonde,Oudegemse baan,172,51.0172374336,4.06583518971
9200,Dendermonde,Emiel Van Winckellaan,22,51.0305679272,4.09646154597
9200,Dendermonde,Burgemeester Potiaulaan,84,51.0212828796,4.11395429466
9200,Dendermonde,Brusselsestraat,66,51.026994759,4.1000654672
9200,Dendermonde,Klinkaertstraat,71,51.0030225537,4.02613031732
9200,Dendermonde,Burgemeester Potiaulaan,13,51.0199882413,4.11141292658
9200,Dendermonde,Scheutlagestraat,52B,50.9926410514,4.06724627244
9200,Dendermonde,Rozenlaan,39,51.0140518567,4.11349092158
9200,Dendermonde,Korte Dijkstraat,101,51.0305926912,4.12118360591
9200,Dendermonde,Hemelstraat,147,51.022687632,4.10392012493
9200,Dendermonde,Smeyskensstraat,37,51.0330703946,4.15633990602
9200,Dendermonde,Veldstraat,35,51.0187815978,4.11719200301
9200,Dendermonde,Eegene,73,51.0114523499,4.02937080075
9200,Dendermonde,Meibosstraat,6,51.0400398918,4.15625990711
9200,Dendermonde,Buisstraat,58,51.0206334957,4.12070150875
9200,Dendermonde,Langveldstraat,6,51.0186796401,4.09722354312
9200,Dendermonde,Kloostergoedstraat,32,50.9981006006,4.04663168844
9200,Dendermonde,Pijnderslaan,29,51.0322987616,4.1138501726
9200,Dendermonde,Hemelstraat,43,51.019020335,4.10068743723
9200,Dendermonde,Resedalaan,32,51.0136701822,4.11039389811
9200,Dendermonde,Koning Albertstraat,4,51.0173621434,4.11318120738
9200,Dendermonde,Denderstraat,29,51.0256679106,4.06665780943
9200,Dendermonde,Hoekstraat,2,51.00113649,4.04338009023
9200,Dendermonde,Eegene,27,51.017802215,4.04107782821
9200,Dendermonde,Langestraat,38,50.989604867,4.00229661846
9200,Dendermonde,Oudegemse baan,154,51.0163291192,4.06570937282
9200,Dendermonde,Gasthuisstraat,148,51.0210882876,4.0838844176
9200,Dendermonde,Oude baan,95,51.0140303837,4.06611566412
9200,Dendermonde,Smeyskensstraat,83,51.0335598937,4.15294303846
9200,Dendermonde,Burgemeester Potiaulaan,66,51.0208951372,4.11347666837
9200,Dendermonde,Broekstraat,58,51.0402304775,4.1454019312
9200,Dendermonde,Lindanusstraat,68,51.0280932287,4.10340583582
9200,Dendermonde,Kleinzand,11,51.0488371364,4.09986367454
9200,Dendermonde,Boonwijkstraat,46,51.0200848541,4.09417047691
9200,Dendermonde,Brusselsestraat,13,51.0285760421,4.09896850706
9200,Dendermonde,Vlassenbroek,99,51.0481141731,4.12941461948
9200,Dendermonde,Hofstraat,34,51.010881322,4.06015242951
9200,Dendermonde,Lange Dijkstraat,150,51.0258947821,4.12980096093
9200,Dendermonde,Moeskouterlaan,18,51.0126436229,4.11010543093
9200,Dendermonde,Winningstraat,57,51.0225762721,4.12279039032
9200,Dendermonde,Breestraat,4,51.0174344692,4.11208732065
9200,Dendermonde,Schuiteplasstraat,51,50.9938703952,4.01857822534
9200,Dendermonde,Hof ten Rode,75,51.028563173,4.1691085475
9200,Dendermonde,Steenweg naar Wetteren,22,51.002543269,4.00297547276
9200,Dendermonde,Rootjensweg,52,51.0543286938,4.10136669655
9200,Dendermonde,Otterstraat,3,51.0231406047,4.10625989524
9200,Dendermonde,Schoonaardebaan,64,51.0051539252,4.01614092915
9200,Dendermonde,Ringstraat,18,51.0512105828,4.10942636609
9200,Dendermonde,Baasrodestraat,143,51.0385081283,4.14954909721
9200,Dendermonde,Kerkstraat,115,51.0309787112,4.09139638745
9200,Dendermonde,Bosstraat,15,51.0063462157,4.05128203347
9200,Dendermonde,Sint-Ursmarusstraat,20,51.0376456467,4.16253967661
9200,Dendermonde,Dr Frans De Hovrestraat,11,51.0109056753,4.06391805635
9200,Dendermonde,Krekelhoek,22,51.0454358629,4.10355632333
9200,Dendermonde,Mandekensstraat,224,51.0239796234,4.1591774747
9200,Dendermonde,Rosstraat,93,51.0316384646,4.16039151531
9200,Dendermonde,Jozef Van Bogaertstraat,14,51.0200560026,4.10873916872
9200,Dendermonde,Broekkouter,18,51.0393629381,4.15566599458
9200,Dendermonde,Van Langenhovestraat,239,51.0173581768,4.09848756787
9200,Dendermonde,Grote Markt,6,51.0307418855,4.09874009259
9200,Dendermonde,Heldenplein,1,51.0273395657,4.10108794338
9200,Dendermonde,Ringstraat,64,51.0517625814,4.10982891648
9200,Dendermonde,Warmen Haard,1,51.0194157592,4.08600839381
9200,Dendermonde,Burgemeester Portmanslaan,9,51.0232772641,4.09787610652
9200,Dendermonde,Dokter Haekstraat,35,51.0514669602,4.10621681415
9200,Dendermonde,Zevenhoevenstraat,1,51.0387306472,4.14563333761
9200,Dendermonde,Mandekensstraat,98,51.0270931152,4.17200894331
9200,Dendermonde,Papiermolenstraat,20,51.0321056463,4.10423293464
9200,Dendermonde,Mandekensstraat,250,51.0231597934,4.15749686688
9200,Dendermonde,Vossenhoek,41,51.0438756006,4.10765411866
9200,Dendermonde,Constabelstraat,2,51.0083142256,4.02323871945
9200,Dendermonde,Tuinlaan,2,51.0589877388,4.10770038953
9200,Dendermonde,Heirstraat,104,51.028701508,4.05805555918
9200,Dendermonde,Heirbaan,43,51.0161338851,4.11385212058
9200,Dendermonde,Koebosstraat,56A,51.0321823988,4.06157619543
9200,Dendermonde,Sint-Apolloniastraat,5,51.027927489,4.05718118627
9200,Dendermonde,Lazarijstraat,4,51.0221582265,4.10547023333
9200,Dendermonde,Blauwe Steenstraat,21,51.0326894965,4.11905784123
9200,Dendermonde,Van Langenhovestraat,81,51.018321483,4.1064309163
9200,Dendermonde,De Dammenlaan,54,51.0341644292,4.08232168029
9200,Dendermonde,Spoorwegstraat,167,51.026430854,4.12295193763
9200,Dendermonde,Scheepswerfstraat,23,51.0359518017,4.16484559182
9200,Dendermonde,Fabriekstraat,78,51.030863231,4.1761137745
9200,Dendermonde,Brugstraat,41,51.0186331642,4.08276161225
9200,Dendermonde,Broekkantstraat,214,51.0415739144,4.15548799744
9200,Dendermonde,Lindestraat,51,51.0247700848,4.06185247921
9200,Dendermonde,Smeyskensstraat,65,51.0335408336,4.15437300873
9200,Dendermonde,Varenbergstraat,30,51.0094717842,4.06456699473
9200,Dendermonde,Broekkantstraat,126,51.0412877678,4.15848270877
9200,Dendermonde,Rosstraat,131,51.0299005891,4.15956402592
9200,Dendermonde,Lambroeckstraat,206,51.0034776563,4.04702619528
9200,Dendermonde,Lodewijk Dosfelstraat,9,51.0325745551,4.09113505726
9200,Dendermonde,Groeneweg,33,51.0583904841,4.10293180546
9200,Dendermonde,Posthoornstraat,27,51.0333071176,4.11904999452
9200,Dendermonde,Beekweidestraat,17,51.0202037724,4.09774518952
9200,Dendermonde,Lambroeckstraat,45,51.0076515428,4.05732187265
9200,Dendermonde,Bookmolenstraat,217,51.0281951958,4.15366230333
9200,Dendermonde,Weidekouter,19,51.0044740552,4.05783305513
9200,Dendermonde,Rosstraat,75,51.032579683,4.16012332379
9200,Dendermonde,Schuurkouter,56,51.031775393,4.1647327106
9200,Dendermonde,Haagstraat,160,51.01434965,4.12387872449
9200,Dendermonde,Wolvestraat,15,51.0340317744,4.13904847621
9200,Dendermonde,Steenweg naar Wetteren,131,51.002009513,4.00188335796
9200,Dendermonde,Kloosterstraat,39,51.0337862183,4.16373346199
9200,Dendermonde,Hagewijkpark,7,51.0512519405,4.10444217722
9200,Dendermonde,Hoofdstraat,20,51.0290109235,4.05503578093
9200,Dendermonde,Heirbaan,237,51.0105943011,4.11785867953
9200,Dendermonde,Ouburg,127,50.9965682594,4.0554230294
9200,Dendermonde,Ringstraat,46,51.0529184466,4.10871053124
9200,Dendermonde,Haagstraat,63,51.0140862073,4.11959650086
9200,Dendermonde,Lambroeckstraat,63,51.006011775,4.05563712507
9200,Dendermonde,Sint-Ursmarusstraat,37,51.0379510916,4.16233260142
9200,Dendermonde,Noordlaan,99,51.0333441522,4.09077153814
9200,Dendermonde,Oude Vest,80,51.0294844613,4.10244517764
9200,Dendermonde,Dokter Haekstraat,88,51.0496830021,4.1080020047
9200,Dendermonde,Emanuel Hielstraat,91,51.0195260632,4.10592409051
9200,Dendermonde,Ommegancklaan,49,51.0325472883,4.11176719405
9200,Dendermonde,Steenweg van Aalst,85,51.0252988145,4.06806416544
9200,Dendermonde,Steenweg naar Wetteren,113,51.002182887,4.00398936438
9200,Dendermonde,Jasmijnenlaan,14,51.0121191987,4.11286874469
9200,Dendermonde,Karel Hofmanstraat,2,51.0102462383,4.10937426558
9200,Dendermonde,Weggevoerdenstraat,40,51.0197946848,4.10743442885
9200,Dendermonde,Sint-Onolfsdijk,34,51.0479454148,4.08353682046
9200,Dendermonde,Steenweg van Aalst,67,51.0270493051,4.06878803642
9200,Dendermonde,Geldroplaan,15,51.0248754644,4.10112094889
9200,Dendermonde,Baleunisstraat,46,51.0241769001,4.11332342109
9200,Dendermonde,Lambroeckstraat,33,51.0078321886,4.05860458866
9200,Dendermonde,Weidekouter,37,51.0045296137,4.05862042018
9200,Dendermonde,Boonwijkstraat,64,51.0192513297,4.09406960361
9200,Dendermonde,Merelstraat,11,51.0241040537,4.11813042699
9200,Dendermonde,Nieuwstraat,25,50.9961082989,4.01235195296
9200,Dendermonde,Kruisstraat,35,51.0101308404,4.11367367156
9200,Dendermonde,Berkenlaan,1A,51.0147878303,4.11396487902
9200,Dendermonde,Heerlijkheidstraat,59,51.0070325861,4.02306720275
9200,Dendermonde,Groeneweg,15,51.0559101839,4.10458808881
9200,Dendermonde,Begijnhof,1,51.0273940022,4.09897872103
9200,Dendermonde,Wilgenlaan,22,51.0197645321,4.1029882904
9200,Dendermonde,Reigerslaan,27,51.0495370392,4.10010880285
9200,Dendermonde,Lindanusstraat,47,51.0283358547,4.10361072715
9200,Dendermonde,Galeidestraat,10,51.0228959868,4.09354130516
9200,Dendermonde,Van Langenhovestraat,204,51.0175744871,4.09968200126
9200,Dendermonde,Tinnenpotstraat,9,51.0339834347,4.11912608963
9200,Dendermonde,Beekakkerstraat,15,51.0177862895,4.09019797233
9200,Dendermonde,Hullekenstraat,3,51.0234449878,4.11506441677
9200,Dendermonde,Lijsterlaan,17,51.0485053075,4.09670427477
9200,Dendermonde,Oude Brugstraat,12,51.0045485308,4.01119481139
9200,Dendermonde,Broekkantstraat,232,51.0415181284,4.1543652523
9200,Dendermonde,Gentsesteenweg,228,51.0315172093,4.07441734213
9200,Dendermonde,Nijverheidsstraat,48,51.0285826788,4.10256518511
9200,Dendermonde,Spoorwegstraat,149,51.0261070831,4.12188217318
9200,Dendermonde,Verbindingsstraat,9A,51.0472758658,4.10397530183
9200,Dendermonde,Vlassenbroek,188,51.0484111976,4.13049576989
9200,Dendermonde,Volaardestraat,77,51.0170695618,4.1392658048
9200,Dendermonde,Mevrouw Courtmanspark,157,51.0055522312,4.05712379319
9200,Dendermonde,Spoorwegstraat,88,51.0243912229,4.12054069416
9200,Dendermonde,Lambroeckstraat,224,51.001746774,4.04403547203
9200,Dendermonde,Begonialaan,15,51.0144070098,4.11187201428
9200,Dendermonde,Bakkerstraat,119,51.0473152867,4.10227853322
9200,Dendermonde,Oudegemse baan,65,51.0118782399,4.0630610446
9200,Dendermonde,Bleienpark,32,51.0086102943,4.05564615405
9200,Dendermonde,Varenbergstraat,12,51.0093552358,4.06343454608
9200,Dendermonde,Hamsesteenweg,14,51.0562123411,4.10650090943
9200,Dendermonde,Lambroeckstraat,81,51.0053768599,4.05401200886
9200,Dendermonde,Moerstraat,41,51.009476707,4.10464493341
9200,Dendermonde,Smidsestraat,38,51.0558762752,4.11018546627
9200,Dendermonde,De Leksstraat,13,51.0304192102,4.16904335542
9200,Dendermonde,Zandstraat,59,51.0311602782,4.07073769919
9200,Dendermonde,Provinciale baan,87,51.0298319419,4.18429818561
9200,Dendermonde,Sint-Margrietstraat,9,51.0466019684,4.09709263104
9200,Dendermonde,Bookmolenstraat,181,51.0296057747,4.15298173197
9200,Dendermonde,Justitieplein,3,51.031698174,4.09875397933
9200,Dendermonde,Jef Scheirsstraat,44,51.014022991,4.06144763829
9200,Dendermonde,Gasthuisstraat,131,51.0207419196,4.08770097989
9200,Dendermonde,Lambroeckstraat,152,51.0046262778,4.05250468653
9200,Dendermonde,Gaverstraat,1,51.0564513265,4.11196945929
9200,Dendermonde,Broekkantstraat,108,51.0409814044,4.15933316346
9200,Dendermonde,Nieuwburcht,5,51.035494611,4.08769902933
9200,Dendermonde,Veldschansstraat,5,51.0211679318,4.10164419149
9200,Dendermonde,Pater Ruttenplein,48,51.0340162411,4.08528075631
9200,Dendermonde,Klinkaertstraat,53,51.0020628991,4.02459755164
9200,Dendermonde,Singelweg,68,50.9960024583,4.059501217
9200,Dendermonde,Rijckelstraat,27,51.0333858448,4.04974632176
9200,Dendermonde,Sint-Ursmarusstraat,156,51.0353996649,4.16787153199
9200,Dendermonde,Koebosstraat,6A,51.0303109857,4.06463975722
9200,Dendermonde,Bakkerstraat,220,51.0594199055,4.0938221314
9200,Dendermonde,Tuinwijk,9,51.0341694271,4.08825882608
9200,Dendermonde,Oude baan,7,51.010662339,4.06489356613
9200,Dendermonde,Buisstraat,76,51.0200831681,4.12167996362
9200,Dendermonde,Broekkantstraat,262,51.041181053,4.15506687778
9200,Dendermonde,Otterstraat,25,51.0232875652,4.10726747101
9200,Dendermonde,Oude Vest,62,51.0288866322,4.10190290006
9200,Dendermonde,Schuurkouter,74,51.0319385651,4.16662784949
9200,Dendermonde,Gasthuisstraat,75,51.0221029461,4.08947526423
9200,Dendermonde,Ommegancklaan,67,51.0327718565,4.11277028936
9200,Dendermonde,Ommegancklaan,103,51.0335653461,4.113612917
9200,Dendermonde,Botermelkstraat,31,51.0180236355,4.08816317775
9200,Dendermonde,Pieter Goruslaan,55,51.0340680062,4.07953203229
9200,Dendermonde,Grootzand,122,51.0441878107,4.10559832517
9200,Dendermonde,Brugstraat,4,51.0188885892,4.08226110617
9200,Dendermonde,Emanuel Hielstraat,55,51.0205715551,4.10667887515
9200,Dendermonde,Korte Dijkstraat,85,51.0309930171,4.12098990381
9200,Dendermonde,Leeuwerikenlaan,15,51.0308177424,4.11356712135
9200,Dendermonde,Breestraat,110,51.0141826995,4.10759761307
9200,Dendermonde,Klein Gent,1A,51.021808145,4.09251024075
9200,Dendermonde,Veldstraat,17,51.018943721,4.11662548708
9200,Dendermonde,Kapucijnenlaan,35,51.0189315505,4.1038049211
9200,Dendermonde,Mevrouw Courtmanspark,38,51.0066523948,4.05885644944
9200,Dendermonde,Weldadigheidstraat,15,51.0274863157,4.10313900561
9200,Dendermonde,Singelweg,45,50.9944712241,4.06720076445
9200,Dendermonde,Zijpestraat,14,51.0069191584,4.06228375967
9200,Dendermonde,Zeelsebaan,29,51.0432167636,4.09821573466
9200,Dendermonde,Driebek,2,51.0241234669,4.14266493614
9200,Dendermonde,Oudegemse baan,190,51.0184362644,4.06651751203
9200,Dendermonde,Breestraat,76,51.0157212015,4.10903065433
9200,Dendermonde,Stuifstraat,3,51.0262581757,4.05351162465
9200,Dendermonde,Lijsterlaan,35,51.049600509,4.09502297193
9200,Dendermonde,Vijverstraat,11,51.0357768637,4.08454359605
9200,Dendermonde,Hemelstraat,96,51.0207848204,4.10440089503
9200,Dendermonde,Tuinlaan,21,51.058233278,4.10907988459
9200,Dendermonde,Damhof,2,51.0356987957,4.0851237487
9200,Dendermonde,Pastoor Claeysstraat,4,51.0215307996,4.11458019873
9200,Dendermonde,Oud Strijdersplein,11,51.0161011187,4.11254379226
9200,Dendermonde,Constabelstraat,21,51.0073187464,4.02400034537
9200,Dendermonde,Van Langenhovestraat,45,51.01846067,4.10802929924
9200,Dendermonde,De Dammenlaan,90,51.034349564,4.08134370516
9200,Dendermonde,Bakkerstraat,202,51.0581308262,4.09550109339
9200,Dendermonde,Molenkouterstraat,20,51.0032010167,4.01338371655
9200,Dendermonde,Korte Dijkstraat,32,51.0345288315,4.12054825742
9200,Dendermonde,Begijnhof,23,51.0266427395,4.09692134052
9200,Dendermonde,Bevrijdingslaan,168,51.0245163463,4.05492386191
9200,Dendermonde,Sint-Onolfsdijk,16,51.0407084752,4.09293652283
9200,Dendermonde,Gentsesteenweg,69,51.0316662231,4.08640317471
9200,Dendermonde,Bookmolenstraat,76,51.0351166155,4.15397946416
9200,Dendermonde,Moleneinde,22,51.0024923726,4.01585917648
9200,Dendermonde,Heirbaan,96,51.0149425801,4.1141534276
9200,Dendermonde,Van Langenhovestraat,160,51.0180912766,4.10178254487
9200,Dendermonde,Vrankrijkstraat,9,50.9994766454,4.01910709394
9200,Dendermonde,Gentsesteenweg,184,51.0319707668,4.07821433609
9200,Dendermonde,Binnestraat,18,51.0179994685,4.10686495883
9200,Dendermonde,Breestraat,163,51.0129847162,4.10690603309
9200,Dendermonde,Onze-Lieve-Vrouwstraat,40,51.010200176,4.0554997571
9200,Dendermonde,Hooistraat,13,51.0182722095,4.08479150828
9200,Dendermonde,Leo Bruynincxstraat,45,51.0283111887,4.10283542178
9200,Dendermonde,Moerstraat,137,51.0092110001,4.10169452736
9200,Dendermonde,Dijkstraat,67,51.0307820313,4.10196668053
9200,Dendermonde,Watertorenstraat,22,51.0147575569,4.11547771953
9200,Dendermonde,Weggevoerdenstraat,29,51.0197416236,4.10782921636
9200,Dendermonde,Singelweg,33,50.9943136186,4.06898913626
9200,Dendermonde,Bakkerstraat,41,51.0442588735,4.10325097969
9200,Dendermonde,Koning Boudewijnlaan,7,51.033876434,4.08426057131
9200,Dendermonde,Tulpenlaan,16,51.0144200919,4.112183311
9200,Dendermonde,Scheutlagestraat,14,50.9933487958,4.06739684499
9200,Dendermonde,Martelarenlaan,20,51.0396735127,4.10262689811
9200,Dendermonde,Baasrodestraat,54,51.0390379798,4.15382679572
9200,Dendermonde,Emanuel Hielstraat,20,51.0215128037,4.10611307371
9200,Dendermonde,Platanenlaan,12,51.0285598469,4.11919170063
9200,Dendermonde,Koning Albertstraat,110,51.0198129085,4.11655640195
9200,Dendermonde,Rosstraat,57,51.0336878423,4.16047494711
9200,Dendermonde,Torrestraat,100,51.021184524,4.12808329259
9200,Dendermonde,Pijnderslaan,40,51.031953322,4.1141046574
9200,Dendermonde,Marcel Bovynstraat,7,51.0243403609,4.12460086624
9200,Dendermonde,Molenstraat,27,51.0265565166,4.09965988433
9200,Dendermonde,Pastoor J. De Harduynstraat,39,51.0111049298,4.05996457887
9200,Dendermonde,Koning Albertstraat,145,51.0207398285,4.11641389043
9200,Dendermonde,Van Langenhovestraat,10,51.0190857653,4.10896401703
9200,Dendermonde,Heirbaan,33,51.0163948206,4.1136772713
9200,Dendermonde,Kazernestraat,15,51.0322758293,4.09876191867
9200,Dendermonde,Scheldedreef,7,51.0407045781,4.10104636801
9200,Dendermonde,Sint-Gillislaan,88,51.0187597583,4.11135638165
9200,Dendermonde,Koebosstraat,3,51.0302627072,4.06540542748
9200,Dendermonde,Korte Haagstraat,39,51.0162064093,4.12625947328
9200,Dendermonde,Mevrouw Courtmansstraat,78,51.0070583597,4.05763271074
9200,Dendermonde,Dijkstraat,49,51.0306982723,4.10129972688
9200,Dendermonde,Geerstraat,8,51.0377765064,4.15159060039
9200,Dendermonde,Mevrouw Courtmansstraat,25,51.0075052212,4.06089144732
9200,Dendermonde,Geerstraat,51,51.0339953976,4.15043993
9200,Dendermonde,Posthoornstraat,5,51.0333569092,4.11985533757
9200,Dendermonde,De Leksstraat,31,51.0304253352,4.16979671151
9200,Dendermonde,Vlasmarkt,21,51.029664019,4.09933573308
9200,Dendermonde,Jef Scheirsstraat,9,51.0124998504,4.06185375091
9200,Dendermonde,De Dammenlaan,72,51.0340317264,4.08183050685
9200,Dendermonde,Varenbergstraat,47,51.010095309,4.06643498617
9200,Dendermonde,Brugstraat,2A,51.0190812799,4.08272809873
9200,Dendermonde,Sint-Gillislaan,101,51.0201324672,4.11032071779
9200,Dendermonde,Oude Molenstraat,18A,51.057738281,4.11513303953
9200,Dendermonde,Koningin Astridlaan,24,51.0314449788,4.1010154954
9200,Dendermonde,Hemelstraat,33,51.01877534,4.100194448
9200,Dendermonde,Schuurkouter,92,51.032109197,4.16838126886
9200,Dendermonde,Leeuwerikenlaan,33,51.0299373877,4.11454124539
9200,Dendermonde,Vlasbloemstraat,18,51.0443003572,4.0969094609
9200,Dendermonde,Robert Ramlotstraat,90,51.0176778935,4.09031761353
9200,Dendermonde,Constabelstraat,56,51.0078914687,4.02330138946
9200,Dendermonde,Torrestraat,69,51.0214127334,4.12627064536
9200,Dendermonde,Broekkantstraat,244,51.0415040959,4.15406289392
9200,Dendermonde,Zwarte Zustersstraat,7,51.0303990841,4.09524385358
9200,Dendermonde,Akkerlaan,3,51.0487159894,4.09486755632
9200,Dendermonde,Fabriekstraat,96,51.0301592135,4.17716682773
9200,Dendermonde,Bookmolenstraat,163,51.0306466058,4.15322213987
9200,Dendermonde,Beukenlaan,57,51.0285330643,4.11792133448
9200,Dendermonde,Lambroeckstraat,170,51.0042797997,4.05028659032
9200,Dendermonde,Gentsesteenweg,34,51.0320972225,4.08937673634
9200,Dendermonde,Emanuel Hielstraat,73,51.0201651641,4.10631743187
9200,Dendermonde,Krekeldries,24,51.0197062916,4.09311577103
9200,Dendermonde,Buisstraat,94,51.0199268636,4.12254801608
9200,Dendermonde,Zogsebaan,52,51.066233878,4.10340279003
9200,Dendermonde,Begijnhoflaan,8,51.025944676,4.09736340126
9200,Dendermonde,Reigerslaan,5,51.0511623782,4.09870600984
9200,Dendermonde,Smisstraat,17,51.0187357613,4.12665400909
9200,Dendermonde,Heidepark,71,51.0280069066,4.0603804953
9200,Dendermonde,Jozef De Troetselstraat,51,50.9966485607,4.01295055485
9200,Dendermonde,Sas,12,51.029569668,4.09571211263
9200,Dendermonde,Kleinzand,41,51.0473262293,4.09647496021
9200,Dendermonde,Spoorwegstraat,132,51.025416125,4.12211243801
9200,Dendermonde,Scheepswerfstraat,84,51.0374671132,4.16227570327
9200,Dendermonde,Verbindingsstraat,19,51.0475647531,4.10388639842
9200,Dendermonde,Ganzegavers,25,51.055530092,4.10679126214
9200,Dendermonde,Rijckelstraat,5,51.0347900944,4.05284512091
9200,Dendermonde,Kalendijk,22,51.0252273061,4.10536122998
9200,Dendermonde,Van Langenhovestraat,63,51.0184162243,4.10719882705
9200,Dendermonde,Donckstraat,108,51.035823679,4.08742589442
9200,Dendermonde,Ridderstraat,20,51.0303455269,4.09802020806
9200,Dendermonde,Leo Bruynincxstraat,10,51.0277015632,4.10228324174
9200,Dendermonde,Leopold II-laan,7,51.0262069176,4.10234874059
9200,Dendermonde,Ommegancklaan,121,51.0333218088,4.11443524453
9200,Dendermonde,Bogaerdstraat,6,51.0315274775,4.10235732068
9200,Dendermonde,Knaptandstraat,20,51.0357077596,4.11914800063
9200,Dendermonde,Kapellestraat,14,51.0278707113,4.0546844776
9200,Dendermonde,Oude baan,42,51.0119917574,4.06577299419
9200,Dendermonde,Gaverstraat,23,51.0565688291,4.11049258539
9200,Dendermonde,Vossenhoek,4,51.0445469292,4.10774834615
9200,Dendermonde,Sint-Onolfsdijk,69,51.0487632188,4.07189607911
9200,Dendermonde,Vlietbergstraat,54,51.0182506944,4.12122814267
9200,Dendermonde,Oeverstraat,7,51.0317316918,4.18826259434
9200,Dendermonde,Basiel De Cockplein,14,51.0159698159,4.11053543979
9200,Dendermonde,Patrijzenlaan,22,51.0275573769,4.11711205831
9200,Dendermonde,Gentsesteenweg,87,51.0318073707,4.0860731644
9200,Dendermonde,Vosakkerslaan,19,51.0504084063,4.09765787027
9200,Dendermonde,Bakkerstraat,4,51.0424097111,4.10279831521
9200,Dendermonde,Oude Vest,138,51.0305577116,4.1043451495
9200,Dendermonde,Kloosterstraat,85,51.0316831478,4.16373579729
9200,Dendermonde,Hullekenstraat,149,51.027094402,4.11887178714
9200,Dendermonde,Fabriekstraat,112,51.0295502794,4.17838025824
9200,Dendermonde,Molenberg,16,51.0305549618,4.16609695327
9200,Dendermonde,Beukenlaan,22,51.0300424139,4.11577074213
9200,Dendermonde,Posthoornstraat,73,51.0330766795,4.11729032656
9200,Dendermonde,Hamsesteenweg,77,51.0664819436,4.11367513598
9200,Dendermonde,Heirstraat,43,51.0298994907,4.06152599332
9200,Dendermonde,Zandstraat,113,51.0302318452,4.06756998026
9200,Dendermonde,Dorpsplein,12,51.0354808007,4.16361301093
9200,Dendermonde,Bevrijdingslaan,103,51.0267342012,4.05899637985
9200,Dendermonde,Theodoor Vermylenstraat,27,51.0316967095,4.16977578931
9200,Dendermonde,Smidsestraat,139,51.0571410907,4.11662036078
9200,Dendermonde,Otterstraat,126,51.0215653796,4.1125297984
9200,Dendermonde,Spoorwegstraat,114,51.0249645844,4.12124406532
9200,Dendermonde,Driehuizen,58,51.0336470585,4.17132914045
9200,Dendermonde,Rootjensweg,24,51.0547713967,4.10069026768
9200,Dendermonde,Denstraat,85,51.0607433889,4.12552436266
9200,Dendermonde,Hoeksken,64,51.0243091422,4.13326216627
9200,Dendermonde,Azalealaan,6,51.014702792,4.11251094968
