PKANCODE,COMMUNE_NL,STREET_NL,HUISNR,LAT,LON
9220,Hamme,Kaaldries,4,51.0995707115,4.12795318527
9220,Hamme,Noordstraat,200,51.0981680658,4.1555755844
9220,Hamme,Burgemeester Lemmensstraat,38,51.0654958488,4.15525362688
9220,Hamme,Schaubeke,91,51.0821947557,4.12763267401
9220,Hamme,Baasrodeveerstraat,57,51.0457283472,4.16964861335
9220,Hamme,Loystraat,19,51.0886968171,4.138245532
9220,Hamme,Landbouwstraat,57,51.0896233893,4.1485285026
9220,Hamme,'t Hoog,12,51.0506587534,4.16336587434
9220,Hamme,Petrus Van der Jeugdlaan,8,51.0893447809,4.15581921121
9220,Hamme,Toekomststraat,14,51.0961966064,4.12581824411
9220,Hamme,Achterthof,104,51.0971810314,4.13930418201
9220,Hamme,Geemstraat,117,51.0951124891,4.12548226378
9220,Hamme,Guillaumestraat,34,51.0932499868,4.13185240192
9220,Hamme,Slangstraat,75,51.0930024362,4.13656727848
9220,Hamme,Boonstraat,9,51.0706946302,4.14841302241
9220,Hamme,Hebbestraat,96,51.0626751921,4.13927046626
9220,Hamme,Bootdijkstraat,16,51.0672105604,4.16007711521
9220,Hamme,Pompelhoekstraat,27,51.0721149787,4.15453209718
9220,Hamme,Evangeliestraat,88,51.0936073789,4.12161671648
9220,Hamme,Broekstraat,3D,51.0925026653,4.15762952705
9220,Hamme,Weverstraat,9,51.0783715866,4.12855531531
9220,Hamme,Veldstraat,77,51.0918473959,4.15031271064
9220,Hamme,Hooigat,5,51.0829449477,4.08653276623
9220,Hamme,Kardinaal Jozef Cardijnlaan,59,51.0884413397,4.14237990587
9220,Hamme,Damputstraat,61,51.0936732285,4.14158883205
9220,Hamme,Gasmeterstraat,2,51.0941465257,4.1320719832
9220,Hamme,Hebbestraat,78,51.0628405676,4.14196046332
9220,Hamme,Lippeveld,12,51.0797807299,4.11041670281
9220,Hamme,Kruisbeeldstraat,50,51.0968097815,4.1172409948
9220,Hamme,Vrijboomstraat,9,51.0497605909,4.16734562481
9220,Hamme,Acaciastraat,10,51.0892790305,4.15066551078
9220,Hamme,Pater Vertentenstraat,11,51.0916475499,4.15186291687
9220,Hamme,Veldstraat,59,51.0926153597,4.14825423894
9220,Hamme,Koerspleinstraat,1D,51.096890626,4.14723871747
9220,Hamme,Mandemakerstraat,20,51.098807615,4.13933134211
9220,Hamme,Vlierkouter,47,51.0882289751,4.128373377
9220,Hamme,Zogge,5F,51.0758424977,4.09279822123
9220,Hamme,Abtsbroeksken,22,51.0499764542,4.17271527027
9220,Hamme,St. Anna,93,51.0946989504,4.07431403569
9220,Hamme,Gasmeterstraat,26,51.0931838444,4.13348114311
9220,Hamme,Kruisbeeldstraat,211,51.0936340279,4.10346781117
9220,Hamme,Vredestraat,2,51.0662978227,4.15149330263
9220,Hamme,Noordstraat,181,51.0979738403,4.15276358215
9220,Hamme,Lippeveld,30,51.0799411155,4.10899193591
9220,Hamme,Nieuwelaan,31,51.097410923,4.12608718504
9220,Hamme,Tramstraat,15,51.0493474594,4.16405028411
9220,Hamme,Pompelhoekstraat,3,51.0707200347,4.15160109427
9220,Hamme,Aartstraat,62,51.0991393377,4.12826276463
9220,Hamme,Bootdijkstraat,80B,51.0748715444,4.1645560835
9220,Hamme,Posthoornplein,9,51.0918554901,4.13430569867
9220,Hamme,Kanunnik De Meyerlaan,12,51.0904860993,4.13388434127
9220,Hamme,Damstraat,9,51.0923262799,4.13669737903
9220,Hamme,Damputstraat,43,51.0930286728,4.14025389014
9220,Hamme,Plezantstraat,19,51.0965763528,4.13635815153
9220,Hamme,Maurits Tilleylaan,16,51.0973362056,4.15268343493
9220,Hamme,Hospitaalstraat,66,51.0941655476,4.14210404262
9220,Hamme,Oostkouterstraat,31,51.0898981363,4.14957015858
9220,Hamme,Bookmolenstraat,2,51.0743845127,4.09196124685
9220,Hamme,Albrecht Rodenbachlaan,21,51.088758408,4.1448514407
9220,Hamme,Overdijk,25,51.0776517062,4.15960916685
9220,Hamme,Transvaal,22,51.0899099841,4.13023755474
9220,Hamme,Reuzeweg,10,51.0901396424,4.12907810616
9220,Hamme,Drapstraat,12,51.0962174104,4.14392948571
9220,Hamme,St. Anna,75,51.0945479607,4.07686030798
9220,Hamme,Kaaldries,28,51.098960312,4.12577180315
9220,Hamme,Neerlandt,30,51.0745011655,4.09410840772
9220,Hamme,Waterstraat,34A,51.0980522289,4.11800679025
9220,Hamme,Koerspleinstraat,1B,51.0967827318,4.14693587597
9220,Hamme,Driegotenkouter,55,51.0956146561,4.15258144777
9220,Hamme,Wielstraat,34,51.0877120065,4.1594752617
9220,Hamme,Heirbaan,180,51.0777550864,4.09142222362
9220,Hamme,Veldstraat,95,51.091413481,4.15078761909
9220,Hamme,St. Anna,111,51.0933883638,4.06704034686
9220,Hamme,Bloemenstraat,43,51.0668255724,4.15504927826
9220,Hamme,Guillaumestraat,16,51.0941244417,4.13398031547
9220,Hamme,Bootdijkstraat,34,51.0687687214,4.16151969389
9220,Hamme,Scheldestraat,7,51.0489601015,4.16908202377
9220,Hamme,Pastoor Verscheldenstraat,4,51.0488379487,4.17047495878
9220,Hamme,Aartstraat,44,51.0990942297,4.12897894053
9220,Hamme,Hammestraat,81,51.0738592771,4.1493357358
9220,Hamme,Biezestraat,114,51.1009672849,4.15463388203
9220,Hamme,Geeststraat,82,51.070377369,4.15455329692
9220,Hamme,Strijderslaan,149,51.0914125342,4.12567673952
9220,Hamme,Bookmolenstraat,26,51.0728031709,4.0903510124
9220,Hamme,Populierenstraat,2,51.0900615272,4.14882946766
9220,Hamme,Sportpleinstraat,20,51.09315026,4.14389536997
9220,Hamme,Kaaldries,92,51.0983462288,4.1232641514
9220,Hamme,Weststraat,26,51.0974463044,4.14627449202
9220,Hamme,Jules De Brouwerpark,13,51.0951513608,4.15120291992
9220,Hamme,Spinnerstraat,40,51.094708178,4.15428631409
9220,Hamme,Buntstraat,42,51.1002364632,4.14523820862
9220,Hamme,Vlierkouter,35,51.08874864,4.12940135977
9220,Hamme,Noordstraat,145,51.097511138,4.15024179289
9220,Hamme,St. Jansstraat,6,51.0970594478,4.13180003698
9220,Hamme,Hospitaalstraat,31,51.093272268,4.13770774221
9220,Hamme,Kleinhulst,32,51.0984738642,4.14058853735
9220,Hamme,Korte Geemstraat,42,51.0959378144,4.12407288358
9220,Hamme,Hofterbossen,14,51.0975245708,4.14101771161
9220,Hamme,Kerkhofstraat,1,51.0926143033,4.14918434244
9220,Hamme,St. Anna,112J,51.0938967393,4.06720237289
9220,Hamme,Hof ter Donck,23,51.0968885201,4.14578292435
9220,Hamme,Kapellestraat,43,51.0965542667,4.14117945153
9220,Hamme,Biezestraat,160,51.0991070398,4.15702747393
9220,Hamme,Geeststraat,64,51.0694477472,4.15550515373
9220,Hamme,Neerstraat,94A,51.0824087694,4.14081337951
9220,Hamme,Veldstraat,113,51.0910596476,4.1511119892
9220,Hamme,Pastoor De Bruynestraat,8,51.0462328694,4.1724793494
9220,Hamme,Kruisbeeldstraat,39,51.0968601779,4.11845484611
9220,Hamme,Kerkstraat,43,51.0983576915,4.13440909487
9220,Hamme,Nijverheidstraat,21,51.0926593726,4.12959665248
9220,Hamme,Drapstraat,65,51.0996643408,4.14288093229
9220,Hamme,Kleinhulst,14,51.0980585024,4.13985064669
9220,Hamme,Ekelbeke,81,51.0873445574,4.1024101245
9220,Hamme,Neerstraat,37,51.0846947255,4.13927577491
9220,Hamme,Bookmolenstraat,24A,51.0729103097,4.09046152483
9220,Hamme,Landbouwstraat,75,51.0888252848,4.14873078566
9220,Hamme,Evangeliestraat,45A,51.096024283,4.12303049074
9220,Hamme,Hollandshof,1D,51.0943853971,4.07597001061
9220,Hamme,Neerstraat,83,51.082043339,4.14210609619
9220,Hamme,Kapellestraat,8,51.0969687169,4.1393978682
9220,Hamme,Evangeliestraat,47,51.0960879425,4.12368909794
9220,Hamme,Burgemeester Lemmensstraat,40A,51.0651712404,4.15709338084
9220,Hamme,Pieter Jan Boellaan,40,51.0877190725,4.13846342671
9220,Hamme,Geemstraat,99,51.0954657044,4.12615963364
9220,Hamme,Vital Keullerlaan,14,51.0965121847,4.15420683217
9220,Hamme,Heirbaan,359,51.0715557091,4.10105803671
9220,Hamme,Kanunnik De Meyerlaan,30,51.0900373487,4.13287760939
9220,Hamme,Geeststraat,36,51.068493366,4.1557396119
9220,Hamme,Moortelstraat,50,51.1006936307,4.07587106414
9220,Hamme,Ekelbeke,224,51.0791750834,4.09358272323
9220,Hamme,Kleinhulst,60,51.0988025324,4.14168176204
9220,Hamme,Landbouwstraat,22,51.0922159002,4.14719884518
9220,Hamme,Leeuwerikenlaan,51,51.0902861287,4.12606553286
9220,Hamme,Drapstraat,30,51.0970951853,4.14412627604
9220,Hamme,Kleine Gasmeterstraat,13,51.0918658988,4.13552377714
9220,Hamme,Spurt,39,51.0827496815,4.13291154508
9220,Hamme,Loystraat,37,51.0890891629,4.13888260609
9220,Hamme,Killestraat,44,51.0609902215,4.15282391906
9220,Hamme,Noordstraat,163,51.0977648409,4.1511889419
9220,Hamme,Zogge,117,51.0793688016,4.10197509423
9220,Hamme,Theet,77,51.0772373944,4.12879057471
9220,Hamme,Theet,7,51.081932529,4.13207082096
9220,Hamme,St. Anna,57,51.0942441433,4.07868863733
9220,Hamme,Hebbestraat,114,51.0624330026,4.13390292343
9220,Hamme,Evangeliestraat,20D,51.0969686046,4.12214417746
9220,Hamme,Hofterbossen,32,51.0971213233,4.14120039705
9220,Hamme,Loystraat,83,51.0900555628,4.13999860897
9220,Hamme,Broekstraat,3B,51.0923382225,4.15760899886
9220,Hamme,Kapellestraat,61,51.0958947546,4.14225628042
9220,Hamme,Nijverheidstraat,56,51.093641406,4.12791383142
9220,Hamme,Noordstraat,117,51.0970503879,4.14913502436
9220,Hamme,Moerheide,40,51.0904229827,4.1162985226
9220,Hamme,Kardinaal Jozef Cardijnlaan,7,51.0892829553,4.14143624862
9220,Hamme,Broekstraat,213,51.0867262625,4.14910086247
9220,Hamme,Doorn,3,51.0947761676,4.06789046876
9220,Hamme,Priester Edward Poppestraat,38,51.0700442141,4.14346493433
9220,Hamme,Ekelbeke,259,51.0776185624,4.09346728422
9220,Hamme,Pieter Jan Boellaan,29,51.0879127177,4.13907705595
9220,Hamme,Aartstraat,34,51.099153325,4.12966403292
9220,Hamme,De Pannestraat,6,51.0508888837,4.16493090528
9220,Hamme,Filip De Pillecynlaan,7,51.0902640494,4.15278252254
9220,Hamme,Moerheide,189,51.0915960808,4.10459626707
9220,Hamme,Neerlandt,40,51.0743852585,4.09471079105
9220,Hamme,Broekstraat,106C,51.0880612997,4.15340781556
9220,Hamme,Durmestraat,3,51.0983886611,4.12971689817
9220,Hamme,Hospitaalstraat,50A,51.0938838562,4.14169230093
9220,Hamme,Pieter Vermeirelaan,32,51.0877579197,4.1427109028
9220,Hamme,Kaaldries,56,51.0985637688,4.12413655489
9220,Hamme,Theet,42,51.0797267749,4.1298520967
9220,Hamme,Mandemakerstraat,73,51.1002843429,4.14285596031
9220,Hamme,Kleinhulst,49,51.0988439848,4.14080101898
9220,Hamme,Loystraat,65,51.0896253623,4.13958421616
9220,Hamme,Albert Van Heckelaan,8A,51.0849059436,4.13022675182
9220,Hamme,Slangstraat,22,51.0949118561,4.135748302
9220,Hamme,Bootdijkstraat,69,51.0778007649,4.16508172878
9220,Hamme,Geeststraat,46,51.0687566827,4.15635645414
9220,Hamme,Zogge,28,51.0756889958,4.09497471017
9220,Hamme,Kleinbroekstraat,32,51.0660522126,4.15919392315
9220,Hamme,Noordstraat,4,51.0948836737,4.14432315355
9220,Hamme,Noordstraat,253,51.0984540508,4.15560340737
9220,Hamme,Noordstraat,28,51.0958994484,4.14677103647
9220,Hamme,Lippeveld,40,51.0799541311,4.10763747597
9220,Hamme,De Ring,27,51.0974259189,4.13396135924
9220,Hamme,Mandemakerstraat,108,51.1000320665,4.14235978786
9220,Hamme,Zogge,4,51.0755515814,4.09289895936
9220,Hamme,De Ring,3,51.0964101619,4.13531488419
9220,Hamme,St. Anna,22,51.0950224089,4.07924211017
9220,Hamme,Broekstraat,70,51.0896073211,4.15811499755
9220,Hamme,Heirbaan,116,51.0833578469,4.08889246404
9220,Hamme,Toekomststraat,60,51.0979430109,4.12409882226
9220,Hamme,Bloemenstraat,33,51.0668616337,4.15431326288
9220,Hamme,Koningin Astridlaan,17,51.0919698773,4.13974376141
9220,Hamme,Kaaldries,74,51.0985028915,4.12356126884
9220,Hamme,Amaat Jooslaan,27,51.0898952178,4.14333076663
9220,Hamme,Tuinbouwlaan,19,51.0503912812,4.16204802704
9220,Hamme,Driegotenkouter,108,51.0947528253,4.15576382912
9220,Hamme,Zilverberkstraat,21,51.0889660289,4.15105076572
9220,Hamme,Hazeldonk,1,51.0695535501,4.15165442881
9220,Hamme,Aartstraat,16,51.0992770786,4.13081162999
9220,Hamme,Ripipiaberg,20,51.0473887387,4.16966938219
9220,Hamme,Groeneboomgaardstraat,51,51.0985051235,4.14662194044
9220,Hamme,Biezestraat,8,51.1007811874,4.14357981598
9220,Hamme,Pieter Jan Boellaan,5,51.0876377951,4.13919386714
9220,Hamme,Zwanehals,21,51.0887624359,4.12681660835
9220,Hamme,Bootdijkstraat,87,51.0794715823,4.16277585775
9220,Hamme,Mandemakerstraat,126,51.1000713099,4.1429513532
9220,Hamme,Schaubeke,20,51.0810336326,4.12969959566
9220,Hamme,Bareelstraat,12,51.0964874025,4.12868264012
9220,Hamme,Meerstraat,120,51.0757233957,4.1114849643
9220,Hamme,Hazeldonk,25,51.0703323058,4.15335005834
9220,Hamme,Baljuwstraat,5,51.0692499897,4.15366847038
9220,Hamme,Hulstwijk,38,51.0670431251,4.14657626388
9220,Hamme,Kauterstraat,6,51.0650409308,4.15038825376
9220,Hamme,Reuzeweg,45,51.0893932488,4.12675982986
9220,Hamme,Killestraat,9,51.0587791889,4.15144009314
9220,Hamme,Buntstraat,77,51.1007501365,4.14703289341
9220,Hamme,Biezestraat,149,51.0998683498,4.15760650972
9220,Hamme,St. Anna,100E,51.0951297939,4.07033834122
9220,Hamme,Kruisbeeldstraat,103,51.0957170856,4.1142533808
9220,Hamme,Vlierkouter,17,51.0893265322,4.13131728316
9220,Hamme,Evangeliestraat,124,51.0918658501,4.11959129908
9220,Hamme,Pieter Vermeirelaan,14,51.08871516,4.14342550052
9220,Hamme,Kaaistraat,38,51.0998959842,4.13266269576
9220,Hamme,Neerstraat,154,51.0770687799,4.14655090828
9220,Hamme,Wuitenslaan,45,51.0872327319,4.13108282526
9220,Hamme,Achterthof,51,51.0973432783,4.13921059728
9220,Hamme,Driegotenkouter,73,51.0952226636,4.15431608025
9220,Hamme,Veldstraat,75G,51.0919883814,4.15009123717
9220,Hamme,Spoorwegstraat,65,51.0944365882,4.13135050644
9220,Hamme,Hofterbossen,49,51.0975558766,4.1414511091
9220,Hamme,Hooirt,6,51.0872025579,4.14439487046
9220,Hamme,Stationsstraat,25,51.096886297,4.12986602601
9220,Hamme,Zogge,46B,51.075554585,4.09808483074
9220,Hamme,Neerstraat,101,51.0806172533,4.14351847884
9220,Hamme,Spoorwegstraat,12,51.0942656245,4.13532641571
9220,Hamme,Geemstraat,28,51.0967093408,4.12740371862
9220,Hamme,Leopold III-laan,3,51.0902093464,4.13980459787
9220,Hamme,Hoogstraat,39,51.0980188554,4.13060573471
9220,Hamme,Koning Albertplein,13,51.0951950802,4.13050744681
9220,Hamme,Schaubeke,55,51.0803992973,4.12855220967
9220,Hamme,Spinnerstraat,5,51.0927275414,4.15466478313
9220,Hamme,Meerstraat,155,51.0738235268,4.11261630751
9220,Hamme,Kasteellaan,23,51.0633498434,4.15831983635
9220,Hamme,Pieter Vermeirelaan,49,51.0876822662,4.14419076193
9220,Hamme,Zogge,99,51.0786653634,4.10024388285
9220,Hamme,Kanunnik De Meyerlaan,40,51.0899491012,4.13234908591
9220,Hamme,Driegotenkouter,20,51.0955414024,4.14699984579
9220,Hamme,Legierstraat,6,51.0956628402,4.06768235599
9220,Hamme,Verbindingsstraat,26,51.0916337836,4.14348798677
9220,Hamme,Marktplein,3,51.0995527101,4.13864258213
9220,Hamme,Landbouwstraat,128,51.0873792682,4.14893638326
9220,Hamme,Hebbestraat,8,51.062408403,4.14713855593
9220,Hamme,Tuinbouwlaan,37,51.0510412472,4.16177562577
9220,Hamme,Kaaiplein,31,51.1042360395,4.13523280185
9220,Hamme,Dijkstraat,9,51.0991911039,4.14125245457
9220,Hamme,Boteraard,17,51.0745130714,4.10756660406
9220,Hamme,Verbindingsstraat,2,51.0928031501,4.14245520389
9220,Hamme,Bosstraat,10,51.0492019573,4.17007326344
9220,Hamme,Loystraat,101,51.0909232548,4.14055532795
9220,Hamme,Nieuwelaan,41,51.0977911192,4.12585266672
9220,Hamme,Broekstraat,12A,51.0920538816,4.1571933381
9220,Hamme,Spinnerstraat,29,51.0941924755,4.15403172999
9220,Hamme,Marktplein,27,51.099801617,4.1386918987
9220,Hamme,Peperstraat,18,51.0973803856,4.13892433397
9220,Hamme,Hammestraat,63,51.072152244,4.14975163452
9220,Hamme,Spoorwegstraat,30,51.0941013173,4.13442194259
9220,Hamme,Noordstraat,99,51.0968188698,4.14852498046
9220,Hamme,Noordstraat,271,51.098546713,4.15624597189
9220,Hamme,Kruisbeeldstraat,121,51.0954364978,4.11219431411
9220,Hamme,Toekomststraat,30A,51.0966032046,4.12544055422
9220,Hamme,Hooirt,192A,51.0864980183,4.13689676662
9220,Hamme,'t Spinnewiel,15,51.0921768198,4.128251938
9220,Hamme,Durmestraat,27,51.0987844632,4.12897352938
9220,Hamme,Geemhof,9,51.0967506128,4.12653085417
9220,Hamme,Gasmeterstraat,79,51.0926593537,4.13466352829
9220,Hamme,Cesar De Golspark,8,51.0932021079,4.15583524674
9220,Hamme,Kaaistraat,1A,51.0987223509,4.13322351102
9220,Hamme,Driegotenkouter,91,51.0951787687,4.15499519285
9220,Hamme,De Braakstraat,16,51.0455722296,4.17019556479
9220,Hamme,Moerheide,104A,51.092820043,4.11208102065
9220,Hamme,Evangeliestraat,106,51.0923373169,4.12070316533
9220,Hamme,Vooruitgangstraat,11,51.0937611785,4.1268768923
9220,Hamme,Plezantstraat,12,51.0974606813,4.13576718625
9220,Hamme,Veldstraat,7,51.0941964858,4.1451350955
9220,Hamme,Hooirt,230,51.084185064,4.13292987386
9220,Hamme,Wielstraat,16,51.0885155374,4.15872363931
9220,Hamme,Heirbaan,3,51.0919978048,4.09306681764
9220,Hamme,Vlaslaan,10,51.0925019148,4.12819188984
9220,Hamme,Hammestraat,45,51.0711868266,4.14950517391
9220,Hamme,Korte Geemstraat,32,51.0960288409,4.12440587558
9220,Hamme,Kruisbeeldstraat,174,51.0949620575,4.10625287816
9220,Hamme,Bloemenstraat,15,51.0678045456,4.15247257103
9220,Hamme,Heirbaan,252,51.0734679151,4.09319372776
9220,Hamme,Pannenkouter,11,51.0959766349,4.07667111481
9220,Hamme,Noubroekstraat,13,51.0993862844,4.1606537791
9220,Hamme,Tweebruggenplein,20,51.0946879268,4.14263996017
9220,Hamme,Meerstraat,102,51.0767645916,4.11103533633
9220,Hamme,Scheldestraat,42,51.0480282838,4.17191098286
9220,Hamme,Stationsstraat,1,51.0977062638,4.12955677815
9220,Hamme,Geemstraat,135,51.0948383251,4.12500019989
9220,Hamme,Strijderslaan,139,51.091442146,4.12709882024
9220,Hamme,Noordstraat,217,51.0983125786,4.1544160175
9220,Hamme,Hospitaalstraat,41,51.0940818219,4.14077391883
9220,Hamme,Mandemakerstraat,100C,51.0999942494,4.1417635054
9220,Hamme,Kruisbeeldstraat,49,51.0966554842,4.11785280644
9220,Hamme,De Braakstraat,9,51.0454136136,4.17064783893
9220,Hamme,Burgemeester Lemmensstraat,21,51.0642810198,4.15363175273
9220,Hamme,Jagerstraat,20,51.0987769389,4.13596065251
9220,Hamme,Zogge,46,51.0755018298,4.09789293338
9220,Hamme,Dendermondse Steenweg,15,51.0701067604,4.12086779203
9220,Hamme,Prieel,16,51.0910252549,4.14976714876
9220,Hamme,Biezestraat,232,51.0952343076,4.15643598769
9220,Hamme,Leeuwerikenlaan,33,51.0901738604,4.12734029495
9220,Hamme,Meerstraat,209,51.0711661578,4.10941491215
9220,Hamme,Pater Vertentenstraat,28,51.0914255909,4.15293090272
9220,Hamme,Noordstraat,46,51.0962757362,4.14773896922
9220,Hamme,Broekstraat,266,51.0872374838,4.14737821269
9220,Hamme,Veldstraat,42,51.0940443057,4.14499307595
9220,Hamme,Theet,51B,51.0796022925,4.13043794798
9220,Hamme,Kaaldries,117,51.0975506492,4.12043389751
9220,Hamme,Lippeveld,29,51.0795888236,4.10788253017
9220,Hamme,Schoolstraat,7,51.0986311166,4.13385753453
9220,Hamme,Dennenstraat,2A,51.0900179751,4.15045439919
9220,Hamme,Geemstraat,82,51.0954988472,4.12562172419
9220,Hamme,Evangeliestraat,71,51.0936909674,4.12294979191
9220,Hamme,Pompelhoekstraat,10,51.0703921283,4.15204718026
9220,Hamme,Broekstraat,34,51.0909708236,4.15871179105
9220,Hamme,Broekstraat,2K,51.0941612977,4.15668022821
9220,Hamme,Weverstraat,26,51.0813200777,4.12554181259
9220,Hamme,De Ring,63,51.0979728467,4.13371322112
9220,Hamme,Broekstraat,151,51.0876933742,4.15404449092
9220,Hamme,Hofterbossen,7,51.0980996124,4.14056451913
9220,Hamme,Sportpleinstraat,19,51.0925258607,4.14345272762
9220,Hamme,Petrus Van der Jeugdlaan,25,51.0910073449,4.15476455529
9220,Hamme,Dokter H.Hyleboslaan,17,51.0917468808,4.15617300375
9220,Hamme,Kleinbroekstraat,50,51.0660872245,4.16404277059
9220,Hamme,Driegoten,20,51.093561809,4.1607686872
9220,Hamme,Kruisbeeldstraat,57,51.0965164268,4.11738731989
9220,Hamme,Marktplein,10,51.0977526506,4.13696260593
9220,Hamme,Geemstraat,64,51.0959282774,4.12642589772
9220,Hamme,Mandemakerstraat,37,51.0999684836,4.14075200996
9220,Hamme,Broekstraat,248,51.0872741262,4.14880628308
9220,Hamme,Hospitaalstraat,67B,51.0943904903,4.14198504722
9220,Hamme,Hammestraat,47,51.0712991596,4.14953832055
9220,Hamme,Geemstraat,110,51.0948395227,4.12444804572
9220,Hamme,Buntstraat,24,51.1001916493,4.14445222153
9220,Hamme,Beekstraat,24,51.0842143061,4.13012152016
9220,Hamme,Pieter Vermeirelaan,7,51.0882695026,4.14423462253
9220,Hamme,Pastoor De Bruynestraat,1,51.0461806756,4.171958083
9220,Hamme,Kardinaal Jozef Cardijnlaan,42,51.0883083275,4.14070763738
9220,Hamme,Biezestraat,61,51.1019817613,4.15108585935
9220,Hamme,Tuinbouwlaan,55,51.0515380757,4.16147223221
9220,Hamme,Biezestraat,214,51.0963273427,4.15608115514
9220,Hamme,Damstraat,26,51.0918070383,4.13603407391
9220,Hamme,Kruisbeeldstraat,199,51.0940372664,4.10447017103
9220,Hamme,St. Anna,112C,51.0942551673,4.06799459235
9220,Hamme,Korte Geemstraat,24,51.0961161579,4.12464053236
9220,Hamme,Damstraat,62,51.0896261993,4.13559785942
9220,Hamme,Donkstraat,21,51.0641962494,4.14643895524
9220,Hamme,Albrecht Rodenbachlaan,38,51.0886043388,4.14513649128
9220,Hamme,Albrecht Rodenbachlaan,4,51.089528893,4.14516248549
9220,Hamme,Bremstraat,22,51.0986233554,4.14807809405
9220,Hamme,Moerheide,83,51.0923534444,4.1128336745
9220,Hamme,Vlierkouter,53,51.0879364057,4.12785249735
9220,Hamme,Noordstraat,188,51.0978678318,4.15497394451
9220,Hamme,Mergelbeek,60,51.0914851064,4.12286643448
9220,Hamme,Baasrodeveerstraat,50,51.0468385743,4.16863529004
9220,Hamme,Aartstraat,9,51.0993202815,4.13204929396
9220,Hamme,Transvaal,5,51.0909066624,4.13001110269
9220,Hamme,Waterstraat,2,51.0982091726,4.12004910309
9220,Hamme,Kapellestraat,25,51.0969175955,4.14052615961
9220,Hamme,Vlierkouter,71,51.0870440117,4.12751054771
9220,Hamme,Kleine Gasmeterstraat,6,51.0917945951,4.1351483018
9220,Hamme,Meerstraat,74,51.0784034372,4.1104114467
9220,Hamme,Noordstraat,110,51.0973618869,4.15056297366
9220,Hamme,Aartstraat,123,51.098768344,4.12851620997
9220,Hamme,Plezantstraat,20,51.0966856364,4.13579930209
9220,Hamme,Kruisbeeldstraat,22,51.0973292577,4.11872942986
9220,Hamme,Killestraat,16,51.0603496662,4.15154693644
9220,Hamme,Aubroeckstraat,1A,51.0537383113,4.16096262897
9220,Hamme,Toekomststraat,7,51.0970447598,4.12431835468
9220,Hamme,Bootdijkstraat,32A,51.0686159347,4.1615852821
9220,Hamme,Pastoor De Bruynestraat,15,51.0467551544,4.17211553149
9220,Hamme,Molenstraat,14,51.0626669148,4.15149085099
9220,Hamme,Achille Van Sassenbroucklaan,7,51.0967035695,4.15135788805
9220,Hamme,Driegoten,55,51.0937605085,4.16383423601
9220,Hamme,Damstraat,44,51.091198669,4.1358042895
9220,Hamme,Zwaarveld,56,51.070076747,4.12924251726
9220,Hamme,St. Renildestraat,17,51.0839195606,4.13461766326
9220,Hamme,Achterthof,33,51.0966658147,4.13825318459
9220,Hamme,Veldstraat,176,51.0913917185,4.15029527764
9220,Hamme,Slangstraat,50,51.0935147418,4.13562334844
9220,Hamme,Drapstraat,29,51.0973038099,4.14360279326
9220,Hamme,Hospitaalstraat,46D,51.0937602366,4.14074593398
9220,Hamme,Buntstraat,59,51.1005703392,4.14639929569
9220,Hamme,Kruisbeeldstraat,75,51.0961326703,4.11623779976
9220,Hamme,Kanunnik De Meyerlaan,29,51.0895377423,4.13273995985
9220,Hamme,Hulstwijk,21,51.0664758506,4.14605994874
9220,Hamme,Veldstraat,158,51.0917552655,4.14953821457
9220,Hamme,Meerstraat,56,51.0794575357,4.11208865329
9220,Hamme,Veldstraat,116A,51.0925511247,4.14769528349
9220,Hamme,Neerstraat,20,51.0854754969,4.13793496378
9220,Hamme,Vital Keullerlaan,7,51.0958690717,4.15512223569
9220,Hamme,Aubroeckstraat,38,51.0511531875,4.16427045277
9220,Hamme,Pastoor De Bruynestraat,33,51.0473358862,4.17192543539
9220,Hamme,Kleinhulst,67,51.0991141969,4.14169295862
9220,Hamme,Broekstraat,231,51.0869161619,4.14648385463
9220,Hamme,Kruisbeeldstraat,93,51.0958981596,4.11502410951
9220,Hamme,Evangeliestraat,17,51.0971561019,4.12248437511
9220,Hamme,Pater Vertentenstraat,64,51.0924006181,4.15636088476
9220,Hamme,Baasrodeveerstraat,39,51.0467791191,4.16930419864
9220,Hamme,Rozenhoed,9,51.09055298,4.13145480749
9220,Hamme,Mergelbeek,32,51.0892145576,4.12562433188
9220,Hamme,Kleinhulst,7,51.0978969957,4.1393056754
9220,Hamme,Groeneboomgaardstraat,33,51.0981696761,4.14591359522
9220,Hamme,Roodkruisstraat,80,51.100182138,4.14032739073
9220,Hamme,Nijverheidstraat,1A,51.0956455071,4.12647903463
9220,Hamme,Spurt,22,51.0834437565,4.13863554834
9220,Hamme,Guido Gezellelaan,8,51.0941236683,4.14370913111
9220,Hamme,Theet,24,51.0812989134,4.13100143756
9220,Hamme,Loystraat,20,51.0882022121,4.13822641089
9220,Hamme,Meerstraat,198,51.0717313045,4.10868427617
9220,Hamme,Aubroeckstraat,4,51.056081148,4.1594577916
9220,Hamme,Molenstraat,32,51.0624012883,4.15017272416
9220,Hamme,Hollandshof,14,51.0926419424,4.07449767685
9220,Hamme,Waterstraat,36,51.0999466404,4.11502047116
9220,Hamme,Leeuwerikenlaan,15,51.090652139,4.12861102771
9220,Hamme,Mandemakerstraat,19,51.0997082655,4.13987214545
9220,Hamme,Geeststraat,48,51.0688378904,4.15627733384
9220,Hamme,Koningsplein,5,51.0618387792,4.14916469084
9220,Hamme,Koning Boudewijnlaan,17,51.0666990204,4.1487828715
9220,Hamme,Calvarieberg,1,51.1003218426,4.14136317901
9220,Hamme,Polderstraat,3,51.0946825677,4.16160521175
9220,Hamme,Sint Baafswijk,8,51.0621427464,4.15295056648
9220,Hamme,Pieter Jan Boellaan,12,51.0875495559,4.1402311984
9220,Hamme,Priester Edward Poppestraat,21,51.0685641116,4.14655978971
9220,Hamme,Driegoten,91,51.0929562973,4.17038673611
9220,Hamme,Landbouwstraat,5,51.0921844309,4.14772284748
9220,Hamme,Baljuwstraat,12,51.0688478793,4.1534019543
9220,Hamme,Noordstraat,26A,51.0957424055,4.14633624863
9220,Hamme,Albrecht Rodenbachlaan,56,51.0886088139,4.14555452177
9220,Hamme,Dendermondse Steenweg,19A,51.0694609834,4.11923905662
9220,Hamme,Broekstraat,87,51.0897367959,4.15924842105
9220,Hamme,Driegotenkouter,116,51.0948641144,4.15601755719
9220,Hamme,Vuurkruisenlaan,11,51.091553093,4.1184684737
9220,Hamme,Tweebruggenplein,3,51.0952039674,4.14362472195
9220,Hamme,Moerheide,182,51.0933065373,4.10908375044
9220,Hamme,Roggemanstraat,25,51.060395446,4.14951606706
9220,Hamme,Bootdijkstraat,52,51.0704030887,4.1621883195
9220,Hamme,Zogge,11,51.0760271223,4.09375872575
9220,Hamme,Hebbestraat,25,51.0620043385,4.13400306745
9220,Hamme,Scheldestraat,30A,51.0481558139,4.17071285153
9220,Hamme,Ekelbeke,124,51.0841511587,4.10097627962
9220,Hamme,Drapstraat,9A,51.095829516,4.14344356648
9220,Hamme,Kleine Gasmeterstraat,31,51.0912709957,4.13565034557
9220,Hamme,Tweebruggenplein,19,51.0943039563,4.14345817521
9220,Hamme,Killestraat,2,51.0584158661,4.151592827
9220,Hamme,Geemstraat,145,51.0944160123,4.12412179291
9220,Hamme,Sint Bernarduswijk,15,51.0500559928,4.16974806321
9220,Hamme,Theet,59,51.0786079819,4.12974634738
9220,Hamme,Hollandshof,49,51.0929984186,4.07633553079
9220,Hamme,Evangeliestraat,35,51.0967876711,4.12266775013
9220,Hamme,Hammestraat,27,51.0703922211,4.15014449402
9220,Hamme,Driegotenkouter,19,51.0959869783,4.14810477327
9220,Hamme,Amaat Jooslaan,10,51.0890244947,4.14348724384
9220,Hamme,Koning Boudewijnlaan,1,51.0664884214,4.15073018265
9220,Hamme,Ardoystraat,69,51.092103424,4.09360689377
9220,Hamme,Hooirt,240,51.0831870483,4.13213042368
9220,Hamme,Ripipiaberg,37,51.048223176,4.16913021995
9220,Hamme,Meulenbroekstraat,22,51.1010591275,4.13482817615
9220,Hamme,Stuyfbergen,10,51.0464017019,4.17157270827
9220,Hamme,Verbindingsstraat,62,51.09086722,4.14434251409
9220,Hamme,Mergelbeek,14,51.0884174314,4.12575906065
9220,Hamme,Damstraat,143,51.0866852022,4.1380177844
9220,Hamme,Noordstraat,11,51.0955726732,4.14513224549
9220,Hamme,Pieter Jan Boellaan,30,51.0879949291,4.13901185548
9220,Hamme,Hooirt,61A,51.0850918865,4.13438845793
9220,Hamme,Slangstraat,5,51.0956645749,4.13597267667
9220,Hamme,Biezestraat,142,51.0999963153,4.15673222282
9220,Hamme,Spinnerstraat,12,51.0931754351,4.15495150689
9220,Hamme,Scheldestraat,24,51.0482736987,4.17036097483
9220,Hamme,Leopold III-laan,45,51.0911063211,4.13711492366
9220,Hamme,Korte Geemstraat,7,51.0959755535,4.12511091559
9220,Hamme,Nijverheidstraat,4,51.0950151422,4.12653439472
9220,Hamme,Nijverheidstraat,38,51.094058275,4.12745604751
9220,Hamme,Gasmeterstraat,44,51.0925875703,4.13422881288
9220,Hamme,Meerstraat,127,51.0758050485,4.11232752687
9220,Hamme,Hooirt,58,51.0868462892,4.13880553753
9220,Hamme,Spoorwegstraat,40,51.0942440981,4.13380670855
9220,Hamme,Loystraat,91,51.0906144616,4.14035571718
9220,Hamme,Buntstraat,7,51.1004024187,4.14396881209
9220,Hamme,Zilverberkstraat,4,51.088478304,4.15008219265
9220,Hamme,Ripipiaberg,3,51.0467774418,4.17012316226
9220,Hamme,Guillaumestraat,9,51.0946869775,4.13534944188
9220,Hamme,Driegotenkouter,101,51.0951706156,4.15555794455
9220,Hamme,Pater Vertentenstraat,46,51.0916910169,4.15376184338
9220,Hamme,Kauterstraat,23,51.0652838382,4.14923759086
9220,Hamme,Ganzenberg,57,51.0478443049,4.16341911056
9220,Hamme,Broekstraat,69,51.0901392447,4.1602249166
9220,Hamme,Driegotenkouter,134,51.0946684655,4.15673988755
9220,Hamme,Hospitaalstraat,13,51.0930141752,4.13709879161
9220,Hamme,Zwanehals,4,51.0891058386,4.12722589956
9220,Hamme,Zwanehals,38,51.0882150938,4.12668027278
9220,Hamme,Driegoten,73,51.092876081,4.16897636192
9220,Hamme,Schaubeke,37,51.0806815725,4.1298503733
9220,Hamme,Bootdijkstraat,70,51.0737949537,4.16393852569
9220,Hamme,Cesar De Golspark,25,51.0940374464,4.15598776104
9220,Hamme,Achterthof,68,51.0961072629,4.13793830798
9220,Hamme,Kaaistraat,21,51.0996752624,4.13241468677
9220,Hamme,Maurits Tilleylaan,9,51.0973601679,4.15483892778
9220,Hamme,Loystraat,40,51.0886215294,4.13881967094
9220,Hamme,Bloemenstraat,8,51.0682284861,4.15101570649
9220,Hamme,Jules Vincartpark,21,51.0868109428,4.1334042131
9220,Hamme,Nijverheidstraat,102,51.0920205463,4.12955823059
9220,Hamme,Zuybroekstraat,13,51.0840282664,4.14163824965
9220,Hamme,Tuinbouwlaan,73,51.0520988105,4.16111506828
9220,Hamme,Noordstraat,82,51.096620547,4.14870263984
9220,Hamme,Achterthof,15,51.0961781227,4.13753825456
9220,Hamme,Evangeliestraat,170,51.0901905731,4.11860220819
9220,Hamme,Schaubeke,19,51.0821552129,4.12953946844
9220,Hamme,Damstraat,79,51.0896658803,4.13644035067
9220,Hamme,Oostkouterstraat,66,51.0899289675,4.15005544782
9220,Hamme,Neerstraat,108,51.0805938044,4.14281805715
9220,Hamme,Moerheide,30,51.0903392324,4.11690073994
9220,Hamme,Moerzekestraat,7,51.0774837073,4.12946397507
9220,Hamme,Mergelbeek,49,51.0906422752,4.12319571849
9220,Hamme,Veldstraat,194,51.0903327384,4.1513183291
9220,Hamme,Damputstraat,8,51.0916029461,4.13761533575
9220,Hamme,Killestraat,34,51.0607342813,4.1522207161
9220,Hamme,Wuitenslaan,27,51.0867149284,4.13195691472
9220,Hamme,Moerheide,65,51.0921784036,4.11448741183
9220,Hamme,Meerstraat,92,51.0773314784,4.11047970888
9220,Hamme,Nieuwelaan,66,51.0984350943,4.12559707603
9220,Hamme,Tuinbouwlaan,20,51.0502337472,4.16284506246
9220,Hamme,Abdijstraat,17,51.0472511122,4.17138162044
9220,Hamme,Nieuwelaan,13,51.0972811416,4.12706144651
9220,Hamme,St. Renildestraat,1,51.0847296852,4.13391573453
9220,Hamme,Hoogstraat,22,51.0984968322,4.13125143197
9220,Hamme,Sint-Martensommegangstraat,42,51.0653254528,4.15103373892
9220,Hamme,Stationsstraat,43,51.0960063557,4.13021097047
9220,Hamme,Reuzeweg,27,51.0894951274,4.12818647467
9220,Hamme,Oostkouterstraat,13,51.0893995806,4.14940677746
9220,Hamme,Posthoornstraat,70,51.0926377517,4.1352855581
9220,Hamme,Meerstraat,109,51.0771967951,4.11141409678
9220,Hamme,Dokter H.Hyleboslaan,1,51.09143944,4.15581098825
9220,Hamme,Biezestraat,96,51.1014217151,4.15209111546
9220,Hamme,Mispelaarstraat,5,51.0759114335,4.09122066173
9220,Hamme,Noordstraat,64,51.0964523718,4.14822320966
9220,Hamme,Bootdijkstraat,9,51.0674627648,4.15996114956
9220,Hamme,Strijderslaan,195,51.0915121088,4.1215902195
9220,Hamme,Heirbaan,216,51.0756148346,4.09184896547
9220,Hamme,Ekelbeke,159,51.082957685,4.10037428783
9220,Hamme,Neerstraat,126,51.0793712684,4.144067578
9220,Hamme,Neerlandt,12,51.0749766416,4.0936281915
9220,Hamme,Wielstraat,9,51.0888837424,4.15909023253
9220,Hamme,Driegotenkouter,3,51.095774347,4.14668769134
9220,Hamme,Hooirt,23,51.0868373112,4.14286876641
9220,Hamme,Broekstraat,166B,51.0883522133,4.15249031118
9220,Hamme,Wielstraat,52,51.0864329678,4.16048672705
9220,Hamme,Noordstraat,235,51.0983651494,4.15500451227
9220,Hamme,Kardinaal Jozef Cardijnlaan,24,51.0888158657,4.14067476849
9220,Hamme,Bootdijkstraat,13A,51.0682187991,4.16076328009
9220,Hamme,Neerstraat,40,51.0844783058,4.13846035572
9220,Hamme,Vlaslaan,27,51.0921622085,4.12532856583
9220,Hamme,Ripipiaberg,19,51.0474805985,4.16907861656
9220,Hamme,'t Spinnewiel,8,51.0919789703,4.12900218918
9220,Hamme,Heirbaan,269,51.0741331602,4.09295139263
9220,Hamme,Petrus Van der Jeugdlaan,5A,51.0896580846,4.15509471061
9220,Hamme,Spinnerstraat,30,51.0942226182,4.15449451599
9220,Hamme,Lindestraat,5,51.0891125916,4.14753821323
9220,Hamme,Geemhof,26,51.0980593308,4.12510222871
9220,Hamme,Verbindingsstraat,44,51.0912565186,4.14372274479
9220,Hamme,Spoorwegstraat,29,51.0940760092,4.13294993707
9220,Hamme,Geemstraat,46,51.0961877547,4.12689378176
9220,Hamme,Veldstraat,24,51.094308159,4.14458199364
9220,Hamme,Doorn,10,51.0952793704,4.06789251994
9220,Hamme,Moerheide,12,51.0900581947,4.11785171007
9220,Hamme,Noubroekstraat,6,51.0986666349,4.15871858809
9220,Hamme,Loystraat,108,51.094140363,4.14280047646
9220,Hamme,Damstraat,97,51.0877188366,4.13742152924
9220,Hamme,Geemstraat,89,51.0957260202,4.12650973821
9220,Hamme,Roodkruisstraat,48,51.1001503557,4.13951079396
9220,Hamme,Mandemakerstraat,10,51.0986027252,4.13898958
9220,Hamme,Acaciastraat,20,51.0891154288,4.15124889533
9220,Hamme,Broekstraat,7,51.0921474974,4.15766966501
9220,Hamme,Donkstraat,41,51.0658268176,4.14628186735
9220,Hamme,Loystraat,3,51.0883738173,4.13786175421
9220,Hamme,Vital Keullerlaan,24,51.0959357572,4.1538750035
9220,Hamme,Transvaal,30,51.0895596342,4.1305230868
9220,Hamme,Albrecht Rodenbachlaan,31,51.0893481561,4.14541583773
9220,Hamme,Kleinhulst,75E,51.0993937717,4.14273704709
9220,Hamme,Nijverheidstraat,66,51.0928900347,4.12875758247
9220,Hamme,Hammestraat,55,51.0720072089,4.14909813349
9220,Hamme,Nieuwelaan,21,51.0973824125,4.12686920398
9220,Hamme,Lippeveld,22,51.0799482121,4.1097270989
9220,Hamme,Rietstraat,25,51.0995444882,4.14542081558
9220,Hamme,Sint-Martensommegangstraat,52B,51.067444671,4.15068508128
9220,Hamme,Juliaan Anthoonlaan,3,51.0873923897,4.14146938834
9220,Hamme,Abtsbroeksken,12,51.0508496412,4.17217254768
9220,Hamme,Stationsstraat,17,51.0971459369,4.12984229076
9220,Hamme,Veldstraat,49,51.0927873453,4.14788430157
9220,Hamme,Kaaiplein,6,51.1010616351,4.13332840053
9220,Hamme,Spurt,40,51.0831701626,4.13786596049
9220,Hamme,Achterthof,8,51.095088474,4.13651855103
9220,Hamme,Heirbaan,295,51.072934717,4.09607202594
9220,Hamme,Jules Vincartpark,13,51.0873363704,4.13260659997
9220,Hamme,Oostkouterstraat,21,51.0895841675,4.14943132055
9220,Hamme,Hammestraat,73,51.0731568002,4.1496787447
9220,Hamme,Albert Van Heckelaan,3,51.0843253204,4.12923326473
9220,Hamme,Neerstraat,146,51.0778360557,4.14573019941
9220,Hamme,Zwaarveld,41,51.0743483854,4.13435993992
9220,Hamme,Posthoornstraat,26,51.0933310783,4.13515706365
9220,Hamme,Jagerstraat,3,51.0989752567,4.13583589486
9220,Hamme,Abtsbroeksken,30,51.0496547909,4.17198930403
9220,Hamme,Kruisbeeldstraat,42,51.0969215346,4.11763182692
9220,Hamme,Ekelbeke,91,51.0877699184,4.10505927577
9220,Hamme,Damstraat,125,51.0870151909,4.13783718561
9220,Hamme,Boteraard,25,51.0743081505,4.10656381274
9220,Hamme,Achille Van Sassenbroucklaan,24,51.0967618279,4.15214775791
9220,Hamme,Achterthof,94,51.0968538615,4.13899243835
9220,Hamme,Schaubeke,45,51.0800434762,4.12924114418
9220,Hamme,Prieel,7,51.0907092135,4.14909220345
9220,Hamme,De Braakstraat,2,51.0459969759,4.17084858126
9220,Hamme,Verbindingsstraat,34,51.091525541,4.14362082422
9220,Hamme,Toekomststraat,24,51.0964093463,4.12563056443
9220,Hamme,Aartstraat,2,51.0995837629,4.13160982697
9220,Hamme,Hebbestraat,88,51.0626249058,4.14106338566
9220,Hamme,Ekelbeke,216,51.0794238955,4.09392988119
9220,Hamme,Nijverheidstraat,84,51.0925386266,4.12905128546
9220,Hamme,Geeststraat,28,51.0679915001,4.15583162619
9220,Hamme,Kapellestraat,53,51.0964899436,4.14194748712
9220,Hamme,Hulstwijk,41,51.0668671293,4.14605481083
9220,Hamme,Noordstraat,109,51.0969737727,4.14892510643
9220,Hamme,Damputstraat,71,51.0938651884,4.14203540653
9220,Hamme,Groeneboomgaardstraat,8,51.0975664666,4.14502552203
9220,Hamme,Broekstraat,32A,51.0909876372,4.1586130854
9220,Hamme,Geeststraat,90,51.0710713216,4.15401253047
9220,Hamme,Kleinbroekstraat,7,51.0667823544,4.15645669169
9220,Hamme,Transvaal,12,51.0904873285,4.13005405946
9220,Hamme,Driegotenkouter,122A,51.0948278754,4.15630992554
9220,Hamme,Slangstraat,65,51.093135209,4.13643372799
9220,Hamme,Achterthof,58,51.0959505452,4.13768655286
9220,Hamme,Aartstraat,52,51.0991045507,4.12861656121
9220,Hamme,Biezestraat,88,51.1014684421,4.15071304814
9220,Hamme,Geemstraat,127,51.0949534381,4.12520173265
9220,Hamme,Hammestraat,91,51.0747490216,4.14886370736
9220,Hamme,Heirbaan,277,51.0739277699,4.09384152223
9220,Hamme,St. Anna,65,51.0941017855,4.0778214816
9220,Hamme,Moerheide,108,51.0928041603,4.11151470922
9220,Hamme,Kruisbeeldstraat,221,51.0931012681,4.10287230666
9220,Hamme,Rietstraat,1,51.0983968625,4.14569552298
9220,Hamme,Kruisbeeldstraat,166,51.0950128313,4.10746424146
9220,Hamme,Hebbestraat,104,51.0627205952,4.13798240383
9220,Hamme,Sint-Martensommegangstraat,60,51.0679179184,4.15047944158
9220,Hamme,Drapstraat,22,51.0965791968,4.1440164009
9220,Hamme,Geeststraat,54,51.0691313506,4.15611165063
9220,Hamme,Landbouwstraat,30,51.0919764371,4.14734285778
9220,Hamme,Kanunnik De Meyerlaan,22,51.090180649,4.1332472818
9220,Hamme,Hospitaalstraat,56,51.0940877289,4.14178880892
9220,Hamme,Kaaldries,18,51.099125774,4.12663736055
9220,Hamme,Veldstraat,85,51.0916572058,4.15051514207
9220,Hamme,Hofterbossen,24,51.0972505388,4.14141119011
9220,Hamme,Rijbunder,5,51.093431512,4.06514557371
9220,Hamme,Boteraard,1,51.0753048077,4.11137310983
9220,Hamme,Reuzeweg,55,51.089354745,4.12613044253
9220,Hamme,Baasrodeveerstraat,30,51.0478317673,4.16831675889
9220,Hamme,St. Anna,101,51.0947497581,4.07313390642
9220,Hamme,Noordstraat,173,51.0978632493,4.15201090694
9220,Hamme,Hebbestraat,6A,51.0625065529,4.14718145776
9220,Hamme,Pater Vertentenstraat,75B,51.0926658829,4.15601282354
9220,Hamme,Vrijboomstraat,15A,51.0496124819,4.16794407887
9220,Hamme,Landbouwstraat,65,51.0892013619,4.14862497134
9220,Hamme,Kruisbeeldstraat,29,51.0970148229,4.11889727273
9220,Hamme,Bremstraat,5,51.098657995,4.14718183169
9220,Hamme,Baasrodeveerstraat,65,51.040228951,4.16662154732
9220,Hamme,Marktplein,19,51.0984866481,4.13726790765
9220,Hamme,Sportpleinstraat,10,51.0933488668,4.14424927688
9220,Hamme,Sint-Martensommegangstraat,14,51.0643039797,4.15227386363
9220,Hamme,Plezantstraat,3,51.0974002169,4.13706399124
9220,Hamme,Molenstraat,21A,51.0616612428,4.14998630814
9220,Hamme,Lange Maat,50,51.072461081,4.11378316053
9220,Hamme,Donkstraat,2A,51.0623514783,4.14813451056
9220,Hamme,Leopold III-laan,19,51.0904105192,4.13892508781
9220,Hamme,Kaaldries,102,51.0981082081,4.1226174207
9220,Hamme,Pieter Jan Boellaan,50,51.0873049739,4.13893516638
9220,Hamme,Koningsplein,30,51.062299689,4.14923799547
9220,Hamme,Plezantstraat,27,51.0963037367,4.13618320374
9220,Hamme,Priester Edward Poppestraat,41,51.0694815115,4.14375040808
9220,Hamme,Damputstraat,53,51.0932460377,4.14063381139
9220,Hamme,Jozef De Gravepark,23,51.0983059382,4.14203021229
9220,Hamme,Ardoystraat,80,51.0931125681,4.09312792147
9220,Hamme,Drapstraat,93,51.1005635133,4.14284405089
9220,Hamme,Rijbekestraat,2,51.0993489875,4.13885543965
9220,Hamme,Geemstraat,109,51.0952386041,4.12565776158
9220,Hamme,Hazeldonk,17,51.0700142653,4.15280123314
9220,Hamme,Roodkruisstraat,34,51.0998906536,4.13945681427
9220,Hamme,St. Anna,122C,51.0933223928,4.06588355053
9220,Hamme,Driegoten,67A,51.092455844,4.1663271814
9220,Hamme,Theet,87A,51.0755812373,4.12762257668
9220,Hamme,Hospitaalstraat,74,51.0943010109,4.14243327378
9220,Hamme,Spurt,29,51.0828789409,4.13540277356
9220,Hamme,Geeststraat,72,51.0698282395,4.15505215607
9220,Hamme,Veldstraat,105,51.0912635697,4.15104409962
9220,Hamme,Kruisbeeldstraat,148,51.0951571618,4.10932802099
9220,Hamme,Loystraat,27,51.0889202737,4.138657493
9220,Hamme,Rozenhoed,2,51.0911813495,4.13076292457
9220,Hamme,Kapellestraat,71,51.0956492482,4.1426681579
9220,Hamme,Koningsplein,12,51.0613539146,4.1487293232
9220,Hamme,Polderstraat,10,51.0955165436,4.16232013025
9220,Hamme,Spurt,7E,51.0828810585,4.13886992875
9220,Hamme,Schaubeke,81,51.0813715652,4.12711060404
9220,Hamme,Vlierkouter,25,51.0890529039,4.13028644543
9220,Hamme,Meerstraat,181,51.0718751303,4.11247085756
9220,Hamme,Hospitaalstraat,21,51.0930946428,4.13729123893
9220,Hamme,Hebbestraat,48,51.0626948595,4.14474297484
9220,Hamme,Landbouwstraat,12,51.0924634931,4.14722008591
9220,Hamme,Leeuwerikenlaan,8,51.0909061339,4.12912771463
9220,Hamme,Kaaldries,36,51.0992843895,4.12495638465
9220,Hamme,Baasrodeveerstraat,12,51.0486779348,4.16796618576
9220,Hamme,Hamveer,1,51.1040958929,4.14061686299
9220,Hamme,Sint-Martensommegangstraat,32,51.0647738396,4.15100562666
9220,Hamme,Zogge,127,51.079653166,4.10239358956
9220,Hamme,Dendermondse Steenweg,58,51.0683829933,4.11659632031
9220,Hamme,Mandemakerstraat,118,51.0998982173,4.14254488383
9220,Hamme,Doorn,19,51.0943821122,4.06719182691
9220,Hamme,Bootdijkstraat,79,51.0784514441,4.16496175048
9220,Hamme,Slangstraat,12,51.0959720262,4.13475933685
9220,Hamme,Neerstraat,93,51.0811764915,4.14302046197
9220,Hamme,Leeuwerikenlaan,58,51.0906754324,4.12510191285
9220,Hamme,Hulstwijk,13,51.067052864,4.14573336627
9220,Hamme,St. Anna,12,51.0949073418,4.0916520589
9220,Hamme,Broekstraat,80,51.0891053077,4.15686493875
9220,Hamme,Spurt,5,51.0832401117,4.1398620167
9220,Hamme,Mandemakerstraat,45,51.1002699539,4.14149149005
9220,Hamme,Ripipiaberg,10,51.0472869812,4.17025605185
9220,Hamme,Hooirt,220,51.0852572269,4.13345553823
9220,Hamme,Zuybroekstraat,6,51.0834536606,4.14143224272
9220,Hamme,Noordstraat,263,51.0985067515,4.15596748801
9220,Hamme,Damstraat,48,51.0910768352,4.13583229997
9220,Hamme,Biezestraat,139,51.1005115009,4.15690278216
9220,Hamme,Pieter Jan Boellaan,39,51.0877819322,4.13856987716
9220,Hamme,Tramstraat,44A,51.0493015476,4.16015541695
9220,Hamme,Nijverheidstraat,31,51.0922584784,4.13000150855
9220,Hamme,Oostkouterstraat,6,51.0877779535,4.14929075909
9220,Hamme,St. Anna,30,51.0950697189,4.07859388169
9220,Hamme,Driegoten,24D,51.0937902368,4.16180599611
9220,Hamme,Loystraat,111,51.091312767,4.14080122389
9220,Hamme,Durmestraat,19,51.0986920058,4.12916958257
9220,Hamme,Zwanehals,31,51.0883798991,4.12705094288
9220,Hamme,Broekstraat,223,51.0869467736,4.14799800517
9220,Hamme,Populierenstraat,16,51.0905165833,4.15069586906
9220,Hamme,Kasteellaan,15,51.0620779633,4.15499400493
9220,Hamme,Driegotenkouter,81,51.0952203526,4.15452892904
9220,Hamme,Jules Vincartpark,41,51.0866316067,4.13498619333
9220,Hamme,Kleinhulst,59,51.0990626594,4.14139583814
9220,Hamme,Nieuwelaan,6,51.0972054325,4.12779902288
9220,Hamme,Geemstraat,18,51.09725951,4.12844428321
9220,Hamme,Sint-Martensommegangstraat,22A,51.0646952571,4.15148374458
9220,Hamme,Noordstraat,155,51.097651616,4.15067069149
9220,Hamme,Jef De Boecklaan,3,51.0887743981,4.1319261062
9220,Hamme,Osschaerthoek,13,51.0932854661,4.13197369687
9220,Hamme,Noordstraat,245,51.0984133697,4.1553254989
9220,Hamme,Broekstraat,62,51.0899908513,4.15896110759
9220,Hamme,Vredestraat,16,51.0672738932,4.15269885519
9220,Hamme,Loystraat,75,51.0898707246,4.13965952188
9220,Hamme,Neerstraat,111,51.0802005581,4.14391205599
9220,Hamme,Neerlandt,50,51.0748881285,4.0956551512
9220,Hamme,Ganzenberg,40,51.0486518231,4.16359597708
9220,Hamme,Ekelbeke,144,51.0830214919,4.09910421616
9220,Hamme,Bloemenstraat,23,51.0676289087,4.15301750266
9220,Hamme,Bootdijkstraat,68C,51.0735254415,4.16387235566
9220,Hamme,Buntstraat,67,51.100662387,4.14663970433
9220,Hamme,Guillaumestraat,2,51.0950713103,4.13533396792
9220,Hamme,Tramstraat,1,51.0499837396,4.16521862891
9220,Hamme,Broekstraat,205,51.086718357,4.14944243495
9220,Hamme,Zwaarveld,13,51.0771124775,4.14079630288
9220,Hamme,Slangstraat,30,51.0946483199,4.13566567616
9220,Hamme,Spoorwegstraat,57,51.0943022184,4.13167093769
9220,Hamme,Meerstraat,110,51.0763472139,4.11081916939
9220,Hamme,Ekelbeke,269,51.0771331461,4.09272898214
9220,Hamme,Mandemakerstraat,63,51.1002511114,4.1423530198
9220,Hamme,Pieter Vermeirelaan,24,51.088080266,4.14337302957
9220,Hamme,Schaubeke,10,51.0818872156,4.12907674848
9220,Hamme,Neerstraat,75,51.0833817384,4.14058644832
9220,Hamme,Hospitaalstraat,6,51.0927458218,4.13717220144
9220,Hamme,'t Spinnewiel,23,51.0919234334,4.12807995269
9220,Hamme,Albrecht Rodenbachlaan,41,51.0883265201,4.14491330508
9220,Hamme,Meulenbroekstraat,5,51.1004404471,4.13447549303
9220,Hamme,Landbouwstraat,83,51.0885892116,4.1488136763
9220,Hamme,Driegoten,48A,51.0930925537,4.1647742553
9220,Hamme,Meulenbroekstraat,29,51.1003058134,4.13357917768
9220,Hamme,Weststraat,16,51.0970842674,4.14657927695
9220,Hamme,Moerheide,50,51.0910165033,4.11633372301
9220,Hamme,Ardoystraat,62,51.0931797672,4.09438680332
9220,Hamme,Theet,85,51.0767187175,4.12842836365
9220,Hamme,Heirbaan,242,51.0737975546,4.09243043078
9220,Hamme,Bareelstraat,22,51.0961277507,4.1288559261
9220,Hamme,Zogge,36,51.0751374318,4.09711553507
9220,Hamme,Loystraat,57,51.0894504147,4.1393862465
9220,Hamme,Aubroeckstraat,16A,51.0529837628,4.16054595282
9220,Hamme,Gasmeterstraat,69,51.0928496637,4.13435382843
9220,Hamme,Ganzenberg,29,51.0476489199,4.16656836487
9220,Hamme,Driegotenkouter,45,51.0957458742,4.15119816399
9220,Hamme,Beekstraat,34,51.0838535284,4.12858575402
9220,Hamme,Reuzeweg,20,51.0899255603,4.12856265087
9220,Hamme,Marktplein,37,51.098970036,4.1384026063
9220,Hamme,Noordstraat,36,51.0960801531,4.14745809977
9220,Hamme,Kaaldries,120,51.0980470342,4.12211894726
9220,Hamme,Guillaumestraat,26,51.093450622,4.13257338433
9220,Hamme,Wuitenslaan,20,51.0861009273,4.13341234286
9220,Hamme,Sint Bernarduswijk,2A,51.0495198899,4.17028269484
9220,Hamme,Tuinbouwlaan,27,51.0507209854,4.16193861777
9220,Hamme,Spinnerstraat,39,51.0947495204,4.15373811854
9220,Hamme,Hoogstraat,29,51.0982486332,4.13133249087
9220,Hamme,Lindestraat,12,51.0887478331,4.14759145849
9220,Hamme,Geemstraat,40A,51.0965253439,4.12740609322
9220,Hamme,Dendermondse Steenweg,28A,51.0714275489,4.1211033624
9220,Hamme,Loystraat,98,51.0935317164,4.14260642258
9220,Hamme,Burgemeester Lemmensstraat,41,51.0646768934,4.1542256676
9220,Hamme,Damstraat,107,51.0874133534,4.13758431503
9220,Hamme,Noordstraat,18,51.0954037697,4.14570190659
9220,Hamme,Mergelbeek,42,51.090071789,4.12547501341
9220,Hamme,Hofterbossen,59,51.097383638,4.14163181563
9220,Hamme,Gasmeterstraat,16,51.093746301,4.13263613011
9220,Hamme,Broekstraat,141,51.0879161261,4.15444524615
9220,Hamme,Molenstraat,42,51.0622869416,4.14948925856
9220,Hamme,Bootdijkstraat,90B,51.0770880554,4.16551147442
9220,Hamme,Maurits Tilleylaan,2,51.0974424152,4.15315503789
9220,Hamme,Stuyfbergen,19,51.0457192093,4.17246181728
9220,Hamme,Damputstraat,23,51.0921652033,4.13789347591
9220,Hamme,Driegotenkouter,13B,51.0958338414,4.1475930192
9220,Hamme,Amaat Jooslaan,19,51.0893490747,4.14334152696
9220,Hamme,Slangstraat,83,51.0928891803,4.13670658406
9220,Hamme,Driegoten,65E,51.0925435183,4.16592655903
9220,Hamme,Ekelbeke,240A,51.0777058573,4.09274045123
9220,Hamme,Driegotenkouter,10,51.0955437057,4.14669435059
9220,Hamme,Wuitenslaan,47,51.0871579126,4.13070955253
9220,Hamme,Jules De Brouwerpark,38,51.0934122502,4.15240745872
9220,Hamme,Tweebruggenplein,10,51.094871304,4.1427835367
9220,Hamme,Hooigat,12,51.0822131348,4.08539521091
9220,Hamme,Spoorwegstraat,22,51.0941870008,4.13497693759
9220,Hamme,Tuinbouwlaan,3,51.0494690579,4.16264077663
9220,Hamme,Vlaslaan,20,51.0927108412,4.12701420283
9220,Hamme,Hoogstraat,5,51.0983708088,4.13322927404
9220,Hamme,Zogge,18,51.0756412867,4.09370690913
9220,Hamme,Heirbaan,37,51.0897164617,4.09131477867
9220,Hamme,Drapstraat,50,51.0979037536,4.1437595152
9220,Hamme,Hoogstraat,30A,51.0983702178,4.1306446363
9220,Hamme,De Ring,19,51.0969719458,4.13430552838
9220,Hamme,Moerheide,39,51.0907004048,4.1158057348
9220,Hamme,Ganzenberg,5,51.0478887555,4.16757483117
9220,Hamme,Reuzeweg,47,51.0893828121,4.12662343289
9220,Hamme,Bookmolenstraat,34,51.0723718078,4.09031975824
9220,Hamme,Bootdijkstraat,26,51.0679777894,4.16111188112
9220,Hamme,Wielstraat,2,51.0891956074,4.15795027983
9220,Hamme,Zandvoorde,8,51.0708809747,4.12241414556
9220,Hamme,Evangeliestraat,116,51.0921889364,4.12050126005
9220,Hamme,Damstraat,70,51.0887703763,4.13592097056
9220,Hamme,Ekelbeke,180,51.0813292309,4.09620044971
9220,Hamme,Spoorwegstraat,75,51.094616401,4.1307868877
9220,Hamme,Wielstraat,26,51.0880484405,4.15915976226
9220,Hamme,Hammestraat,20,51.070773255,4.15053022184
9220,Hamme,Broekstraat,44,51.0908474634,4.15950466682
9220,Hamme,Stationsstraat,35,51.0964768395,4.13003641736
9220,Hamme,Veldstraat,60,51.0936231401,4.1455439352
9220,Hamme,Beekstraat,16,51.0843567372,4.13072462532
9220,Hamme,Baasrodeveerstraat,40,51.0474141674,4.16843961079
9220,Hamme,Geemstraat,72,51.0958250035,4.12625441691
9220,Hamme,Mandemakerstraat,27,51.0998579284,4.14033653644
9220,Hamme,Dennenstraat,3A,51.0902942121,4.15041072181
9220,Hamme,Vrijboomstraat,2,51.0497749935,4.16620011979
9220,Hamme,Kleinbroekstraat,40,51.0669197625,4.16083908314
9220,Hamme,Landbouwstraat,40,51.0916664049,4.14738742804
9220,Hamme,Biezestraat,204,51.0967797175,4.15621257855
9220,Hamme,Gasmeterstraat,9,51.0937941693,4.13315576425
9220,Hamme,Schaubeke,47,51.080243275,4.12914037453
9220,Hamme,Weverstraat,2,51.078906837,4.12884596364
9220,Hamme,Geemhof,16,51.0969879245,4.12543912882
9220,Hamme,Meerstraat,66,51.0793561931,4.11103864692
9220,Hamme,De Ring,55,51.0976714178,4.13378710943
9220,Hamme,Buntstraat,32,51.1002093983,4.14485344606
9220,Hamme,Oostkouterstraat,38,51.0888211503,4.14965097981
9220,Hamme,Kanunnik De Meyerlaan,3,51.0904257461,4.13481755375
9220,Hamme,De Warandestraat,6,51.0501804341,4.16817253792
9220,Hamme,Broekstraat,276,51.0872691714,4.14639697553
9220,Hamme,Reuzeweg,1,51.0902921,4.12979185212
9220,Hamme,Drapstraat,3,51.0956365039,4.14338510973
9220,Hamme,Boonstraat,2,51.0718433665,4.14911188403
9220,Hamme,Nieuwelaan,38,51.097740052,4.12654872648
9220,Hamme,Moerheide,101,51.0925815809,4.11093012197
9220,Hamme,Petrus Van der Jeugdlaan,35,51.0914576564,4.15444990681
9220,Hamme,Dijkstraat,16,51.0993495333,4.14090277729
9220,Hamme,Lippeveld,39,51.0797370826,4.10671854406
9220,Hamme,Biezestraat,185,51.0981258047,4.15722062843
9220,Hamme,Buntstraat,14,51.1001609573,4.14414685383
9220,Hamme,Nieuwelaan,1A,51.0969359013,4.12764437779
9220,Hamme,Bosstraat,1,51.0494424717,4.16840400661
9220,Hamme,Sint-Martensommegangstraat,7,51.0641674058,4.15206022734
9220,Hamme,Guido Gezellelaan,2A,51.0942721916,4.1435346968
9220,Hamme,Geemstraat,4,51.09777367,4.12897470119
9220,Hamme,Jules Vincartpark,6,51.0870794187,4.13370957962
9220,Hamme,Kaaistraat,6,51.0986600028,4.13391891907
9220,Hamme,Geeststraat,11,51.0674257253,4.15527694781
9220,Hamme,Korte Geemstraat,14,51.0962008846,4.12501424375
9220,Hamme,Noordstraat,227,51.0988732385,4.15487756754
9220,Hamme,Waterstraat,28,51.0979512751,4.11885173902
9220,Hamme,Leeuwerikenlaan,23,51.0903946222,4.12791095118
9220,Hamme,Scheldestraat,60,51.0480776643,4.17624196761
9220,Hamme,Meerstraat,217,51.070930513,4.10853591147
9220,Hamme,Kaaistraat,1C,51.0988461531,4.13314622713
9220,Hamme,Posthoornplein,2,51.0925181307,4.13488662292
9220,Hamme,Evangeliestraat,24B,51.0967858344,4.12226062647
9220,Hamme,Aartstraat,69,51.0988597641,4.13007182451
9220,Hamme,Bookmolenstraat,9,51.0730851863,4.09109056856
9220,Hamme,Cesar De Golspark,17,51.0939890013,4.15549122859
9220,Hamme,Weststraat,9,51.0967682277,4.14639219681
9220,Hamme,Geemstraat,54,51.0960835851,4.1266796209
9220,Hamme,Driegoten,16B,51.0933324634,4.16018431554
9220,Hamme,Abtsbroeksken,29,51.0498417091,4.17195771717
9220,Hamme,Broekstraat,258,51.0871456131,4.14819374319
9220,Hamme,Vlaslaan,1,51.0922693009,4.1270985544
9220,Hamme,Moerheide,3,51.0896543155,4.11788983955
9220,Hamme,Vlierkouter,43,51.0883805512,4.12873898264
9220,Hamme,Groenstraat,8,51.0645052151,4.15299662403
9220,Hamme,Drapstraat,39,51.0974133735,4.14307849769
9220,Hamme,Kaaldries,109,51.0976202817,4.12067607145
9220,Hamme,Donkstraat,31,51.0649719145,4.14606180657
9220,Hamme,Pater Vertentenstraat,72,51.092470867,4.15668715637
9220,Hamme,Molenstraat,24,51.0624531748,4.15086532726
9220,Hamme,Hooirt,51,51.0861489412,4.13793364793
9220,Hamme,Neerstraat,10,51.0857957381,4.13773415084
9220,Hamme,Spurt,30,51.0839505119,4.13806249045
9220,Hamme,Amaat Jooslaan,37,51.0893840937,4.14247455396
9220,Hamme,Neerlandt,3,51.0751587122,4.09476933916
9220,Hamme,Theet,32,51.0804186276,4.13046419641
9220,Hamme,Hulstwijk,6,51.0673610836,4.14668246969
9220,Hamme,Reuzeweg,19,51.089641924,4.12880988767
9220,Hamme,St. Anna,108,51.0948377759,4.0692488919
9220,Hamme,Populierenstraat,9,51.0904310612,4.1495568207
9220,Hamme,Kleinhulst,58A,51.0988621061,4.14152971988
9220,Hamme,Baantje,12,51.0968785339,4.13239980352
9220,Hamme,Roodkruisstraat,52,51.1002017924,4.13970698568
9220,Hamme,Pater Vertentenstraat,36,51.091563448,4.1533571963
9220,Hamme,Hammestraat,1,51.0686686799,4.15058009727
9220,Hamme,Noordstraat,209,51.0988104556,4.15420959611
9220,Hamme,Kruisbeeldstraat,12,51.0975179357,4.11941151051
9220,Hamme,Korenbloemlaan,7,51.0910411356,4.12709046697
9220,Hamme,Legierstraat,51,51.1014347577,4.07362854137
9220,Hamme,Dendermondse Steenweg,23,51.0688061421,4.11834800952
9220,Hamme,Burgemeester Lemmensstraat,13,51.0639318429,4.15360624891
9220,Hamme,Noordstraat,120,51.0974346697,4.15093865287
9220,Hamme,Evangeliestraat,216,51.0874518774,4.11671457676
9220,Hamme,Hebbestraat,17,51.0622302782,4.13579859015
9220,Hamme,Kerkstraat,35,51.0983049338,4.13486661297
9220,Hamme,Meerstraat,135,51.0751588399,4.11237129772
9220,Hamme,Theet,14,51.0818253316,4.13146299811
9220,Hamme,Pater Vertentenstraat,18,51.0913001514,4.15261089324
9220,Hamme,Veldstraat,186,51.0910600326,4.15063781855
9220,Hamme,Pater Vertentenstraat,4,51.0911356947,4.15219015103
9220,Hamme,Rupsenstraat,12,51.0931929045,4.07898619603
9220,Hamme,Kruisbeeldstraat,65,51.0964064039,4.11692296492
9220,Hamme,Dennenstraat,8,51.089969008,4.15090523399
9220,Hamme,Acaciastraat,19,51.0894753859,4.15122339028
9220,Hamme,Biezestraat,53,51.1018454298,4.14968921291
9220,Hamme,Baasrodeveerstraat,29,51.0471710874,4.16885390819
9220,Hamme,Donkstraat,13,51.0635338425,4.14671983634
9220,Hamme,Albert Van Heckelaan,10,51.0850411647,4.13028529199
9220,Hamme,Toekomststraat,42,51.0974834416,4.12446139302
9220,Hamme,Meerstraat,31,51.080968539,4.1157847302
9220,Hamme,Ekelbeke,101A,51.0868047073,4.10242018462
9220,Hamme,Dorp,1,51.0625090501,4.15265759346
9220,Hamme,Jagerstraat,10,51.0987029321,4.13571790068
9220,Hamme,Donkstraat,48,51.0652391004,4.14670135499
9220,Hamme,Landbouwstraat,29,51.091332576,4.1479737962
9220,Hamme,Zwanehals,13,51.0888451275,4.12734142574
9220,Hamme,Landbouwstraat,48C,51.0910192284,4.14759102611
9220,Hamme,'t Hoog,3,51.0501420659,4.16414279766
9220,Hamme,Polderstraat,27,51.0970496578,4.16133094949
9220,Hamme,Biezestraat,17,51.1022961911,4.14520526239
9220,Hamme,Zwaarveld,31,51.0764932233,4.13856518961
9220,Hamme,Kleinhulst,77,51.0994336362,4.14299539617
9220,Hamme,Burgemeester Lemmensstraat,31,51.0644558567,4.15412739009
9220,Hamme,St. Anna,40,51.0949137505,4.07811364309
9220,Hamme,Vlierkouter,61,51.0876467662,4.12718288896
9220,Hamme,Theet,60,51.0776692489,4.12822900026
9220,Hamme,Hospitaalstraat,38,51.0935905842,4.13975197756
9220,Hamme,Kruisbeeldstraat,30,51.0971331014,4.11821056331
9220,Hamme,Juliaan Anthoonlaan,10,51.0877813317,4.14137244821
9220,Hamme,Kleinbroekstraat,29,51.0665331647,4.15911744957
9220,Hamme,Rozenhoed,16,51.0902892504,4.13105391829
9220,Hamme,Groeneboomgaardstraat,23,51.0981454275,4.1453054202
9220,Hamme,Buntstraat,10A,51.1001264724,4.14402181524
9220,Hamme,Geemstraat,102,51.0950672444,4.12498716174
9220,Hamme,Scheldestraat,32,51.0479988622,4.17076413792
9220,Hamme,Pastoor De Bruynestraat,23,51.0470003082,4.17202195681
9220,Hamme,Wielstraat,62,51.0856920519,4.16101879152
9220,Hamme,Nijverheidstraat,13,51.0929207571,4.12928000287
9220,Hamme,Slangstraat,29,51.0945251369,4.13614977125
9220,Hamme,Vlaslaan,19,51.0921543742,4.12593382178
9220,Hamme,Bootdijkstraat,62,51.0717026061,4.1634210354
9220,Hamme,Weverstraat,31A,51.0799680134,4.12705447485
9220,Hamme,Kerkstraat,17,51.0981586017,4.13610034132
9220,Hamme,Hammestraat,37,51.0708087238,4.14978073213
9220,Hamme,Spoorwegstraat,50,51.0942312697,4.1333224365
9220,Hamme,Zilverberkstraat,13,51.088820805,4.15068005847
9220,Hamme,Amaat Jooslaan,1,51.0889631596,4.14238823496
9220,Hamme,Kleinhulst,42,51.0986465498,4.1410135478
9220,Hamme,Pachtgoedstraat,5,51.0641420208,4.13674416794
9220,Hamme,Verbindingsstraat,52,51.0910931865,4.14409863888
9220,Hamme,Strijderslaan,185,51.0914530121,4.12347038168
9220,Hamme,De Pannestraat,15,51.0501252281,4.16637145377
9220,Hamme,Stuyfbergen,1,51.0462481263,4.16988326725
9220,Hamme,Kauterstraat,33,51.0660167697,4.1477278204
9220,Hamme,Hammestraat,19,51.0697214254,4.15065709632
9220,Hamme,Mergelbeek,5,51.0879842544,4.12562642838
9220,Hamme,Bareelstraat,3,51.0965923541,4.12901828605
9220,Hamme,Hulstwijk,31,51.0665949605,4.14697184553
9220,Hamme,Pieter Jan Boellaan,22,51.0880912409,4.13935706846
9220,Hamme,Bootdijkstraat,41B,51.0730290911,4.16243458681
9220,Hamme,Baljuwstraat,22,51.0683695347,4.1538719533
9220,Hamme,Bootdijkstraat,44,51.0699311983,4.16174169448
9220,Hamme,Broekstraat,79,51.0901069791,4.1598707967
9220,Hamme,Zogge,90,51.0777026675,4.0996587783
9220,Hamme,Oostkouterstraat,56,51.0893843751,4.14993281176
9220,Hamme,Kleine Gasmeterstraat,21,51.09159193,4.13548417388
9220,Hamme,Bosstraat,19,51.0494018984,4.17014229595
9220,Hamme,Peperstraat,11,51.0977282054,4.13908451507
9220,Hamme,Wuitenslaan,19,51.086463086,4.13237422096
9220,Hamme,Evangeliestraat,25,51.0969942909,4.12252191286
9220,Hamme,Nieuwelaan,56,51.0982293968,4.12579985985
9220,Hamme,Sint-Martensommegangstraat,42B,51.0655250935,4.15108060329
9220,Hamme,Driegotenkouter,98,51.094901934,4.15525611238
9220,Hamme,Osschaerthoek,6,51.0938876468,4.13157853663
9220,Hamme,Kapellestraat,17,51.0970663175,4.14017782897
9220,Hamme,Moerheide,93,51.0923941094,4.11185525345
9220,Hamme,Heirbaan,224,51.075084233,4.09189376342
9220,Hamme,Hooirt,15,51.0869069454,4.14389090102
9220,Hamme,Broekstraat,90B,51.0884814863,4.15511905188
9220,Hamme,Veldstraat,32,51.0941876983,4.14476642565
9220,Hamme,Stuyfbergen,13B,51.045391994,4.17196566519
9220,Hamme,Damstraat,16,51.0921019263,4.13624400743
9220,Hamme,Moerheide,154,51.0944750598,4.11001298245
9220,Hamme,Moortelstraat,12,51.0960185513,4.07349877021
9220,Hamme,Bootdijkstraat,80,51.074413216,4.16420122205
9220,Hamme,Schaubeke,27,51.0814520811,4.13015212681
9220,Hamme,Koning Boudewijnlaan,25,51.066890094,4.14799462306
9220,Hamme,Ekelbeke,252,51.0772607474,4.09240360166
9220,Hamme,Scheldestraat,14,51.0484724619,4.16983605826
9220,Hamme,Buntstraat,60,51.1004257487,4.14680343395
9220,Hamme,Nieuwstraat,6,51.0971835796,4.1375661307
9220,Hamme,Priester Edward Poppestraat,31,51.0690225115,4.14473103125
9220,Hamme,Kleinhulst,68A,51.0989871855,4.14178708154
9220,Hamme,Kaaldries,41,51.0985287359,4.1248442509
9220,Hamme,Spoorwegstraat,3,51.0938362872,4.13462939001
9220,Hamme,Noordstraat,90,51.0967719063,4.14903425965
9220,Hamme,Ripipiaberg,27,51.0479352212,4.16932096503
9220,Hamme,Spinnerstraat,22,51.0937614506,4.15467119853
9220,Hamme,Stuyfbergen,20,51.0459467135,4.17251163154
9220,Hamme,Burgemeester Lemmensstraat,48,51.065897855,4.15566379802
9220,Hamme,Ardoystraat,26,51.0929363431,4.0994662759
9220,Hamme,Amaat Jooslaan,20,51.0894822796,4.14281806247
9220,Hamme,Mergelbeek,24,51.0888664592,4.12564412048
9220,Hamme,Hollandshof,5,51.0938100869,4.07592492856
9220,Hamme,Verbindingsstraat,9,51.0928217013,4.14284922336
9220,Hamme,Zouavenstraat,4,51.094091158,4.12434060344
9220,Hamme,Driegotenkouter,92A,51.0949883957,4.15465317984
9220,Hamme,Tuinbouwlaan,45,51.0512960022,4.16162589843
9220,Hamme,Marktplein,20,51.0989720212,4.13743925076
9220,Hamme,Ganzenberg,12,51.0476103777,4.16547975402
9220,Hamme,Reuzeweg,37,51.089434868,4.12733182426
9220,Hamme,Heirbaan,259,51.0746731442,4.0925745213
9220,Hamme,Pieter Vermeirelaan,42,51.0877545197,4.14356727469
9220,Hamme,Driegotenkouter,124,51.0947923483,4.15634819997
9220,Hamme,Damstraat,100,51.0881784764,4.13666138057
9220,Hamme,Dijkstraat,2,51.0996691105,4.14082199143
9220,Hamme,Noordstraat,54,51.0963492453,4.14796916751
9220,Hamme,Filip De Pillecynlaan,14,51.0900161666,4.15339056345
9220,Hamme,Driegotenkouter,27,51.0959819882,4.14846581404
9220,Hamme,Neerstraat,50,51.0842819549,4.13899750126
9220,Hamme,Broekstraat,176,51.0880873081,4.15293141659
9220,Hamme,Zogge,54,51.0754520697,4.09700926445
9220,Hamme,Aubroeckstraat,13,51.0515983486,4.16418208932
9220,Hamme,Klaprooslaan,8,51.0910104531,4.12427715654
9220,Hamme,Boonstraat,16,51.0700732815,4.14585340883
9220,Hamme,Vooruitgangstraat,4,51.0941387674,4.1269925669
9220,Hamme,Weverstraat,34,51.0815911519,4.12426303464
9220,Hamme,Mergelbeek,59,51.0912171042,4.12228404705
9220,Hamme,Ganzenberg,30,51.0478369881,4.16402036135
9220,Hamme,Filip De Pillecynlaan,32,51.0903180412,4.1547435775
9220,Hamme,Broekstraat,105,51.0886890596,4.15677918325
9220,Hamme,Hofterbossen,42,51.0971014317,4.14076666275
9220,Hamme,Broekstraat,158,51.0885989868,4.15245705969
9220,Hamme,Noordstraat,72,51.0964656308,4.14848880968
9220,Hamme,Weverstraat,16,51.0808752362,4.12611979132
9220,Hamme,Kasteellaan,8,51.0623923673,4.15413439991
9220,Hamme,Zogge,72,51.0760883912,4.09661660249
9220,Hamme,Hooirt,33,51.0865033036,4.13895964617
9220,Hamme,Tuinbouwlaan,10,51.0499096966,4.16294959066
9220,Hamme,Evangeliestraat,96,51.0925477945,4.12089760663
9220,Hamme,Wuitenslaan,37,51.0869999356,4.13144866397
9220,Hamme,Roggemanstraat,17,51.0605796185,4.14878430416
9220,Hamme,Kardinaal Jozef Cardijnlaan,32,51.0883091273,4.14023720324
9220,Hamme,Strijderslaan,167,51.0910909171,4.12493674929
9220,Hamme,Damstraat,69,51.0906568079,4.13620906487
9220,Hamme,Hoogstraat,12,51.0985310344,4.13262045919
9220,Hamme,Ekelbeke,116,51.084675661,4.10109530704
9220,Hamme,Acaciastraat,1,51.0896562846,4.1503199163
9220,Hamme,Driegoten,57A,51.0937259775,4.16418981947
9220,Hamme,Vrijboomstraat,16,51.0493183155,4.16701909399
9220,Hamme,Posthoornstraat,62,51.0928653561,4.13537991913
9220,Hamme,Spurt,11A,51.0827723304,4.13787419789
9220,Hamme,Spoorwegstraat,39,51.0941851011,4.13252814623
9220,Hamme,Moerheide,190,51.092996,4.10832008707
9220,Hamme,Kauterstraat,15,51.0648961163,4.14965810005
9220,Hamme,Tweebruggenplein,27,51.0940890749,4.14319726987
9220,Hamme,Veldstraat,67,51.0924949202,4.14850146044
9220,Hamme,Veldstraat,14,51.0944549845,4.14436474563
9220,Hamme,Mandemakerstraat,98,51.0999882269,4.14157622913
9220,Hamme,Moerheide,75,51.0924866068,4.1138078656
9220,Hamme,Verbindingsstraat,48,51.0912329176,4.14393268072
9220,Hamme,Drapstraat,101,51.1012615417,4.14216297245
9220,Hamme,Doorn,20,51.0949688623,4.06654111523
9220,Hamme,Loystraat,118,51.0943198504,4.14288411736
9220,Hamme,Hoogstraat,30,51.0983748092,4.13064818195
9220,Hamme,Tramstraat,3A,51.0498830964,4.16482075452
9220,Hamme,Roggemanstraat,35,51.0600145746,4.14888195117
9220,Hamme,Petrus Van der Jeugdlaan,17,51.0908025,4.15487011455
9220,Hamme,Ekelbeke,134,51.0834005698,4.10033536109
9220,Hamme,Kleinbroekstraat,19B,51.0667353798,4.15808581562
9220,Hamme,Tuinbouwlaan,63,51.051786589,4.16130028108
9220,Hamme,Moerheide,22,51.0902023198,4.11719065349
9220,Hamme,Koerspleinstraat,5,51.0970124164,4.14742629223
9220,Hamme,Albrecht Rodenbachlaan,13,51.0890507812,4.1440274929
9220,Hamme,Biezestraat,239,51.0962308871,4.15677936285
9220,Hamme,Driegoten,81,51.0928179388,4.1696255111
9220,Hamme,Damstraat,87,51.0890789617,4.13674284804
9220,Hamme,Kardinaal Jozef Cardijnlaan,14,51.0887189583,4.14160497559
9220,Hamme,Albrecht Rodenbachlaan,66,51.0895206807,4.14585962428
9220,Hamme,Kardinaal Jozef Cardijnlaan,67,51.089314965,4.14200301979
9220,Hamme,Dorp,19,51.0633725885,4.15342949935
9220,Hamme,Neerlandt,22,51.0748190712,4.09436509429
9220,Hamme,Jules Vincartpark,31,51.0861378894,4.13432628566
9220,Hamme,Damstraat,34,51.0914954395,4.13596567878
9220,Hamme,Evangeliestraat,162,51.0907257341,4.11884000464
9220,Hamme,Leopold III-laan,47,51.0911440753,4.13702367144
9220,Hamme,Heirbaan,206,51.0761596456,4.09203738215
9220,Hamme,Beekstraat,9,51.0842311824,4.13194319432
9220,Hamme,Loystraat,50,51.0889421045,4.1393915868
9220,Hamme,Broekstraat,123,51.088159788,4.15567458332
9220,Hamme,Zuybroekstraat,11,51.0840123795,4.14155683658
9220,Hamme,Spoorwegstraat,63,51.0943868624,4.13143140981
9220,Hamme,Aartstraat,42,51.0990940405,4.1290630275
9220,Hamme,Driegotenkouter,75,51.095270732,4.15435354619
9220,Hamme,Boteraard,15,51.0745997078,4.10780312304
9220,Hamme,Jules Vincartpark,23,51.0866452492,4.13375143225
9220,Hamme,Donkstraat,18,51.0630256936,4.14748484959
9220,Hamme,Damstraat,77,51.0898308941,4.13633776519
9220,Hamme,Buntstraat,44,51.1002203915,4.14534307397
9220,Hamme,Vlierkouter,33,51.0887971485,4.12956353801
9220,Hamme,Noordstraat,143,51.0974604666,4.15015837423
9220,Hamme,Hammestraat,83,51.0741139511,4.14944241428
9220,Hamme,Buntstraat,5,51.1003866171,4.14388408574
9220,Hamme,Kaaldries,90,51.0983170754,4.12333653974
9220,Hamme,Populierenstraat,4,51.0900503451,4.14890688131
9220,Hamme,Geeststraat,38,51.0685399638,4.15585895556
9220,Hamme,Cesar De Golspark,10,51.0933851127,4.15578074474
9220,Hamme,Hofterbossen,16,51.0974900155,4.14104457472
9220,Hamme,Ekelbeke,101,51.0868135408,4.10255072626
9220,Hamme,Moerheide,98,51.0927438181,4.11266168149
9220,Hamme,Korte Geemstraat,44,51.0959255754,4.12397916005
9220,Hamme,St. Jansstraat,8,51.0970869117,4.13173423114
9220,Hamme,Korte Geemstraat,5,51.0960236332,4.12514935135
9220,Hamme,Sportpleinstraat,22,51.0931203046,4.14383627553
9220,Hamme,Kleinhulst,34,51.0985327606,4.14069189371
9220,Hamme,Leopold III-laan,40,51.0910980181,4.13824800428
9220,Hamme,Marktplein,1,51.0976776403,4.13813600476
9220,Hamme,Mandemakerstraat,124,51.1000544218,4.14286292117
9220,Hamme,Weverstraat,14C,51.0802150144,4.12744363751
9220,Hamme,Nieuwelaan,11,51.0972490643,4.12711171886
9220,Hamme,Slangstraat,7,51.0955706834,4.13603966415
9220,Hamme,Broekstraat,103,51.0891872855,4.1577697635
9220,Hamme,Marktplein,40,51.098383035,4.13875681816
9220,Hamme,Damstraat,59,51.0908962413,4.13628524035
9220,Hamme,Oostkouterstraat,11,51.0892696168,4.14931803586
9220,Hamme,Hammestraat,65,51.0723490442,4.14986642867
9220,Hamme,Geemstraat,13,51.0969580178,4.12870678286
9220,Hamme,Kruisbeeldstraat,37,51.0968890668,4.11855618995
9220,Hamme,Damstraat,95,51.088131786,4.13751369243
9220,Hamme,Kerkstraat,6,51.0983053601,4.13668021066
9220,Hamme,Posthoornstraat,60,51.0928911822,4.1354397421
9220,Hamme,Neerstraat,39,51.0845486912,4.13938652348
9220,Hamme,Pompelhoekstraat,40,51.0729328812,4.15677715306
9220,Hamme,Evangeliestraat,108,51.09230974,4.1206693391
9220,Hamme,Kapellestraat,6,51.0971104858,4.13949824503
9220,Hamme,Driegotenkouter,93,51.0952779245,4.15519915731
9220,Hamme,Bloemenstraat,17,51.0677512926,4.15264815151
9220,Hamme,Koningsplein,20,51.0619048168,4.14837511585
9220,Hamme,Neerstraat,81,51.082757948,4.14135298448
9220,Hamme,Damstraat,135,51.0867684683,4.13794058986
9220,Hamme,Broekstraat,85,51.0897894081,4.15951780693
9220,Hamme,Spurt,37,51.0827875233,4.13300097721
9220,Hamme,Noordstraat,161,51.0977847133,4.15109505871
9220,Hamme,Leeuwerikenlaan,53,51.0902724692,4.1258921821
9220,Hamme,Driegoten,50,51.0926657803,4.1650972775
9220,Hamme,Landbouwstraat,20,51.0922720626,4.14728522289
9220,Hamme,Driegotenkouter,111,51.0950068033,4.15643787389
9220,Hamme,Baasrodeveerstraat,20,51.0483845089,4.16795118317
9220,Hamme,Burgemeester Lemmensstraat,18,51.0643181472,4.15437566774
9220,Hamme,Baasrodeveerstraat,7,51.0485879466,4.16854412617
9220,Hamme,Loystraat,39,51.0891343959,4.13893862009
9220,Hamme,Heirbaan,1,51.0922271495,4.09319893064
9220,Hamme,Landbouwstraat,7,51.092129264,4.1477360967
9220,Hamme,'t Spinnewiel,17,51.0918020095,4.12870676906
9220,Hamme,Evangeliestraat,68,51.0946585964,4.12255045179
9220,Hamme,Broekstraat,121,51.0882769915,4.15571815379
9220,Hamme,Hulstwijk,18,51.0666755075,4.14568522795
9220,Hamme,Pater Vertentenstraat,9,51.0915424882,4.15182372163
9220,Hamme,Kleinhulst,16,51.0981242414,4.14005232781
9220,Hamme,Stationsstraat,3,51.0975738109,4.12966680491
9220,Hamme,Ganzenberg,8A,51.0478874866,4.16609531787
9220,Hamme,Hofterbossen,34,51.0970892154,4.14114445036
9220,Hamme,Loystraat,81,51.0899661979,4.13994409273
9220,Hamme,Slangstraat,55,51.0933303128,4.1362282108
9220,Hamme,Bootdijkstraat,60,51.0714024574,4.16346771934
9220,Hamme,Pieter Jan Boellaan,14,51.0876908086,4.14043674892
9220,Hamme,Albrecht Rodenbachlaan,48,51.0879788452,4.14511107047
9220,Hamme,Roggemanstraat,29A,51.0604198586,4.14881857383
9220,Hamme,Wielstraat,60,51.085901394,4.16101386855
9220,Hamme,Petrus Van der Jeugdlaan,6,51.0892012684,4.15579131653
9220,Hamme,Doorn,1,51.0950206237,4.06819209742
9220,Hamme,Lindestraat,7,51.0890088891,4.14755368889
9220,Hamme,Pompelhoekstraat,29,51.0720025989,4.1547205168
9220,Hamme,Vuurkruisenlaan,13,51.0915377636,4.11823346666
9220,Hamme,Strijderslaan,58,51.0918381242,4.12671238494
9220,Hamme,Broekstraat,106A,51.0880963866,4.15337511277
9220,Hamme,Durmestraat,1,51.0983311112,4.12983982093
9220,Hamme,Begijnhofstraat,3,51.0477828071,4.17046629355
9220,Hamme,Broekstraat,1B,51.0944744751,4.15733644483
9220,Hamme,Noordstraat,41,51.0960431272,4.14650355446
9220,Hamme,Zogge,13,51.0761223071,4.09418053217
9220,Hamme,Lippeveld,10,51.0795737719,4.11052486872
9220,Hamme,Acaciastraat,12,51.089251728,4.15077582561
9220,Hamme,Loystraat,63,51.0895841868,4.13953446131
9220,Hamme,Bootdijkstraat,14,51.0670704721,4.15995219479
9220,Hamme,Hebbestraat,94,51.0628830935,4.13981993628
9220,Hamme,Broekstraat,1D,51.0941300203,4.15728489597
9220,Hamme,Gasmeterstraat,4,51.0940904785,4.1321384999
9220,Hamme,Toekomststraat,16,51.0962313195,4.12578237628
9220,Hamme,Kaaldries,54,51.0985902942,4.12422749682
9220,Hamme,Toekomststraat,34,51.0971761952,4.12454479234
9220,Hamme,Mandemakerstraat,106,51.1000108831,4.14228165581
9220,Hamme,Hospitaalstraat,46,51.0937223,4.14009220746
9220,Hamme,Spurt,19,51.0827027723,4.13650537535
9220,Hamme,Mandemakerstraat,22,51.0988848228,4.13946715735
9220,Hamme,Landbouwstraat,55,51.0896674557,4.14849147094
9220,Hamme,Tuinbouwlaan,50,51.0515072202,4.16207491793
9220,Hamme,Baasrodeveerstraat,55,51.0459410664,4.16967209593
9220,Hamme,De Ring,1,51.0962701591,4.13561036392
9220,Hamme,Zogge,41,51.0763840416,4.09646249223
9220,Hamme,Damputstraat,17,51.0919376403,4.13777326815
9220,Hamme,Mispelaarstraat,7,51.0759404132,4.09100616952
9220,Hamme,Vlierkouter,15,51.0894600375,4.13128277997
9220,Hamme,Vredestraat,4,51.0665024871,4.15177953191
9220,Hamme,Ardoystraat,67,51.092280856,4.09398968033
9220,Hamme,Guillaumestraat,14,51.0941266329,4.13404268425
9220,Hamme,Driegotenkouter,106,51.0949025661,4.15550691716
9220,Hamme,Hazeldonk,3,51.0696737234,4.15218888805
9220,Hamme,Driegotenkouter,57,51.0954960269,4.15264351952
9220,Hamme,Tramstraat,17,51.0493182535,4.16395129845
9220,Hamme,Loystraat,45,51.0892196933,4.13907379605
9220,Hamme,Reuzeweg,12,51.0901003196,4.12896897352
9220,Hamme,Transvaal,20,51.0900370892,4.13019423114
9220,Hamme,Drapstraat,10,51.0959290403,4.14420923226
9220,Hamme,Vlierkouter,68,51.087509479,4.12580972265
9220,Hamme,Verbindingsstraat,24,51.091734565,4.14340214538
9220,Hamme,Kruisbeeldstraat,19,51.0972296794,4.11941918199
9220,Hamme,Veldstraat,123A,51.0897836459,4.15217141454
9220,Hamme,Biezestraat,140,51.1001794414,4.15629439512
9220,Hamme,Pieter Jan Boellaan,32,51.0879163754,4.1390627654
9220,Hamme,Hammestraat,101,51.0754573268,4.14812868223
9220,Hamme,Kanunnik De Meyerlaan,10,51.090523898,4.13399776858
9220,Hamme,Bookmolenstraat,4,51.0740757997,4.09152545559
9220,Hamme,Noordstraat,13,51.0956913098,4.14517122162
9220,Hamme,Heirbaan,136,51.0810654798,4.08968446477
9220,Hamme,Waterstraat,34C,51.0981501361,4.11746507174
9220,Hamme,Beekstraat,39,51.0832606058,4.1299538331
9220,Hamme,Kruisbeeldstraat,158,51.0952503844,4.10826873568
9220,Hamme,Dijkstraat,16A,51.0992989612,4.14096769382
9220,Hamme,Broekstraat,67,51.090176727,4.16017322332
9220,Hamme,Burgemeester Lemmensstraat,46,51.0655879645,4.15559073725
9220,Hamme,Wielstraat,32,51.087849585,4.15935047632
9220,Hamme,Hospitaalstraat,11,51.0929985257,4.13704833826
9220,Hamme,Kaaldries,72,51.0985253761,4.1238709381
9220,Hamme,Heirbaan,182,51.0776592971,4.09147444591
9220,Hamme,Kaaldries,2,51.0996320712,4.12806893586
9220,Hamme,Koningin Astridlaan,15,51.0918613398,4.13990786967
9220,Hamme,Bootdijkstraat,32,51.0684321643,4.16141047025
9220,Hamme,Strijderslaan,76,51.0918431645,4.12531437804
9220,Hamme,Pastoor Verscheldenstraat,2,51.0487563745,4.17066311637
9220,Hamme,Heirbaan,272,51.0722151446,4.09532957152
9220,Hamme,Geeststraat,84,51.0705580477,4.15440523337
9220,Hamme,Meerstraat,89,51.0787344921,4.11156234232
9220,Hamme,Kaaistraat,36,51.0998070671,4.13278906023
9220,Hamme,Stationsstraat,23,51.0969604251,4.12985123019
9220,Hamme,St. Anna,69A,51.0945155473,4.07720281716
9220,Hamme,Biezestraat,129,51.10124911,4.157146152
9220,Hamme,Moortelstraat,19,51.0965048781,4.07268372662
9220,Hamme,Hooirt,8,51.0872031727,4.1442451498
9220,Hamme,Vlaslaan,30,51.0925709573,4.12634718287
9220,Hamme,Pieter Vermeirelaan,5,51.0876062409,4.14458062366
9220,Hamme,Vooruitgangstraat,9,51.0937812976,4.12695701088
9220,Hamme,Kapellestraat,76,51.0954626657,4.14254072559
9220,Hamme,Landbouwstraat,91,51.0875157798,4.14959870194
9220,Hamme,Kaaiplein,11,51.1013718339,4.13323518624
9220,Hamme,Schaubeke,57,51.0802852759,4.12835457879
9220,Hamme,Nijverheidstraat,72,51.0927070657,4.12877935908
9220,Hamme,Verbindingsstraat,59,51.0909130928,4.14487983671
9220,Hamme,Meulenbroekstraat,19,51.1005935963,4.13369494448
9220,Hamme,Hospitaalstraat,64,51.0941564284,4.1420359971
9220,Hamme,Kasteellaan,25,51.0624633852,4.16210870734
9220,Hamme,Driegotenkouter,22,51.0955500405,4.14710044348
9220,Hamme,Kerkhofstraat,3,51.0926728813,4.14912012031
9220,Hamme,Guillaumestraat,49,51.0930186276,4.1321737411
9220,Hamme,Hoogstraat,37,51.0981017171,4.13064271635
9220,Hamme,Tuinbouwlaan,39,51.0510822815,4.16174977438
9220,Hamme,Legierstraat,8,51.095738813,4.06733626821
9220,Hamme,Hebbestraat,6,51.0625126724,4.14737714315
9220,Hamme,Hofterbossen,5,51.0981432985,4.14047151408
9220,Hamme,Biezestraat,247,51.0956585798,4.15703718597
9220,Hamme,Pastoor De Bruynestraat,6,51.046197315,4.17223408502
9220,Hamme,Verbindingsstraat,4,51.09267145,4.14254219759
9220,Hamme,Wuitenslaan,12,51.0857929052,4.1336518026
9220,Hamme,Ekelbeke,103A,51.0866349194,4.10238575383
9220,Hamme,Spinnerstraat,27,51.0940524869,4.15406348921
9220,Hamme,Bosstraat,12,51.0489486152,4.17118011313
9220,Hamme,Gasmeterstraat,24,51.0932286398,4.13345151338
9220,Hamme,Marktplein,29,51.0996003045,4.13848017082
9220,Hamme,Nijverheidstraat,54,51.093726425,4.12786200684
9220,Hamme,Neerlandt,27,51.0754783262,4.0963884162
9220,Hamme,Noordstraat,115,51.0970595693,4.14904504617
9220,Hamme,Landbouwstraat,73,51.0888806305,4.14871696678
9220,Hamme,Durmestraat,29,51.0988068883,4.1289060321
9220,Hamme,Schoolstraat,5,51.0987143955,4.13374305256
9220,Hamme,Wuitenslaan,30,51.0866662235,4.13286373496
9220,Hamme,Plezantstraat,10,51.0972910366,4.13657716486
9220,Hamme,Hammestraat,12,51.0703013268,4.15101250967
9220,Hamme,Zogge,115,51.0796289066,4.10132360966
9220,Hamme,Kruisbeeldstraat,176,51.0949922488,4.10604543866
9220,Hamme,Moerheide,27,51.0900182885,4.11637563629
9220,Hamme,Kleinhulst,69,51.0991374898,4.14174595281
9220,Hamme,St. Renildestraat,3A,51.0846297897,4.13385586562
9220,Hamme,Damputstraat,35,51.0923813573,4.1386169605
9220,Hamme,Wielstraat,14,51.0886794664,4.15860672434
9220,Hamme,Donkstraat,46,51.0648988343,4.14663506054
9220,Hamme,Reuzeweg,30,51.0897836636,4.12787412382
9220,Hamme,Korte Geemstraat,34,51.0960183389,4.12432613236
9220,Hamme,Theet,62,51.0775432317,4.1281884076
9220,Hamme,Posthoornstraat,14,51.0933879322,4.13531608182
9220,Hamme,Hoogstraat,38B,51.0982545014,4.13009460613
9220,Hamme,Kleine Gasmeterstraat,28,51.0911562727,4.13486372481
9220,Hamme,De Braakstraat,14,51.0456319739,4.17028329478
9220,Hamme,Pannenkouter,13,51.0962025568,4.07675664286
9220,Hamme,Pieter Jan Boellaan,49,51.0873902481,4.13887337689
9220,Hamme,Heirbaan,254,51.0733568418,4.09332222378
9220,Hamme,Tweebruggenplein,22,51.0946350248,4.14261509176
9220,Hamme,Vlaslaan,12,51.0924037497,4.1278795069
9220,Hamme,Killestraat,42,51.0608849032,4.15264481485
9220,Hamme,Geemstraat,133,51.0948691978,4.12506370489
9220,Hamme,Boonstraat,2B,51.0717917384,4.14890139147
9220,Hamme,Biezestraat,230,51.0954168211,4.15650839195
9220,Hamme,Koningsplein,7,51.0615891938,4.149088259
9220,Hamme,Zouavenstraat,31,51.0921464864,4.12502718176
9220,Hamme,De Pannestraat,8,51.0508292423,4.16516590545
9220,Hamme,Schaubeke,93,51.0823554842,4.12768022627
9220,Hamme,Aartstraat,32,51.0993261501,4.12947128043
9220,Hamme,Kauterstraat,43,51.0665279618,4.14767505357
9220,Hamme,Moerheide,187,51.0912605656,4.10489576386
9220,Hamme,Pieter Vermeirelaan,34,51.0875842164,4.14240887655
9220,Hamme,Slangstraat,73,51.0930319605,4.13654229519
9220,Hamme,Kleinhulst,5,51.0978821605,4.13925749617
9220,Hamme,Ekelbeke,226,51.079028003,4.09326479542
9220,Hamme,Biezestraat,265,51.0950793865,4.15711417184
9220,Hamme,Slangstraat,20,51.0951415488,4.13562539627
9220,Hamme,Geemstraat,115,51.0951397335,4.1255299432
9220,Hamme,Kleinbroekstraat,34,51.0658603934,4.15914584745
9220,Hamme,Nijverheidstraat,48,51.0938698214,4.1276973993
9220,Hamme,Sportpleinstraat,50,51.0927011653,4.14308703949
9220,Hamme,Noordstraat,2,51.0948223922,4.14424022501
9220,Hamme,St. Anna,91,51.0946559259,4.07454355839
9220,Hamme,Populierenstraat,24,51.0906144979,4.15095390628
9220,Hamme,Zogge,2,51.0755911773,4.09268711846
9220,Hamme,Bloemenstraat,35,51.0669475797,4.15436936452
9220,Hamme,Noordstraat,251,51.0984437675,4.15553350245
9220,Hamme,Pompelhoekstraat,1,51.0706745677,4.151561356
9220,Hamme,Driegotenkouter,47,51.0957128268,4.15121530454
9220,Hamme,Pieter Vermeirelaan,16,51.0886165813,4.14315792985
9220,Hamme,Groeneboomgaardstraat,53,51.0985442577,4.14668728139
9220,Hamme,Amaat Jooslaan,29,51.0900288804,4.14309418685
9220,Hamme,Beekstraat,2,51.0847374674,4.13245284867
9220,Hamme,Ripipiaberg,22,51.0474166112,4.16956659006
9220,Hamme,Kleine Mandemakerstraat,10A,51.0987168263,4.14016635776
9220,Hamme,Mergelbeek,52,51.0909933521,4.12331192265
9220,Hamme,Pater Vertentenstraat,41,51.092503432,4.15331847972
9220,Hamme,Noordstraat,196,51.0981054718,4.15515930265
9220,Hamme,Geeststraat,66,51.0693988227,4.15539181082
9220,Hamme,Pieter Jan Boellaan,3,51.0874010048,4.1393671522
9220,Hamme,Heirbaan,290,51.0711832525,4.09659213207
9220,Hamme,Bareelstraat,10,51.0965220444,4.12865548248
9220,Hamme,Dorp,30,51.0629201622,4.15219237325
9220,Hamme,Schaubeke,22,51.0810130647,4.12935249818
9220,Hamme,Hazeldonk,23,51.0702142747,4.15309992475
9220,Hamme,Hulstwijk,36,51.0669662389,4.14675124674
9220,Hamme,Priester Edward Poppestraat,18,51.0689581036,4.14689861679
9220,Hamme,Vooruitgangstraat,31,51.0935326123,4.12592197426
9220,Hamme,Kauterstraat,8,51.0650471005,4.14998165372
9220,Hamme,Hammestraat,30,51.0711186738,4.15017578005
9220,Hamme,Toekomststraat,5,51.0970124007,4.12436220619
9220,Hamme,St. Anna,73,51.0945445283,4.07707202329
9220,Hamme,Gasmeterstraat,59,51.0930544924,4.13415867533
9220,Hamme,Ganzenberg,19,51.0475690454,4.1670112066
9220,Hamme,Moerheide,169,51.0912250374,4.10715077619
9220,Hamme,Weststraat,24,51.097410007,4.14633162359
9220,Hamme,Biezestraat,212,51.0964221597,4.15612269443
9220,Hamme,Aartstraat,14,51.099528798,4.13136426891
9220,Hamme,Bookmolenstraat,24,51.0729641575,4.08996752854
9220,Hamme,Damputstraat,58,51.0931595889,4.14115952401
9220,Hamme,Hoogstraat,19,51.0983178145,4.13212344946
9220,Hamme,Schaubeke,75,51.0808726978,4.12676711442
9220,Hamme,Transvaal,7,51.0907673692,4.13002808362
9220,Hamme,Waterstraat,1A,51.0976994721,4.11900997051
9220,Hamme,Plezantstraat,22,51.0965496054,4.13587549409
9220,Hamme,Waterstraat,4,51.0982433524,4.11941935863
9220,Hamme,Kapellestraat,23,51.0969566267,4.14044317233
9220,Hamme,Kleine Gasmeterstraat,8,51.0917464527,4.1351219923
9220,Hamme,Maurits Tilleylaan,7,51.0972673938,4.15433728191
9220,Hamme,Vlierkouter,101,51.0868067788,4.12649144039
9220,Hamme,Transvaal,19,51.0898983278,4.13078741976
9220,Hamme,Tuinbouwlaan,75,51.0521487024,4.1611168443
9220,Hamme,Kaaldries,31,51.0986688821,4.12546009945
9220,Hamme,Veldstraat,174,51.0914460569,4.15027133021
9220,Hamme,Oostkouterstraat,28,51.0883597939,4.14947972042
9220,Hamme,Noordstraat,84,51.0966614781,4.14876811422
9220,Hamme,Biezestraat,175,51.098435773,4.15754115087
9220,Hamme,Kruisbeeldstraat,20,51.097379006,4.11883337603
9220,Hamme,Driegoten,57,51.0937367813,4.16409584677
9220,Hamme,Broekstraat,10A,51.0922847906,4.15713491543
9220,Hamme,Molenstraat,16,51.062704047,4.15125074273
9220,Hamme,Kaaldries,23A,51.0983914449,4.12600858963
9220,Hamme,Baljuwstraat,7,51.0690923104,4.15380929387
9220,Hamme,Neerstraat,106,51.0807845193,4.14266159062
9220,Hamme,Pater Vertentenstraat,41A,51.0919510262,4.15379019865
9220,Hamme,Ekelbeke,108,51.0853760592,4.10124672969
9220,Hamme,St. Renildestraat,3,51.0846847253,4.13399844983
9220,Hamme,Damstraat,42,51.0912528982,4.13577204713
9220,Hamme,Nieuwelaan,28,51.0976142608,4.12696979304
9220,Hamme,Veldstraat,192,51.0903985698,4.15118956341
9220,Hamme,Scheldestraat,26,51.0480004642,4.17037924152
9220,Hamme,Achterthof,17,51.0962074399,4.13759121367
9220,Hamme,Achterthof,35,51.0967108539,4.13830192759
9220,Hamme,Koning Albertplein,11,51.0950239669,4.1306138071
9220,Hamme,Reuzeweg,40,51.0897558615,4.12724424704
9220,Hamme,Biezestraat,193,51.0978344593,4.15706019905
9220,Hamme,Drapstraat,27,51.0972510869,4.14367185424
9220,Hamme,Wuitenslaan,40,51.0868849969,4.13245059242
9220,Hamme,Kanunnik De Meyerlaan,27,51.0896614764,4.1328987686
9220,Hamme,Broekstraat,128,51.0890638296,4.15262019764
9220,Hamme,Killestraat,32,51.0606138717,4.15199860568
9220,Hamme,Neerstraat,22,51.0854200462,4.13789441905
9220,Hamme,Heirbaan,218,51.0754429612,4.09184684123
9220,Hamme,Veldstraat,156,51.091815737,4.14952551374
9220,Hamme,Aubroeckstraat,36,51.0511596133,4.16413979019
9220,Hamme,Noordstraat,168,51.0978293578,4.15402992765
9220,Hamme,Kardinaal Jozef Cardijnlaan,62,51.0886783028,4.14262339933
9220,Hamme,Hooirt,61,51.0852069011,4.1349115163
9220,Hamme,Pastoor De Bruynestraat,35,51.0473907453,4.17199522341
9220,Hamme,Driegotenkouter,1,51.0957369791,4.14660564412
9220,Hamme,Hollandshof,16,51.0927010063,4.07486172502
9220,Hamme,Hooirt,232,51.0837994873,4.13272801694
9220,Hamme,Ekelbeke,126,51.0839372481,4.10074944341
9220,Hamme,Vooruitgangstraat,13,51.0937502188,4.12679230145
9220,Hamme,Gasmeterstraat,77,51.0927177486,4.13460157264
9220,Hamme,Strijderslaan,119,51.0914085017,4.12845342657
9220,Hamme,St. Anna,130A,51.0919316183,4.06451353486
9220,Hamme,Zilverberkstraat,18,51.0886190424,4.15089551734
9220,Hamme,Loystraat,22,51.0883132317,4.13823000435
9220,Hamme,Moerheide,216,51.0918252432,4.10736239143
9220,Hamme,Groeneboomgaardstraat,35,51.09820327,4.14599609237
9220,Hamme,Spurt,20,51.0832356012,4.13874203375
9220,Hamme,Kerkstraat,28H,51.0984799043,4.13561922071
9220,Hamme,Noubroekstraat,11,51.0992879911,4.1604236561
9220,Hamme,Guido Gezellelaan,6,51.0941519859,4.14366331669
9220,Hamme,Nijverheidstraat,18,51.0947771437,4.12689863091
9220,Hamme,Baasrodeveerstraat,37,51.0469990159,4.16921314071
9220,Hamme,Mergelbeek,34,51.0896382833,4.12566324182
9220,Hamme,Filip De Pillecynlaan,5,51.0902112276,4.15270197863
9220,Hamme,Evangeliestraat,101,51.0921828974,4.1210505539
9220,Hamme,Landbouwstraat,37,51.0915982547,4.14824574552
9220,Hamme,Vossestraat,4,51.0830939413,4.090189722
9220,Hamme,Veldstraat,62,51.0935940187,4.14559289214
9220,Hamme,Geeststraat,21,51.0686083278,4.15528740505
9220,Hamme,Molenstraat,34,51.06275716,4.14983227406
9220,Hamme,Lippeveld,45,51.0796322702,4.10590815785
9220,Hamme,Neerstraat,98,51.081678123,4.14182629896
9220,Hamme,Jagerstraat,22,51.0988132259,4.13608353124
9220,Hamme,Veldstraat,26,51.0942960043,4.14466641454
9220,Hamme,Landbouwstraat,19,51.091795663,4.14781917212
9220,Hamme,Meerstraat,207,51.0711181098,4.10996747416
9220,Hamme,Sint Bernarduswijk,17,51.0502055123,4.16992783289
9220,Hamme,Leeuwerikenlaan,35,51.0901879185,4.12722560763
9220,Hamme,Driegoten,93,51.0926846447,4.17048823133
9220,Hamme,Strijderslaan,137,51.09145059,4.12722809672
9220,Hamme,Broekstraat,211,51.0867324183,4.1491726232
9220,Hamme,Geemhof,24,51.0977808758,4.12476291564
9220,Hamme,Toekomststraat,52,51.0977556521,4.12425754591
9220,Hamme,Tweebruggenplein,1,51.0952486782,4.14354927872
9220,Hamme,Driegotenkouter,118,51.0948049792,4.15607392509
9220,Hamme,Kruisbeeldstraat,113,51.0954790449,4.11328740113
9220,Hamme,Jozef De Gravepark,6,51.0975646143,4.14235128529
9220,Hamme,Koningsplein,19,51.0618590748,4.14842967909
9220,Hamme,Albrecht Rodenbachlaan,18,51.0886510851,4.14447415025
9220,Hamme,Meerstraat,125,51.0757990462,4.11175751461
9220,Hamme,Veldstraat,44,51.0940045305,4.14501710412
9220,Hamme,Neerstraat,47,51.0842340408,4.13969076093
9220,Hamme,Donkstraat,16A,51.0629807241,4.14756765613
9220,Hamme,Veldstraat,5,51.0942532379,4.14505717123
9220,Hamme,Albrecht Rodenbachlaan,54,51.0884719631,4.14543799316
9220,Hamme,Geeststraat,9,51.0673788934,4.15537674007
9220,Hamme,Driegotenkouter,50,51.095545333,4.15119809489
9220,Hamme,Kardinaal Jozef Cardijnlaan,26,51.0887134823,4.14044176192
9220,Hamme,Koerspleinstraat,16,51.096932674,4.14814200838
9220,Hamme,Prieel,14,51.0909541418,4.14961546728
9220,Hamme,Evangeliestraat,3,51.0975787241,4.12268415504
9220,Hamme,Zogge,66,51.0759139201,4.09654027694
9220,Hamme,Bootdijkstraat,67,51.0775654983,4.16522259055
9220,Hamme,Neerstraat,124,51.0795226548,4.1438854803
9220,Hamme,Roggemanstraat,23,51.0603690823,4.14925986189
9220,Hamme,Wielstraat,67,51.0855702201,4.16212925772
9220,Hamme,Baasrodeveerstraat,19,51.0475805416,4.1688572992
9220,Hamme,Drapstraat,63,51.0994307995,4.14315758697
9220,Hamme,Noordstraat,66,51.0964646096,4.14827839732
9220,Hamme,Broekstraat,32,51.09103189,4.15847685994
9220,Hamme,Pompelhoekstraat,12,51.0705771923,4.15213549663
9220,Hamme,Pompelhoekstraat,30,51.0710202142,4.1527512337
9220,Hamme,Petrus Van der Jeugdlaan,23,51.0909560672,4.15479148075
9220,Hamme,Verbindingsstraat,16A,51.0921200345,4.14303930581
9220,Hamme,Tuinbouwlaan,57,51.0516488024,4.16141098914
9220,Hamme,Koning Boudewijnlaan,3,51.0666498594,4.15038747312
9220,Hamme,Marktplein,12,51.0979125594,4.13700706947
9220,Hamme,Driegoten,22,51.0935937808,4.16085476262
9220,Hamme,Hospitaalstraat,28,51.093462827,4.13946040571
9220,Hamme,Nieuwelaan,64,51.0984034485,4.12563835461
9220,Hamme,Spinnerstraat,7,51.0928638502,4.15458636695
9220,Hamme,Ripipiaberg,1,51.0467053249,4.17021515942
9220,Hamme,Kruisbeeldstraat,55,51.0965460093,4.11747623911
9220,Hamme,Loystraat,93,51.0906898609,4.1403933175
9220,Hamme,Abtsbroeksken,3,51.0495186573,4.17147961877
9220,Hamme,Oostkouterstraat,64,51.0897296634,4.15004410204
9220,Hamme,Broekstraat,246,51.0870657483,4.14894284766
9220,Hamme,Drapstraat,45,51.0977076585,4.14335631288
9220,Hamme,Hooirt,43,51.0864080817,4.13811334401
9220,Hamme,Buntstraat,79,51.1007491135,4.14711056271
9220,Hamme,Schaubeke,1,51.0835872778,4.12902881498
9220,Hamme,Bremstraat,20,51.0985649945,4.14811377285
9220,Hamme,Ardoystraat,60,51.0937793025,4.09569697293
9220,Hamme,Vlaslaan,40,51.0927962051,4.12594648526
9220,Hamme,Driegoten,75,51.0928530273,4.16905782264
9220,Hamme,Albrecht Rodenbachlaan,36,51.088827796,4.14532354309
9220,Hamme,Albrecht Rodenbachlaan,2,51.0896126641,4.14535006367
9220,Hamme,Kardinaal Jozef Cardijnlaan,44,51.0884389042,4.140551429
9220,Hamme,Biezestraat,157,51.0996377171,4.15781969243
9220,Hamme,Vlierkouter,51,51.0880645002,4.12807463614
9220,Hamme,Moerheide,81,51.0923190718,4.11314988857
9220,Hamme,Scheldestraat,5,51.0490144628,4.16901576533
9220,Hamme,Korte Geemstraat,26,51.0960791056,4.12458819273
9220,Hamme,Nijverheidstraat,100,51.0920966973,4.12956583557
9220,Hamme,Damstraat,24,51.0918895334,4.13620537907
9220,Hamme,Meerstraat,72,51.0787414353,4.11004841461
9220,Hamme,Broekstraat,184,51.0878035013,4.15316236836
9220,Hamme,Buntstraat,26,51.1001919303,4.14450561388
9220,Hamme,Heirbaan,289,51.0732302543,4.09478146185
9220,Hamme,Sint-Martensommegangstraat,62,51.0684230115,4.15072576088
9220,Hamme,Ardoystraat,49,51.0927510121,4.09614132171
9220,Hamme,Zwaarveld,54,51.0705989332,4.127572139
9220,Hamme,St. Renildestraat,15,51.0840839516,4.13451894035
9220,Hamme,Kleinbroekstraat,5,51.0667879407,4.1562138559
9220,Hamme,Wuitenslaan,29,51.0867503229,4.13190121681
9220,Hamme,Evangeliestraat,172,51.0901095008,4.1185207118
9220,Hamme,Ripipiaberg,50,51.0483254694,4.16960908238
9220,Hamme,Kleinhulst,70,51.0989516424,4.14190831413
9220,Hamme,Loystraat,159,51.0932173959,4.14210020272
9220,Hamme,Heirbaan,30,51.0901155885,4.09067311333
9220,Hamme,Pachtgoedstraat,4B,51.0632677652,4.13955943309
9220,Hamme,Tuinbouwlaan,22,51.0502919374,4.16281157881
9220,Hamme,Damputstraat,6,51.0915786675,4.13756492628
9220,Hamme,Achille Van Sassenbroucklaan,9,51.0963857642,4.1515754879
9220,Hamme,Strijderslaan,157,51.0910190496,4.12565636962
9220,Hamme,Meerstraat,90,51.0775257828,4.11042213167
9220,Hamme,Biezestraat,122,51.1010243764,4.1550385068
9220,Hamme,Achterthof,88,51.0963808462,4.13828798929
9220,Hamme,Abdijstraat,15,51.0473610856,4.17140440254
9220,Hamme,Hoogstraat,20,51.0985277061,4.13140674001
9220,Hamme,Killestraat,49,51.0616976853,4.15377924834
9220,Hamme,Strijderslaan,175,51.0914514358,4.12509916545
9220,Hamme,Sint-Martensommegangstraat,44,51.0656507061,4.15139386931
9220,Hamme,Sportpleinstraat,1,51.0916054936,4.14587341174
9220,Hamme,Weverstraat,24,51.0811488655,4.12564202367
9220,Hamme,Kruisbeeldstraat,73,51.0961615142,4.11631715713
9220,Hamme,St. Anna,116,51.0937093379,4.06548764564
9220,Hamme,Ganzenberg,20,51.0474047646,4.16446887743
9220,Hamme,Reuzeweg,29,51.0894965232,4.12807727805
9220,Hamme,Evangeliestraat,190,51.0891341506,4.11802707429
9220,Hamme,Meerstraat,107,51.0773953128,4.1113096967
9220,Hamme,Koning Boudewijnlaan,15,51.0667368791,4.14903278014
9220,Hamme,Broekstraat,49,51.0912062912,4.1610306309
9220,Hamme,Neerlandt,10,51.0749943121,4.09372782625
9220,Hamme,Strijderslaan,193,51.0915011679,4.12173144454
9220,Hamme,Koning Albertplein,8,51.0946418581,4.13052824366
9220,Hamme,Kruisbeeldstraat,91,51.0959508639,4.11520554644
9220,Hamme,Kleine Mandemakerstraat,5,51.0991478309,4.13988216163
9220,Hamme,Leeuwerikenlaan,17,51.0906039076,4.12832052409
9220,Hamme,Vital Keullerlaan,9,51.0961916332,4.15499614448
9220,Hamme,Hooirt,25,51.086797593,4.1423113389
9220,Hamme,Zwaarveld,41C,51.0739822883,4.13487000917
9220,Hamme,Noordstraat,233,51.0983641282,4.15493684951
9220,Hamme,Veldstraat,103,51.0912975377,4.15094102882
9220,Hamme,St. Anna,134,51.0908453309,4.06358024248
9220,Hamme,Vital Keullerlaan,12,51.0966041075,4.15473445458
9220,Hamme,'t Spinnewiel,6,51.091855266,4.12912657592
9220,Hamme,Evangeliestraat,15,51.0972190493,4.12249660691
9220,Hamme,Hellestraat,1,51.0952084647,4.08814464831
9220,Hamme,Marktplein,30,51.0995760001,4.13850855705
9220,Hamme,Broekstraat,264,51.0871915581,4.14786297799
9220,Hamme,Kleine Gasmeterstraat,11,51.0919191231,4.13548340288
9220,Hamme,Schaubeke,50,51.0809714794,4.12839430159
9220,Hamme,Oostkouterstraat,46,51.0891082281,4.14978223515
9220,Hamme,Theet,79,51.0769239444,4.12865447943
9220,Hamme,Moerheide,10,51.0900179729,4.11791686879
9220,Hamme,Spoorwegstraat,27,51.0940538937,4.13303869305
9220,Hamme,Polderstraat,1,51.0943227414,4.1611932658
9220,Hamme,Zogge,31,51.0762274594,4.09556887123
9220,Hamme,Doorn,12,51.0952308106,4.06756707789
9220,Hamme,Verbindingsstraat,42,51.0913688611,4.14385495116
9220,Hamme,Noordstraat,31,51.0960296519,4.14607764885
9220,Hamme,Kleinhulst,52,51.0987448999,4.1413001595
9220,Hamme,Meerstraat,54,51.0794875596,4.11266928157
9220,Hamme,Loystraat,47,51.0892489877,4.1391153299
9220,Hamme,Nieuwelaan,46,51.097929757,4.12617372297
9220,Hamme,Slangstraat,19,51.0951035921,4.13602413848
9220,Hamme,Neerstraat,159,51.0793977544,4.15116451245
9220,Hamme,Biezestraat,94,51.1012134491,4.15175057902
9220,Hamme,Noubroekstraat,8,51.0987131838,4.15901517621
9220,Hamme,Baljuwstraat,10,51.0689282713,4.15332026443
9220,Hamme,Ekelbeke,244,51.0776589941,4.09265025817
9220,Hamme,Sint Baafswijk,6,51.0621850261,4.15296791779
9220,Hamme,'t Hoog,14,51.0505470566,4.16312820027
9220,Hamme,Theet,26,51.0810778311,4.13080020157
9220,Hamme,Achille Van Sassenbroucklaan,12,51.0959573599,4.15201871455
9220,Hamme,Zwanehals,18,51.0889812615,4.12648320456
9220,Hamme,Stuyfbergen,30,51.0447928237,4.17574936038
9220,Hamme,Amaat Jooslaan,30,51.0899850307,4.14296122817
9220,Hamme,Theet,5,51.082151905,4.13231888374
9220,Hamme,Veldstraat,79,51.0918561444,4.15052335177
9220,Hamme,Geeststraat,41,51.0687950923,4.15482573795
9220,Hamme,Kaaldries,115,51.0975651651,4.12049763256
9220,Hamme,Pater Vertentenstraat,66,51.0924107504,4.15644705388
9220,Hamme,Evangeliestraat,86,51.093964367,4.12198040485
9220,Hamme,Broekstraat,148,51.0891427395,4.15217123338
9220,Hamme,Slangstraat,37,51.0942876572,4.1360613047
9220,Hamme,Peperstraat,9,51.0977789537,4.13897205989
9220,Hamme,Burgemeester Lemmensstraat,61A,51.0661579162,4.15527144377
9220,Hamme,Hebbestraat,76,51.0628134376,4.14215659531
9220,Hamme,Moerheide,180,51.0936332395,4.10939169557
9220,Hamme,Hebbestraat,23,51.0620126779,4.13426449851
9220,Hamme,Loystraat,58A,51.0897120878,4.14027218843
9220,Hamme,Geemstraat,143,51.0945495093,4.12412780553
9220,Hamme,Tuinbouwlaan,47,51.0513371237,4.16159847763
9220,Hamme,Hammestraat,29,51.0702987216,4.15003935181
9220,Hamme,Pater Vertentenstraat,13,51.091413003,4.1521421958
9220,Hamme,Evangeliestraat,33,51.0968285788,4.12267181804
9220,Hamme,Drapstraat,98,51.0997313719,4.14357472062
9220,Hamme,Stuyfbergen,12,51.0464443114,4.1718433264
9220,Hamme,Zwanehals,36,51.0883024888,4.12660374781
9220,Hamme,Meulenbroekstraat,20,51.1010716436,4.13524856142
9220,Hamme,Veldstraat,97,51.0913960725,4.15085264531
9220,Hamme,Priester Edward Poppestraat,51A,51.0699400779,4.14189062548
9220,Hamme,Geemstraat,31,51.0965562282,4.12804932148
9220,Hamme,Hebbestraat,58,51.0628189001,4.14369832857
9220,Hamme,De Ring,65,51.098070531,4.13361051714
9220,Hamme,Moerheide,162,51.0939844314,4.11008777648
9220,Hamme,Ganzenberg,55,51.0476506524,4.16350551937
9220,Hamme,Kleinbroekstraat,52,51.0653822262,4.1648773957
9220,Hamme,Ripipiaberg,39,51.0480394876,4.16899809314
9220,Hamme,Mispelaarstraat,19,51.076237829,4.08798962974
9220,Hamme,Amaat Jooslaan,12,51.089210659,4.14372585134
9220,Hamme,Kruisbeeldstraat,213,51.0935421075,4.10336355736
9220,Hamme,Damstraat,110,51.0878392491,4.13685117232
9220,Hamme,Priester Edward Poppestraat,48,51.0703026631,4.14192282861
9220,Hamme,Donkstraat,36,51.0639905176,4.14712252629
9220,Hamme,Spinnerstraat,10,51.0930365505,4.15504720604
9220,Hamme,Nijverheidstraat,2,51.0951459556,4.12654685185
9220,Hamme,Biezestraat,229,51.0966395322,4.15683647318
9220,Hamme,Zilverberkstraat,2,51.0884698619,4.14998903058
9220,Hamme,Spinnerstraat,45,51.0949811295,4.15362086008
9220,Hamme,St. Anna,8A,51.0937625649,4.092247505
9220,Hamme,Gasmeterstraat,42,51.0926273637,4.13412441306
9220,Hamme,Dokter H.Hyleboslaan,15,51.0918020352,4.15615234226
9220,Hamme,Mergelbeek,16,51.0885088133,4.12574203067
9220,Hamme,Bootdijkstraat,11A,51.0679388837,4.1604567912
9220,Hamme,Pieter Vermeirelaan,52,51.0874720005,4.14399309526
9220,Hamme,Zwanehals,2,51.0891268301,4.12733712101
9220,Hamme,Kauterstraat,25,51.0652668035,4.14892282591
9220,Hamme,Groeneboomgaardstraat,17,51.0979189874,4.14506167093
9220,Hamme,Weverstraat,59,51.0812445162,4.12403437108
9220,Hamme,Heirbaan,301,51.072494808,4.09588153813
9220,Hamme,Schaubeke,39,51.0805370291,4.12967158788
9220,Hamme,Rijbunder,3,51.0930568008,4.06484467312
9220,Hamme,Kaaldries,1A,51.0989193125,4.12765530689
9220,Hamme,Donkstraat,2,51.06234667,4.14820714119
9220,Hamme,Drapstraat,20,51.0965282145,4.1440082228
9220,Hamme,Hebbestraat,68,51.0628457575,4.14265186251
9220,Hamme,Aubroeckstraat,11,51.051655419,4.16391700332
9220,Hamme,Theet,85A,51.0766123675,4.1283786809
9220,Hamme,Damstraat,49,51.0911163495,4.13636194058
9220,Hamme,Pieter Vermeirelaan,26,51.0882368864,4.14320243145
9220,Hamme,Bloemenstraat,51,51.0667990218,4.15557853221
9220,Hamme,Theet,54B,51.0785136385,4.1290115063
9220,Hamme,Dendermondse Steenweg,28C,51.071126445,4.12064396798
9220,Hamme,Sint-Martensommegangstraat,16,51.0643713845,4.1522671333
9220,Hamme,Kerkhofstraat,15,51.0931194114,4.1488104199
9220,Hamme,Noordstraat,171,51.097897272,4.15188826436
9220,Hamme,Schaubeke,101,51.0829263361,4.1282378621
9220,Hamme,Dendermondse Steenweg,6,51.0743149795,4.12526022876
9220,Hamme,Kaaldries,100,51.0982725802,4.12281713298
9220,Hamme,Reuzeweg,57,51.0893368118,4.12597695692
9220,Hamme,Sportpleinstraat,12,51.0933322616,4.14416727918
9220,Hamme,Kruisbeeldstraat,27,51.0970233818,4.11899158775
9220,Hamme,Donkstraat,28,51.0635414734,4.14733762621
9220,Hamme,Plezantstraat,29,51.0961234847,4.13644461919
9220,Hamme,Polderstraat,30,51.0967779949,4.16198696034
9220,Hamme,Damputstraat,51,51.0932126973,4.14054490217
9220,Hamme,Roodkruisstraat,14,51.0999408242,4.13909280845
9220,Hamme,Spurt,13A,51.0827847185,4.1369927551
9220,Hamme,Damstraat,67,51.0907232616,4.1362222952
9220,Hamme,Veldstraat,69,51.0924654074,4.14853400106
9220,Hamme,Geemstraat,107,51.0953085567,4.12575461104
9220,Hamme,Tuinbouwlaan,1,51.0494146744,4.16264073011
9220,Hamme,Hoogstraat,44E,51.0979624382,4.12946410673
9220,Hamme,Biezestraat,68,51.1013136499,4.1496401579
9220,Hamme,Geemstraat,48,51.0961677683,4.12683464289
9220,Hamme,Rijbekestraat,4,51.0993725558,4.13895697023
9220,Hamme,Aubroeckstraat,9,51.0517746452,4.16362469076
9220,Hamme,Sportpleinstraat,30,51.0929613385,4.14362463802
9220,Hamme,De Schoesitterplein,1,51.0692935414,4.15453513089
9220,Hamme,Molenstraat,7,51.0622689499,4.15157557158
9220,Hamme,Spurt,27,51.0829263538,4.13569723639
9220,Hamme,Burgemeester Lemmensstraat,28,51.0646120763,4.15476748319
9220,Hamme,Loystraat,29,51.0889672646,4.13869294489
9220,Hamme,Rozenhoed,4,51.0910795765,4.13079812592
9220,Hamme,Mergelbeek,7,51.0880523904,4.12553915444
9220,Hamme,Abdijstraat,3,51.0477266532,4.17139573635
9220,Hamme,Albrecht Rodenbachlaan,11,51.089246947,4.14442134555
9220,Hamme,Spinnerstraat,47,51.0951171448,4.15338156105
9220,Hamme,Schaubeke,83,51.0815495501,4.12720087692
9220,Hamme,Evangeliestraat,118,51.0921539296,4.12043935371
9220,Hamme,Kardinaal Jozef Cardijnlaan,69,51.0894493817,4.14183280545
9220,Hamme,Koningsplein,10,51.0613850841,4.14881405114
9220,Hamme,Vlierkouter,23,51.0891222866,4.13050375614
9220,Hamme,Baasrodeveerstraat,10,51.0487500739,4.16788829923
9220,Hamme,Kaaldries,38,51.0987413361,4.12476391334
9220,Hamme,Spoorwegstraat,73,51.0945784188,4.13089642451
9220,Hamme,Leeuwerikenlaan,6,51.0908929755,4.12924368316
9220,Hamme,Landbouwstraat,10,51.0924667268,4.14683524285
9220,Hamme,Sint-Martensommegangstraat,34,51.0647970829,4.15083861149
9220,Hamme,Jules Vincartpark,33,51.0862547182,4.13453964111
9220,Hamme,Driegoten,40,51.0931313207,4.16390435845
9220,Hamme,Hulstwijk,28,51.0661855687,4.14666563434
9220,Hamme,Sint Jozefstraat,1,51.0484777567,4.16935074762
9220,Hamme,Zwaarveld,41A,51.0740419956,4.13469891862
9220,Hamme,Broekstraat,199,51.0865997954,4.14983147947
9220,Hamme,Leeuwerikenlaan,43,51.0903007558,4.12666736557
9220,Hamme,Mandemakerstraat,116,51.1000619088,4.14268842812
9220,Hamme,Neerstraat,91,51.0813297399,4.14282578671
9220,Hamme,Wielstraat,24,51.0881891903,4.15904937632
9220,Hamme,Noubroekstraat,18,51.098926796,4.16056330909
9220,Hamme,Mandemakerstraat,12,51.0986388133,4.13905792759
9220,Hamme,Bootdijkstraat,24,51.0678085761,4.16098580049
9220,Hamme,Koerspleinstraat,7,51.0970397681,4.14753608392
9220,Hamme,Damstraat,85,51.0892444294,4.13687148609
9220,Hamme,Petrus Van der Jeugdlaan,3C,51.0893996911,4.15506505753
9220,Hamme,Rietstraat,23,51.0992870465,4.14532482124
9220,Hamme,Achterthof,6,51.0950374773,4.13636606301
9220,Hamme,Achterthof,19A,51.0964390764,4.13754210703
9220,Hamme,Buntstraat,70,51.1004823366,4.14721275822
9220,Hamme,Kaaiplein,8,51.1011524958,4.13322986347
9220,Hamme,Zilverberkstraat,11,51.0888061738,4.15059377539
9220,Hamme,Broekstraat,238,51.0869730693,4.14942497372
9220,Hamme,Driegoten,24B,51.0938845734,4.16142016975
9220,Hamme,Ekelbeke,146,51.0829475954,4.09870718951
9220,Hamme,Boteraard,23,51.0744144578,4.10671161131
9220,Hamme,Loystraat,143B,51.0929279938,4.14179242271
9220,Hamme,Pieter Jan Boellaan,24,51.0881127933,4.13925362868
9220,Hamme,Damputstraat,65A,51.093750115,4.14183954674
9220,Hamme,Albrecht Rodenbachlaan,9,51.089330187,4.14461263481
9220,Hamme,De Braakstraat,4,51.0461031223,4.17067943969
9220,Hamme,Kruisbeeldstraat,44,51.0969784938,4.11753302141
9220,Hamme,Verbindingsstraat,32,51.0915213237,4.14353034894
