PKANCODE,COMMUNE_NL,STREET_NL,HUISNR,LAT,LON
9340,Lede,Grote Steenweg,225,50.9555526173,3.90665014296
9340,Lede,Nieuwstraat,52,50.9654975551,3.98431022539
9340,Lede,Klinkaard,8,50.9607209712,3.90719854414
9340,Lede,Kerkevijverstraat,36,50.9708740666,3.98164914583
9340,Lede,Stokveld,13,50.9735935124,3.98530610391
9340,Lede,Langeweestraat,59,50.9743449009,3.97701860987
9340,Lede,Suikerstraat,5,50.9782786811,3.99678921098
9340,Lede,Julius De Geyterstraat,20,50.9652043609,3.97920495821
9340,Lede,Billegemstraat,52,50.9785733235,3.9538941415
9340,Lede,Ronkenburgstraat,41,50.9769186415,3.99617517749
9340,Lede,Vijverstraat,15,50.9688193685,3.97908243791
9340,Lede,Markizaatstraat,43A,50.9684471989,3.98731857695
9340,Lede,Steenland,31,50.9619200475,3.96737918757
9340,Lede,Essestraat,80,50.9581368261,3.94359194842
9340,Lede,Koekoekstraat,8,50.9701620824,3.99370044016
9340,Lede,Klinkaard,250,50.9769038198,3.89502281608
9340,Lede,Varkensmarkt,1,50.9563343354,3.90132151648
9340,Lede,Steenstraat,166,50.9628543115,4.01083385382
9340,Lede,Dwarsstraat,54,50.9695696897,3.97769396723
9340,Lede,Veldekenswegel,8,50.9575664399,3.96431128982
9340,Lede,Ouden Heirweg,23,50.9560579007,3.90039145473
9340,Lede,Grote Steenweg,64,50.9634700459,3.88832839466
9340,Lede,Ossenbroeck,15,50.9603163908,3.87804126249
9340,Lede,Speckaertstraat,9,50.9611326,3.99483468076
9340,Lede,Wijmenstraat,23,50.9587540208,3.95023781543
9340,Lede,Grote Steenweg,207,50.9556953583,3.90491008271
9340,Lede,Overimpestraat,42,50.9593295175,3.96960639866
9340,Lede,Stationsweg,6,50.9682540747,3.97977573981
9340,Lede,Barrevoetsehoek,32,50.9754979115,3.98788908716
9340,Lede,Watermolenstraat,77,50.9692637027,3.95990481796
9340,Lede,Kasteeldreef,36,50.9665073051,3.98210694149
9340,Lede,Essestraat,62,50.9588685567,3.94466294564
9340,Lede,Oud-Smetlede,51,50.9733789841,3.91455117735
9340,Lede,Vijverstraat,33,50.9698039666,3.97940840691
9340,Lede,Sint-Machariusstraat,5,50.9540671838,3.93205482681
9340,Lede,Bremenhulweg,15,50.9695274701,3.99025324593
9340,Lede,Hoogstraat,146,50.956123254,3.97888131508
9340,Lede,Ledezijdestraat,44,50.963840148,3.95395965207
9340,Lede,Bellaertstraat,40,50.9633468997,3.9830848397
9340,Lede,Nieuwstraat,70,50.9652882351,3.98553675558
9340,Lede,Benedenstraat,65,50.9567816277,3.9266138237
9340,Lede,Hoogstraat,5,50.9647870967,3.97704251907
9340,Lede,Klinkaard,114,50.9679543522,3.90014024856
9340,Lede,Dr.Prieëlslaan,31,50.9597364917,3.90419093053
9340,Lede,Ledestraat,26,50.9598924754,3.95416361109
9340,Lede,Wichelse steenweg,99,50.9743958851,3.97537737308
9340,Lede,Oude Wichelsesteenweg,13,50.9807217608,3.9747119079
9340,Lede,Processieweg,1,50.9748212683,3.95730050146
9340,Lede,Processieweg,25,50.9736429949,3.95857658403
9340,Lede,Acaciastraat,18,50.9675998295,3.9940292534
9340,Lede,Kapellenhoek,98,50.9701649703,3.92056792555
9340,Lede,Wijmenstraat,140,50.9523256441,3.94786988731
9340,Lede,Wichelse steenweg,117,50.9754517682,3.97537749837
9340,Lede,Openveldstraat,8,50.9687220324,3.97411926683
9340,Lede,Smesweg,71,50.9637966963,3.96765340267
9340,Lede,Keiberg,44,50.9550991228,3.98471639451
9340,Lede,Rodekruislaan,5,50.9581728299,3.9829778662
9340,Lede,Barrevoetsehoek,14,50.9742025208,3.9882958399
9340,Lede,Kapelleweg,81,50.9658322607,3.9197599773
9340,Lede,Schoot,59,50.9715451594,3.89134568053
9340,Lede,Groenstraat,19,50.9783924404,3.99371217092
9340,Lede,Wilgenstraat,8,50.9691074579,3.99276981584
9340,Lede,Reymeersstraat,103,50.9674672453,3.96267642792
9340,Lede,Hoogstraat,29,50.9636707181,3.97696314503
9340,Lede,Kerkevijverstraat,18,50.9701662064,3.9806527008
9340,Lede,Grote Steenweg,82,50.9618508098,3.89145064391
9340,Lede,Bellaertstraat,29,50.9628615099,3.98205325023
9340,Lede,Langehaag,34,50.962535357,3.94813369303
9340,Lede,Guchtstraat,33,50.9682267669,3.96498155939
9340,Lede,Speurtstraat,18,50.9595045563,3.90053486078
9340,Lede,Bredestraat,66,50.9772081209,3.95402253711
9340,Lede,Hoeksken,14,50.9684286151,3.98793729892
9340,Lede,Hulst,105,50.9630547331,3.96528950571
9340,Lede,Schildekensstraat,52,50.9669259943,3.93489305994
9340,Lede,Langehaag,69,50.9641783988,3.94526540202
9340,Lede,Grotekapellelaan,53,50.9631252509,3.96909841673
9340,Lede,Essestraat,168,50.9551871407,3.93738726656
9340,Lede,Bredestraat,31,50.975267916,3.95408694557
9340,Lede,Kapelleweg,63,50.9654184926,3.91795132115
9340,Lede,Schildekensstraat,70,50.9671513121,3.93661681516
9340,Lede,Kapellenhoek,10,50.9663597778,3.92627337708
9340,Lede,Rammelstraat,7,50.9671035809,3.97737497143
9340,Lede,Speurtstraat,64,50.9622806688,3.89909268724
9340,Lede,Smesweg,53,50.9644349231,3.96894435166
9340,Lede,Grote Steenweg,100,50.9603806425,3.89455494467
9340,Lede,Stationsstraat,23,50.9703469692,3.98528818986
9340,Lede,Heiplasstraat,12,50.9805692179,3.9753860322
9340,Lede,Molenhoek,65,50.9643455558,3.92234934295
9340,Lede,Brilstraat,9,50.9655952977,3.97649354736
9340,Lede,Hoging,32,50.9526833861,3.90026058562
9340,Lede,Steenstraat,148,50.9625849234,4.00945301548
9340,Lede,Molenhoek,12,50.9651353873,3.92580831066
9340,Lede,Bremenhulweg,33,50.9698479338,3.99081173638
9340,Lede,Markizaatstraat,43,50.9684845743,3.98753452442
9340,Lede,Suikerstraat,111,50.982973223,4.00885769303
9340,Lede,Speurtstraat,36,50.9599793186,3.89979764988
9340,Lede,Bredestraat,84,50.9776861713,3.95295122632
9340,Lede,Kluisberg,17,50.9659060592,3.98794479552
9340,Lede,de Kerchovelaan,18,50.9706450894,3.98695960727
9340,Lede,Heiplasstraat,65,50.9798126672,3.98159738682
9340,Lede,Hulst,123,50.9626026624,3.9664203454
9340,Lede,Essestraat,44,50.9595337117,3.94617226301
9340,Lede,Merelstraat,1,50.9701093856,3.99596011323
9340,Lede,Molenbergstraat,5,50.9651826673,3.97597483834
9340,Lede,Bambochtweg,12,50.9718137952,3.98183673762
9340,Lede,Rampsande,14,50.9730125163,3.93951181282
9340,Lede,Putbosstraat,8,50.9542928942,3.93243927376
9340,Lede,Wichelse steenweg,145,50.9773105871,3.97513922718
9340,Lede,Keiberg,9,50.9576006518,3.98358007043
9340,Lede,Rodtstraat,30,50.9607116066,3.90385845417
9340,Lede,Ronkenburgstraat,28A,50.9743264352,3.99276135193
9340,Lede,Katstraat,97,50.9618356318,3.97951032267
9340,Lede,Bellaertstraat,5,50.9646012721,3.98333276773
9340,Lede,Nachtegaallaan,17,50.9698926005,3.99713836494
9340,Lede,Molenbergstraat,29,50.9642348099,3.9749986901
9340,Lede,Langehaag,16,50.9616199925,3.94924846969
9340,Lede,Speurtstraat,82,50.9635732043,3.89973471257
9340,Lede,Keibergkerkweg,11,50.9601821149,3.97991275126
9340,Lede,Volderstraat,16,50.9741183561,3.95937959218
9340,Lede,de Kerchovelaan,64,50.9719738545,3.98625657993
9340,Lede,Essestraat,186,50.9556553122,3.93484416231
9340,Lede,Oordegemkouter,147,50.9623845156,3.91349468591
9340,Lede,Herdergemsestraat,21,50.9741736806,3.98472628866
9340,Lede,Vijverstraat,68,50.9699375755,3.97892751731
9340,Lede,Bellaertstraat,118,50.9594206753,3.983785485
9340,Lede,Molenstraat,10,50.9575395965,3.94519502273
9340,Lede,Guido Gezellestraat,33,50.9679157982,3.9731061564
9340,Lede,Houwstraat,9,50.963940163,3.89643177277
9340,Lede,Bremenhulweg,61,50.9714067679,3.99283469769
9340,Lede,Guchtstraat,43,50.9684456879,3.96499063929
9340,Lede,Wijmenstraat,76,50.9567751753,3.94728404554
9340,Lede,Dwarsstraat,2,50.9689231267,3.98099596536
9340,Lede,Ronkenburgstraat,6,50.9737032423,3.99159085297
9340,Lede,Charleroistraat,38,50.9711792833,3.98283643533
9340,Lede,Klinkaard,185,50.9725009232,3.8992878741
9340,Lede,Suikerstraat,40,50.9799101314,3.99921386859
9340,Lede,Ouden Heirweg,76,50.9549268206,3.89214040462
9340,Lede,Zuster Lambertinestraat,10,50.9659900104,3.97589762049
9340,Lede,Jezuïtenstraat,9,50.9791809743,3.99609058699
9340,Lede,Koning Albertlaan,37,50.9637253761,3.98071146814
9340,Lede,Processieweg,71,50.9728513109,3.96153171199
9340,Lede,Bosstraat,212,50.9741986002,4.00489909918
9340,Lede,Watermolenstraat,24,50.9718305693,3.95728769478
9340,Lede,Schildekensstraat,105,50.967102168,3.93785110481
9340,Lede,Albrecht Rodenbachstraat,11,50.9621893039,3.96886667093
9340,Lede,Dr.Prieëlslaan,84,50.9603991477,3.90440827684
9340,Lede,Stokstraat,25,50.9719532121,3.98524361039
9340,Lede,Kasteeldreef,48,50.9667042503,3.98435601113
9340,Lede,Papegemstraat,22,50.9535294727,3.93293736612
9340,Lede,Barrevoetsehoek,49,50.9749274214,3.98807454095
9340,Lede,Stationsweg,41,50.9687169356,3.98176857311
9340,Lede,Keibergkerkweg,46,50.9587169297,3.98132715793
9340,Lede,Impedorp,24,50.9611448848,3.95200247873
9340,Lede,Overimpestraat,7,50.961377979,3.97111248544
9340,Lede,Klinkaard,78,50.9657862165,3.90277071684
9340,Lede,Steenstraat,138,50.9626603972,4.00852861168
9340,Lede,Guchtstraat,61,50.9691570075,3.96509400359
9340,Lede,Wichelse steenweg,163,50.978169705,3.97511579281
9340,Lede,Markt,15,50.9658116481,3.97848942278
9340,Lede,Kloosterstraat,10,50.9717613736,3.9710883512
9340,Lede,Plataanstraat,7,50.9685384438,3.99616790475
9340,Lede,de Kerchovelaan,48,50.9712599497,3.98673535541
9340,Lede,Briel,233,50.9733379039,3.92650433431
9340,Lede,Vijverstraat,86,50.970435788,3.97898944174
9340,Lede,Openveldstraat,78,50.9709468263,3.97156023435
9340,Lede,Vijverstraat,43,50.9702324633,3.97945568059
9340,Lede,Benedenstraat,19,50.9571776325,3.9311921368
9340,Lede,Hoging,42,50.9520990724,3.90007941147
9340,Lede,Briel,90,50.9739546628,3.92538068924
9340,Lede,Rosselstraat,21,50.9656513704,3.97524761025
9340,Lede,Oordegemkouter,119,50.961276292,3.9107789916
9340,Lede,Sasstraat,62,50.9564616417,4.01021090644
9340,Lede,Schildekensstraat,123,50.9668983363,3.93971062741
9340,Lede,Ouden Heirweg,58,50.9552154179,3.89482172182
9340,Lede,Wijstraat,41,50.9732813658,3.9738380552
9340,Lede,Hollestraat,39,50.9651927717,3.9953060101
9340,Lede,Wichelse steenweg,181,50.9792764261,3.97499629978
9340,Lede,Oordegemkouter,137,50.9621161363,3.91285530935
9340,Lede,Steenstraat,2B,50.9652319066,3.99716370456
9340,Lede,Kasteelstraat,2,50.9677438416,3.98352351284
9340,Lede,Grote Steenweg,135,50.9576640047,3.89896193682
9340,Lede,Bredestraat,13,50.9744745809,3.95482010257
9340,Lede,Rammelstraat,59,50.969351358,3.97559302764
9340,Lede,Markt,33,50.9663366691,3.97717565503
9340,Lede,Oordegemkouter,41,50.958440737,3.90525688061
9340,Lede,Oudenhelweg,6,50.9650894657,3.97466140684
9340,Lede,Katstraat,72,50.9619611265,3.98000136711
9340,Lede,Briel,54,50.972408663,3.92578312176
9340,Lede,Vrijdagmarkt,11A,50.9743616594,4.0007290407
9340,Lede,Blekte,131,50.9688502907,3.91428462602
9340,Lede,Nerumweg,20,50.9638031823,3.99371476797
9340,Lede,Beukenlaan,35,50.9697250877,3.99217091348
9340,Lede,Dries,48,50.9626560465,3.89388812987
9340,Lede,Sasstraat,44,50.9580452045,4.00900323239
9340,Lede,Poortseweg,5,50.9655379199,3.99187763438
9340,Lede,Openveldstraat,25,50.9691111125,3.97426021441
9340,Lede,Nonnenbosstraat,138,50.9810047128,3.95809218275
9340,Lede,Keibergkerkweg,100,50.957307747,3.98258203313
9340,Lede,Hoogstraat,118,50.9577114542,3.97740653316
9340,Lede,Grotekapellelaan,71,50.9623106207,3.96967672272
9340,Lede,Bosstraat,104,50.9686954222,4.0044252281
9340,Lede,Grotekapellelaan,54A,50.9628404682,3.97079733244
9340,Lede,Wichelse steenweg,46,50.9710797803,3.97514973357
9340,Lede,Hazel,24,50.9588176348,3.89835927649
9340,Lede,Bergstraat,20,50.9699902658,3.97689932232
9340,Lede,Koning Albertlaan,19,50.963628923,3.9814223036
9340,Lede,Wijmenstraat,94,50.9552591499,3.94669049216
9340,Lede,Grote Steenweg,253,50.9545534736,3.91112207173
9340,Lede,Zwaanstraat,2,50.9555771047,3.90203313852
9340,Lede,Hofstraat,70,50.9728234926,3.95404730882
9340,Lede,Heiplasstraat,101,50.9795395133,3.98498656748
9340,Lede,Watermolenstraat,59,50.9699932511,3.95948346119
9340,Lede,Grote Steenweg,188,50.9573762796,3.9002994555
9340,Lede,Openveldstraat,5A,50.9686022778,3.97473187112
9340,Lede,Blekte,59,50.9680836221,3.9120624894
9340,Lede,Katstraat,54,50.9627950876,3.97978991286
9340,Lede,Serskampstraat,60,50.9711004527,3.93795137676
9340,Lede,Kromme Elleboogstraat,2,50.9756284498,3.99596030114
9340,Lede,Populierenstraat,12,50.9693411453,3.99442452289
9340,Lede,Damstraat,21,50.9644296131,3.96730393317
9340,Lede,Processieweg,53,50.9731237431,3.95978336305
9340,Lede,Guido Gezellestraat,15,50.9682167218,3.97379109417
9340,Lede,Klinkaard,132,50.9678038502,3.89902961125
9340,Lede,Wichelse steenweg,11,50.9687558699,3.97687716191
9340,Lede,Oordegemkouter,31,50.9581748227,3.90461587216
9340,Lede,Grotekapellelaan,96,50.9597880584,3.97577967812
9340,Lede,Hoogledezijdestraat,5,50.9666185806,3.94994835593
9340,Lede,Albrecht Rodenbachstraat,46,50.9608774841,3.96825651945
9340,Lede,Hoogstraat,12,50.9649654972,3.97746396346
9340,Lede,Molenhoek,40,50.9642777701,3.92405849558
9340,Lede,Wijstraat,31,50.9733041967,3.97579998564
9340,Lede,Lindestraat,25,50.9687434385,3.99820380289
9340,Lede,Processieweg,8,50.974291785,3.95732251154
9340,Lede,Kromme Elleboogstraat,26,50.975319672,3.99827009645
9340,Lede,Meirveld,25,50.9720088031,3.97800553293
9340,Lede,Blikstraat,113,50.9736547882,3.99922151122
9340,Lede,Billegemstraat,59,50.9785904617,3.95452394593
9340,Lede,Kasteelstraat,26,50.9684270179,3.98332771134
9340,Lede,Blekte,203,50.9731595932,3.91432819848
9340,Lede,Julius De Geyterstraat,3,50.9653161794,3.9765746004
9340,Lede,Hulst,62,50.9628557246,3.96280868
9340,Lede,Sint-Machariusstraat,12,50.9541663839,3.93163149532
9340,Lede,Stationsweg,13,50.9682372427,3.98066849755
9340,Lede,Blikstraat,67,50.9726931058,3.9964205541
9340,Lede,Putbosstraat,33,50.9553550553,3.93228722509
9340,Lede,Beekstraat,22,50.9610227368,3.89665327809
9340,Lede,Openveldstraat,1,50.9684590726,3.97489152376
9340,Lede,Julius De Geyterstraat,37,50.9651082912,3.97989303947
9340,Lede,Wilgenstraat,1,50.9687919497,3.99333866908
9340,Lede,Smesweg,78,50.9637389599,3.96841233565
9340,Lede,Benedenstraat,40,50.955849612,3.92805340353
9340,Lede,Suikerstraat,136,50.982816994,4.00824141194
9340,Lede,Koekoekstraat,1,50.9704181454,3.99340497118
9340,Lede,Wichelse steenweg,159B,50.9780631322,3.97518161753
9340,Lede,Markizaatstraat,33,50.9681822076,3.98726720037
9340,Lede,Nonnenbosstraat,49,50.977588831,3.95679339828
9340,Lede,Smetlededorp,2,50.9663129578,3.9273792289
9340,Lede,Veldekenswegel,15,50.9573441953,3.96341424399
9340,Lede,Langeweestraat,52,50.9741800947,3.97646854125
9340,Lede,Koekoekstraat,15,50.9706626513,3.99196777907
9340,Lede,Hoogstraat,30,50.9641389099,3.97799982533
9340,Lede,Veldekenswegel,1,50.9579402755,3.96435447153
9340,Lede,Nieuwstraat,59,50.9653790927,3.98137940057
9340,Lede,Heiplasstraat,40,50.9805345816,3.97883954063
9340,Lede,Varkensmarkt,8,50.9561610466,3.9007173526
9340,Lede,Kastanjestraat,17,50.9687676269,3.99550081598
9340,Lede,Overimpestraat,67,50.9588831001,3.96873013399
9340,Lede,Stationsstraat,3A,50.9699591443,3.98359916357
9340,Lede,Blikstraat,49,50.9724740154,3.99553300992
9340,Lede,Schildekensstraat,24,50.9669095487,3.93229115879
9340,Lede,Kluisberg,47,50.9660914664,3.99033061541
9340,Lede,Poortendries,60,50.9735699899,3.99076768839
9340,Lede,Kluize,17,50.9535451407,3.89120700289
9340,Lede,Herdergemsestraat,56,50.9747834105,3.98541214601
9340,Lede,Zwaluwstraat,9,50.9693480718,3.99872279961
9340,Lede,Suikerstraat,118,50.9822598636,4.00596420722
9340,Lede,Smesweg,106,50.9630947161,3.96649271381
9340,Lede,Essestraat,115,50.9561149129,3.94078107351
9340,Lede,Essestraat,69,50.9580233679,3.94406181946
9340,Lede,Ledestraat,9,50.9606114334,3.95331887964
9340,Lede,Klinkaard,15,50.9612427019,3.90705762126
9340,Lede,Molenhoek,154,50.9630232921,3.9147498413
9340,Lede,Heiplasweg,20,50.9779087168,3.97446183463
9340,Lede,Speurtstraat,48,50.9608233174,3.89922996092
9340,Lede,Vuystermansstraat,16,50.9599811282,3.96801022995
9340,Lede,Beukenlaan,17,50.9680900796,3.99447335802
9340,Lede,Klinkaard,33,50.9627253773,3.90638482959
9340,Lede,Kapellenhoek,73,50.9707127755,3.92108648154
9340,Lede,Putbosstraat,1,50.9540860183,3.93306228384
9340,Lede,Keiberg,16,50.9569552004,3.98406999277
9340,Lede,Kleine Ommegangweg,17,50.966283393,3.98436287188
9340,Lede,Dwarsstraat,26,50.9691728398,3.97990209729
9340,Lede,Ronkenburgstraat,31,50.9762962542,3.99615633636
9340,Lede,Beekveldrede,5,50.9713440786,3.97060596598
9340,Lede,Bellaertstraat,12,50.9646374984,3.98385490382
9340,Lede,Wijmenstraat,51,50.9569796428,3.94827851769
9340,Lede,Billegemstraat,105,50.9808041423,3.95472186275
9340,Lede,Guchtstraat,68,50.9699062254,3.96542298431
9340,Lede,Keiberg,34,50.9553370799,3.98438852708
9340,Lede,Openveldstraat,33,50.9692699528,3.97412576747
9340,Lede,Kerkstraat,9,50.956895444,3.90163617402
9340,Lede,Hoging,49,50.9511182169,3.900819972
9340,Lede,Markizaatstraat,15,50.9674648169,3.98742022812
9340,Lede,D'Heerselweg,23,50.9579113683,3.9689203092
9340,Lede,Molenbergstraat,12,50.964484656,3.97619349148
9340,Lede,Blekte,98A,50.9720799696,3.91144742277
9340,Lede,Bremenhulweg,86,50.971995535,3.99307842906
9340,Lede,Grote Steenweg,89,50.9590747694,3.89612401096
9340,Lede,Molenhoek,29,50.9650058183,3.92455866685
9340,Lede,Dorenweg,28,50.9620438259,3.97448369076
9340,Lede,Molenbergstraat,30,50.9639490401,3.97499895041
9340,Lede,Broeder de Saedeleerstraat,100,50.9649424452,3.99491738294
9340,Lede,Wijmenstraat,122,50.953535935,3.94602725473
9340,Lede,Smetlededorp,18,50.9659096402,3.92827687838
9340,Lede,Kapellenhoek,91,50.9711064509,3.91946594344
9340,Lede,Speurtstraat,23E,50.9598512916,3.89846336327
9340,Lede,Rodtstraat,29,50.96086825,3.90421233106
9340,Lede,Ledezijdestraat,69,50.9615249571,3.95238442968
9340,Lede,Rammelstraat,32,50.967208734,3.97666556809
9340,Lede,Kerkwegel,16,50.973827584,3.9573759848
9340,Lede,Nonnenbosstraat,85,50.9797848741,3.95670421215
9340,Lede,Blekte,50B,50.9678807292,3.91014170745
9340,Lede,Nieuwstraat,123,50.9649313658,3.98603647996
9340,Lede,Guchtstraat,86,50.9698556172,3.96668565745
9340,Lede,Bellaertstraat,65,50.9608434643,3.98286597515
9340,Lede,Kerpelstraat,12A,50.967343435,3.97471125477
9340,Lede,Hoogstraat,77A,50.9608678006,3.97603212587
9340,Lede,Keiberg,69,50.9542097677,3.98914058768
9340,Lede,Barrevoetsehoek,42,50.9762122335,3.98692730414
9340,Lede,Openveldstraat,53,50.9696528228,3.97375481455
9340,Lede,Molenstraat,27,50.9569521716,3.94637966165
9340,Lede,Herdergemsestraat,38,50.9743197633,3.98406700542
9340,Lede,Essestraat,16,50.9601613848,3.94866979301
9340,Lede,Nonnenbosstraat,32,50.9759059979,3.95879317812
9340,Lede,Bergstraat,3,50.9692846187,3.97647127638
9340,Lede,Charleroistraat,21,50.9713491427,3.98331896472
9340,Lede,Molenhoek,108,50.9639814412,3.92006664567
9340,Lede,Blikstraat,32,50.9728144237,3.99464927523
9340,Lede,Markizaatstraat,1,50.9668774335,3.98774687084
9340,Lede,Smesweg,25,50.9649426043,3.97095148477
9340,Lede,Oordegemkouter,66,50.9598396669,3.90722528261
9340,Lede,Langeweestraat,7,50.9734758585,3.97982617503
9340,Lede,Oordegemkouter,112,50.9622849596,3.91158081212
9340,Lede,Wijstraat,66,50.9717941152,3.97232131979
9340,Lede,Essestraat,34,50.9597696158,3.94735780902
9340,Lede,Rosselstraat,4,50.9653866358,3.97562479059
9340,Lede,Klinkaard,71,50.9655367054,3.90375715772
9340,Lede,Kloosterstraat,27,50.9744066092,3.9713675164
9340,Lede,Openveldstraat,71,50.9700859093,3.97404430994
9340,Lede,Bergstraat,19,50.969727709,3.97706779867
9340,Lede,Plataanstraat,14,50.9687875023,3.99595793407
9340,Lede,Blokstraat,22,50.9547789381,3.92763505637
9340,Lede,Hollestraat,42,50.9656421812,3.99460845495
9340,Lede,Kerkevijverstraat,35A,50.968434897,3.97932750411
9340,Lede,Lijsterbesstraat,7,50.9683399449,3.99707377237
9340,Lede,Watermolenstraat,7,50.9726845036,3.9561937326
9340,Lede,Koning Albertlaan,20,50.9633523607,3.98173504621
9340,Lede,Blekte,7,50.9653968108,3.90445836309
9340,Lede,Klinkaard,150,50.9685420698,3.90031917291
9340,Lede,Blikstraat,14,50.9727900092,3.99302224225
9340,Lede,Overimpestraat,32,50.959800678,3.9700130399
9340,Lede,Katstraat,107,50.9614322261,3.97984760138
9340,Lede,Nerumweg,19,50.9633151611,3.99363282811
9340,Lede,Oud-Smetlede,94,50.9749996257,3.91026993939
9340,Lede,Broeder de Saedeleerstraat,89,50.9646884416,3.99297871323
9340,Lede,Tuinwijk,14,50.963664377,3.98445220423
9340,Lede,Pastorijstraat,12,50.9658094252,3.98007372128
9340,Lede,Katstraat,79,50.9624269842,3.97933033725
9340,Lede,Stichelendries,25,50.9599907613,3.8891149718
9340,Lede,Ommeganglaan,43,50.9613365658,3.97970733201
9340,Lede,Groenstraat,55,50.9779065367,3.98865214233
9340,Lede,Hoogstraat,111,50.9587749589,3.97604891012
9340,Lede,Vrijdagmarkt,14,50.974850516,4.00119607146
9340,Lede,Nonnenbosstraat,14,50.9753123354,3.95750109065
9340,Lede,Hoogstraat,65,50.9616568655,3.97678208431
9340,Lede,Papegemstraat,39,50.9536174135,3.93170719435
9340,Lede,Poortendriesstraat,5,50.9700990653,3.98798298041
9340,Lede,Grote Steenweg,153,50.9571334959,3.89985282426
9340,Lede,Steenland,41,50.9617714391,3.96787638347
9340,Lede,Keibergkerkweg,48,50.9586678089,3.98145196321
9340,Lede,Wijmenstraat,104,50.9546217521,3.94625003834
9340,Lede,Rammelstraat,70,50.9687254027,3.97518042655
9340,Lede,Impedorp,7,50.9595658874,3.95179429975
9340,Lede,Poortendriesstraat,39,50.9721583078,3.98967535719
9340,Lede,Kanariestraat,10,50.9706618968,3.99299812125
9340,Lede,Serskampstraat,85,50.9719769941,3.9389826736
9340,Lede,Ledestraat,79,50.9580153238,3.96039114567
9340,Lede,Ronkenburgstraat,13,50.9738654167,3.99299997028
9340,Lede,Oud-Smetlede,76,50.9738780996,3.91258106075
9340,Lede,Putbosstraat,53,50.9564790461,3.9319367586
9340,Lede,Biestraat,25,50.960071287,3.96619022968
9340,Lede,Guido Gezellestraat,43,50.9678835086,3.97269955674
9340,Lede,Steenstraat,14,50.9643994227,3.99902584206
9340,Lede,Hoogstraat,164,50.9553863434,3.97976215593
9340,Lede,Kasteelstraat,64,50.9692895949,3.98304173684
9340,Lede,Suikerstraat,65,50.9807652831,4.00394639398
9340,Lede,Oud-Smetlede,23,50.9725551336,3.91644920432
9340,Lede,Poortendries,42,50.9731102054,3.98998944845
9340,Lede,Steenstraat,49,50.9635459998,4.00095697406
9340,Lede,Broeder de Saedeleerstraat,18,50.9651024817,3.98763201057
9340,Lede,Impedorp,52,50.9603736461,3.95046920501
9340,Lede,Benedenstraat,20,50.9564234836,3.93004858231
9340,Lede,Damstraat,4,50.9655399681,3.96735465897
9340,Lede,Heiplasweg,3,50.9776217572,3.97311465338
9340,Lede,Langenakker,24,50.975090405,3.97911255807
9340,Lede,Blekte,52,50.9680407869,3.90994610267
9340,Lede,Grote Steenweg,171,50.9565657679,3.90158209444
9340,Lede,Ronkenburgstraat,112,50.9780059157,3.99584089894
9340,Lede,Dr.Prieëlslaan,41,50.9601990652,3.90505235
9340,Lede,Broeder de Saedeleerstraat,2,50.9651382999,3.98650712418
9340,Lede,Broeder de Saedeleerstraat,36,50.9649977581,3.98902436528
9340,Lede,Watermolenstraat,52,50.970427573,3.9587476083
9340,Lede,Reymeersstraat,22,50.9663896068,3.97145484935
9340,Lede,Nieuwstraat,95,50.9652044801,3.98463377496
9340,Lede,Nieuwstraat,24,50.9655703172,3.98070320192
9340,Lede,Dries,2,50.9623090887,3.89855547285
9340,Lede,Dries,36,50.9630355783,3.89562991187
9340,Lede,Vossedreef,24,50.9735029266,3.98275398223
9340,Lede,Smetledestraat,26,50.9665737836,3.94167899725
9340,Lede,Oudenhelweg,13,50.9647942866,3.97424081041
9340,Lede,Bosstraat,29A,50.9659236387,4.00080240805
9340,Lede,Kapelleweg,88,50.9676210906,3.92158916765
9340,Lede,Briel,243,50.9735841341,3.92614862742
9340,Lede,Dr. Moenslaan,12,50.9627367504,3.98400599211
9340,Lede,Oordegemdorp,6,50.9573066087,3.90142968978
9340,Lede,Kerkevijverstraat,2,50.96907974,3.97928514228
9340,Lede,Serskampstraat,14,50.9679337862,3.93763391576
9340,Lede,Wijstraat,13,50.9737451919,3.97687354371
9340,Lede,Schoot,7,50.9743486424,3.89761134907
9340,Lede,Wijmenstraat,6,50.9595901783,3.95060827106
9340,Lede,Stokstraat,8,50.9723700813,3.98406887995
9340,Lede,Essestraat,87,50.9573029991,3.94287787974
9340,Lede,Reymeersstraat,93,50.9674563626,3.96364073426
9340,Lede,Bovenstraat,6,50.9547602969,3.93153046969
9340,Lede,Serskampstraat,49,50.9705664543,3.93838523931
9340,Lede,Ouden Heirweg,6,50.9547206937,3.9026708596
9340,Lede,Smesweg,96,50.9628067138,3.96781559121
9340,Lede,Damstraat,38,50.9644093131,3.96781002525
9340,Lede,Billegemstraat,24,50.9767480329,3.95514321925
9340,Lede,Rammelstraat,52,50.9675807515,3.9757872245
9340,Lede,Braekenhaag,13,50.9698619032,4.00437688698
9340,Lede,Albrecht Rodenbachstraat,28,50.9615254818,3.968772682
9340,Lede,Stationsweg,31,50.9686919388,3.98135634842
9340,Lede,Klinkaard,53,50.9642852177,3.9052196923
9340,Lede,Kasteeldreef,89,50.9665401016,3.98554120503
9340,Lede,Dries,18,50.9628313385,3.89719836584
9340,Lede,Watermolenstraat,70,50.9693501983,3.95941830887
9340,Lede,Wanzelekouter,77,50.968304392,3.95466378847
9340,Lede,Oordegemkouter,13,50.9571631981,3.90351042468
9340,Lede,Grotekapellelaan,78,50.9611403208,3.97360234909
9340,Lede,Suikerstraat,12,50.9787274161,3.99678622628
9340,Lede,Kasteelstraat,82,50.9698732024,3.98282880157
9340,Lede,Impedorp,67,50.9601167851,3.95013044811
9340,Lede,Serskampstraat,70,50.9714885854,3.93826374306
9340,Lede,Speurtstraat,4,50.9586542685,3.90130881649
9340,Lede,Blekte,49,50.9676078303,3.91077005479
9340,Lede,Briel,171,50.9700179782,3.92641302256
9340,Lede,Molenhoek,57,50.9643854873,3.92294755478
9340,Lede,Katstraat,34,50.9639575939,3.97998256641
9340,Lede,Grote Steenweg,196,50.9572052151,3.90072986205
9340,Lede,Zwaluwstraat,16,50.9696211848,3.99844246217
9340,Lede,Hulst,79,50.9634426963,3.96332133023
9340,Lede,Bellaertstraat,50,50.9623258828,3.98256070823
9340,Lede,Benedenstraat,57,50.9559339112,3.92665695806
9340,Lede,Briel,16,50.9710103172,3.92300481818
9340,Lede,Spoorstraat,11,50.9657685196,3.99578287993
9340,Lede,Stationsstraat,33,50.9700942429,3.98582954686
9340,Lede,Molenbergstraat,50,50.9629920933,3.97353979644
9340,Lede,Suikerstraat,101,50.9820751578,4.00819797716
9340,Lede,Ledezijdestraat,54,50.9630764498,3.95363828451
9340,Lede,Steenstraat,156,50.9627851628,4.00982243915
9340,Lede,Smetlededorp,11,50.9655619688,3.92732635549
9340,Lede,Impedorp,49,50.9613009757,3.95186017458
9340,Lede,Ledestraat,34,50.9595545104,3.95402027137
9340,Lede,Stichelendries,81,50.9576956845,3.88548972039
9340,Lede,Steenstraat,52,50.9645300634,4.00190957548
9340,Lede,Hofstraat,60,50.9726771856,3.95280906559
9340,Lede,Tussenbeekstraat,3,50.9755096729,3.95501715232
9340,Lede,Heiplasweg,27,50.9777171148,3.97652357397
9340,Lede,Kapellenhoek,47,50.9690707899,3.92293724037
9340,Lede,Charleroistraat,6,50.9703426663,3.98350091549
9340,Lede,Beekstraat,5,50.9602063275,3.8961173199
9340,Lede,Kasteelstraat,46,50.9688513428,3.98317189852
9340,Lede,Kapelleweg,71,50.9656648353,3.9183831428
9340,Lede,Katstraat,48,50.9629923355,3.97974215897
9340,Lede,Oordegemdorp,33,50.9577365775,3.90240608129
9340,Lede,Vijverstraat,23,50.9691741731,3.97919011276
9340,Lede,Steenland,21,50.9619026534,3.96670718654
9340,Lede,Dwarsstraat,44,50.9695226926,3.97805127336
9340,Lede,Benedenstraat,93,50.9556063014,3.92516533801
9340,Lede,Damstraat,13,50.9646801727,3.96696911334
9340,Lede,Wichelse steenweg,127,50.9766123795,3.97532477441
9340,Lede,Nieuwstraat,42,50.965655776,3.98165044134
9340,Lede,Oordegemkouter,38,50.9585831432,3.90459874199
9340,Lede,Watermolenstraat,67,50.9696983481,3.95975282889
9340,Lede,Grote Steenweg,215,50.9556915795,3.90593714524
9340,Lede,Burgemeester Coppensstraat,17,50.9656285104,3.98565640512
9340,Lede,Kasteeldreef,28,50.9664567231,3.98104878413
9340,Lede,Ouden Heirweg,33,50.956252095,3.89922371049
9340,Lede,Barrevoetsehoek,24,50.9747699669,3.98769693573
9340,Lede,Guchtstraat,1,50.9668135214,3.96507656217
9340,Lede,Kerkhofstraat,9,50.9666763821,3.92730320988
9340,Lede,Biestraat,17,50.9596960176,3.96688506402
9340,Lede,Ledestraat,16,50.9602877132,3.95364641922
9340,Lede,Ossenbroeck,1,50.9508711705,3.87457304016
9340,Lede,Hoogstraat,39,50.9626610405,3.97688316932
9340,Lede,Beekstraat,29,50.9617752561,3.89607505295
9340,Lede,Houwstraat,54,50.9670523105,3.89095630779
9340,Lede,Kerkevijverstraat,28,50.9706307425,3.98132597685
9340,Lede,Hulst,115,50.9628066238,3.96602387004
9340,Lede,Grote Steenweg,92,50.9610219052,3.89322980902
9340,Lede,Stichelendries,45,50.9587678809,3.88622025565
9340,Lede,Smesweg,81,50.9641212968,3.96636078823
9340,Lede,Wielewaalstraat,1,50.9698880983,3.99767783373
9340,Lede,Dr. E. Rubbenslaan,3,50.9721382939,3.9883188261
9340,Lede,Billegemstraat,42,50.9776832637,3.95437118843
9340,Lede,Schildekensstraat,7,50.9662568209,3.93037610577
9340,Lede,Molenhoek,93,50.9642385021,3.91920893946
9340,Lede,Essestraat,54,50.9591294239,3.94543632199
9340,Lede,Ledezijdestraat,90,50.9625338886,3.95359738658
9340,Lede,Bosstraat,8,50.9652602005,3.99892767582
9340,Lede,Bovenstraat,15,50.954730396,3.93071723035
9340,Lede,Kapellenhoek,20,50.9668018232,3.92556652488
9340,Lede,Tuinwijk,24,50.9639765073,3.98462402985
9340,Lede,Bosstraat,43,50.9667674129,4.00237213665
9340,Lede,Heiplasstraat,75,50.9798811547,3.98247058068
9340,Lede,Rosselstraat,41,50.9658029939,3.97411119293
9340,Lede,Essestraat,2,50.9605849727,3.94975747122
9340,Lede,Bremenhulweg,1,50.9689279123,3.98959123799
9340,Lede,Molenbergstraat,39,50.9641439757,3.97460983687
9340,Lede,Dwarsstraat,62,50.96967218,3.97726458691
9340,Lede,Herdergemsestraat,41,50.9745065012,3.98592541659
9340,Lede,Acaciastraat,4,50.9675921322,3.99497359712
9340,Lede,Barrevoetsehoek,59,50.9756692358,3.98849782115
9340,Lede,Wijmenstraat,119,50.9531389498,3.94745286744
9340,Lede,Herdergemsestraat,13,50.9740690229,3.98430598135
9340,Lede,Bremenhulweg,23,50.9697046937,3.99049099555
9340,Lede,Heiplasstraat,22,50.9804716907,3.97622359502
9340,Lede,Speurtstraat,28,50.9597406349,3.90008727235
9340,Lede,Watermolenstraat,85,50.9687654891,3.96002703362
9340,Lede,Bosstraat,112,50.9691713565,4.00487482994
9340,Lede,Wichelse steenweg,89,50.974036034,3.97542836982
9340,Lede,Smesweg,17,50.9651352222,3.97161051853
9340,Lede,Smesweg,45,50.964651937,3.96923916723
9340,Lede,Wijmenstraat,15,50.9591542172,3.95074125088
9340,Lede,Klinkaard,106,50.9679077991,3.90118352399
9340,Lede,Impse Dam,16,50.9646396507,3.96586964387
9340,Lede,Kasteeldreef,4,50.9665282578,3.97916265952
9340,Lede,Vijverstraat,1,50.9673648621,3.97752583203
9340,Lede,Vogelenzang,43,50.9799428179,4.01310944345
9340,Lede,Stichelendries,63,50.9589007107,3.88489786953
9340,Lede,Houwstraat,90,50.9704531741,3.88676588507
9340,Lede,Rammelstraat,67,50.9696573856,3.9755755172
9340,Lede,Julius De Geyterstraat,10,50.9652124425,3.97871334213
9340,Lede,Essestraat,176,50.9549441951,3.93666193997
9340,Lede,Houwstraat,2,50.9629678463,3.89653763772
9340,Lede,Hoging,24,50.9532784479,3.90018349073
9340,Lede,Briel,153,50.9695974793,3.9252716325
9340,Lede,Essestraat,72,50.9583667189,3.9441247579
9340,Lede,de Kerchovelaan,4,50.9704537047,3.9874862237
9340,Lede,Molenhoek,75,50.9642960614,3.92152986572
9340,Lede,Langehaag,26,50.9621262753,3.94851798749
9340,Lede,Bredestraat,21,50.9747062705,3.95447206878
9340,Lede,Groenstraat,27,50.9782240453,3.99280134252
9340,Lede,Molenstraat,47,50.9557887572,3.9487642614
9340,Lede,Jezuïtenstraat,2,50.9782819948,3.99598878963
9340,Lede,Ommeganglaan,58,50.9593506193,3.9778813764
9340,Lede,Rosselstraat,13,50.9656200561,3.97553429181
9340,Lede,Bredestraat,74,50.9773145317,3.95337827369
9340,Lede,Vossedreef,13A,50.9731331525,3.98306982637
9340,Lede,Volderstraat,26,50.9744894721,3.96011532234
9340,Lede,Bellaertstraat,39,50.9620745418,3.98214983277
9340,Lede,Stichelendries,17,50.9600776694,3.88994947535
9340,Lede,Bambochtweg,22,50.9713002399,3.98112682719
9340,Lede,Wichelse steenweg,109,50.9750208948,3.97539947524
9340,Lede,Ommeganglaan,8,50.9619434111,3.98147292632
9340,Lede,Molenhoek,22,50.9648266837,3.92530430122
9340,Lede,Schildekensstraat,42,50.9667758157,3.93375671091
9340,Lede,de Kerchovelaan,28,50.9709123816,3.98677790408
9340,Lede,Grote Steenweg,233,50.9554394324,3.90706044188
9340,Lede,Briel,80,50.9736869006,3.92541254812
9340,Lede,Vuystermansstraat,2,50.9598334165,3.96919588441
9340,Lede,Vijverstraat,51,50.9709810099,3.97972994811
9340,Lede,Papegemstraat,12,50.9535894211,3.93402868441
9340,Lede,Katstraat,87,50.9621671428,3.9793968313
9340,Lede,Paddestraat,5,50.9830100871,4.01116384976
9340,Lede,Dr.Prieëlslaan,74,50.9597653069,3.9032019623
9340,Lede,Poortendriesstraat,12,50.9703594419,3.98774709841
9340,Lede,Hoging,52,50.9516420658,3.89994777711
9340,Lede,Watermolenstraat,14,50.972335867,3.95613358058
9340,Lede,Wichelse steenweg,173,50.9788033691,3.97533389933
9340,Lede,Poortendriesstraat,30,50.9715115029,3.98855170034
9340,Lede,Grote Steenweg,243,50.955031783,3.90901813164
9340,Lede,Iepenstraat,7,50.9678486893,3.99662124687
9340,Lede,Grote Steenweg,28,50.9669979877,3.880778215
9340,Lede,Keiberg,2,50.9584639356,3.98400412115
9340,Lede,Dries,11,50.9622407011,3.89757140744
9340,Lede,Briel,62,50.9730311673,3.92616380649
9340,Lede,Papegemstraat,30,50.9533878655,3.93256665858
9340,Lede,Oordegemkouter,104,50.961294514,3.90971024456
9340,Lede,Hoging,70,50.9523508887,3.89641894913
9340,Lede,Schoot,85,50.9704166368,3.88840608968
9340,Lede,Bellaertstraat,1D,50.9646903971,3.98348264546
9340,Lede,Kerkwegel,2,50.9738930077,3.95670195053
9340,Lede,Impedorp,32,50.9610443048,3.9513709464
9340,Lede,Ouden Heirweg,86,50.9550133596,3.89091354558
9340,Lede,Zuster Lambertinestraat,20,50.9666885851,3.97598288706
9340,Lede,Beukenlaan,25,50.9682381,3.99386912788
9340,Lede,Meirveld,78,50.9721040553,3.97929821847
9340,Lede,Broeder de Saedeleerstraat,11,50.9648094472,3.98780407277
9340,Lede,Markt,1,50.9666126325,3.97795803421
9340,Lede,Blekte,32,50.9668975278,3.9078302713
9340,Lede,Olmendreef,5,50.9654787943,3.98644527605
9340,Lede,Stokstraat,35,50.9723933071,3.98598350379
9340,Lede,Nonnenbosstraat,128,50.9804409473,3.95779508194
9340,Lede,Stefaan Glorieuxstraat,23,50.9645111132,3.92847904005
9340,Lede,Grotekapellelaan,63,50.9627728582,3.96933372519
9340,Lede,Wichelse steenweg,191,50.9796617368,3.97479015133
9340,Lede,Guido Gezellestraat,23,50.9680065629,3.97344606584
9340,Lede,Hofstraat,7,50.9743072888,3.95387430934
9340,Lede,Oordegemkouter,129,50.9612718497,3.9123900727
9340,Lede,Bellaertstraat,108,50.9598095708,3.98368066895
9340,Lede,Koning Albertlaan,3,50.9635327832,3.9820381867
9340,Lede,Guchtstraat,51,50.9686680805,3.96501591903
9340,Lede,Hippoliet Raesstraat,11,50.9623422173,3.96786325614
9340,Lede,Wijmenstraat,68,50.9571250677,3.94779400567
9340,Lede,Paddestraat,24,50.9850535196,4.01255804661
9340,Lede,Ouden Heirweg,68,50.954713429,3.89345649877
9340,Lede,Katstraat,62,50.9625531843,3.97968088595
9340,Lede,Vijverstraat,76,50.9701223879,3.97897951412
9340,Lede,Herdergemsestraat,31,50.9743108375,3.98521695372
9340,Lede,Olmendreef,29,50.9664072947,3.9861389099
9340,Lede,Langeweestraat,32,50.9733606358,3.97814762725
9340,Lede,Klinkaard,88,50.9664514118,3.90219852401
9340,Lede,Brilstraat,2,50.9655821838,3.97725326499
9340,Lede,Rosselstraat,31,50.9657532325,3.97465996591
9340,Lede,Koning Albertlaan,27,50.9636874001,3.98110851006
9340,Lede,Kapellenhoek,55,50.9697695238,3.92288761098
9340,Lede,Blekte,103,50.9703393592,3.91863386742
9340,Lede,Barrevoetsehoek,77,50.9769949484,3.98668329133
9340,Lede,Blikstraat,70,50.9732793014,3.9977612416
9340,Lede,Grote Steenweg,4,50.9676426274,3.87993556139
9340,Lede,Grote Steenweg,107,50.9584432439,3.89737465533
9340,Lede,Damstraat,31,50.9641783361,3.96761313233
9340,Lede,Poortendries,59,50.9730631229,3.99139680679
9340,Lede,Stuivenbergstraat,20,50.9750091803,3.95194065258
9340,Lede,Molenhoek,146,50.9631346549,3.91544584572
9340,Lede,Molenhoek,3,50.9656784595,3.92634115225
9340,Lede,Katstraat,44,50.9631270351,3.97978132789
9340,Lede,Steenstraat,128,50.9625410203,4.00758947528
9340,Lede,Hoogledezijdestraat,30,50.9661329589,3.95037335229
9340,Lede,Stokveld,21,50.9736667022,3.98412546243
9340,Lede,Briel,48,50.9721837854,3.92536252912
9340,Lede,Speurtstraat,72B,50.9629345282,3.89915319364
9340,Lede,Nieuwstraat,60,50.9653802873,3.98504018335
9340,Lede,Meirveld,17,50.9719699701,3.97749117138
9340,Lede,Wanzelekouter,60,50.9702428658,3.95484729444
9340,Lede,Hoogstraat,50,50.9629809394,3.97752277223
9340,Lede,Bambochtweg,3,50.9718420639,3.98258938002
9340,Lede,Stationsweg,38,50.968923495,3.98231170373
9340,Lede,Stefaan Glorieuxstraat,1,50.9654117423,3.92708277403
9340,Lede,Schoot,14,50.9731995444,3.8962453603
9340,Lede,Reymeersstraat,5,50.9659823714,3.97353342629
9340,Lede,Hofstraat,42,50.9729777018,3.95232658963
9340,Lede,Langeweestraat,14,50.9731664182,3.97911015415
9340,Lede,Benedenstraat,27,50.9567608832,3.92976675065
9340,Lede,Guido Gezellestraat,1,50.968227545,3.97449954581
9340,Lede,Lijsterbesstraat,14,50.9684829333,3.99763412434
9340,Lede,Langenakker,7,50.9729848324,3.98205617571
9340,Lede,Bredestraat,110,50.9782650987,3.95326164479
9340,Lede,Hollestraat,29,50.9653321265,3.99485904823
9340,Lede,Lindestraat,17,50.9687481362,3.99775417795
9340,Lede,Billegemstraat,60,50.9790126466,3.953745585
9340,Lede,Vossedreef,7,50.9728387491,3.98326089404
9340,Lede,Stationsweg,1A,50.9680141155,3.9797925328
9340,Lede,Smetledestraat,9,50.9657563258,3.94273061409
9340,Lede,Langeweestraat,49,50.9739309631,3.97783633794
9340,Lede,Blomstraat,30,50.9620472256,3.99880848944
9340,Lede,Nieuwstraat,7,50.9654487739,3.9785782778
9340,Lede,Speckaertstraat,2,50.9614421776,3.99514166952
9340,Lede,Reymeersstraat,29,50.9661328178,3.96796286674
9340,Lede,Smesweg,43A,50.9645767955,3.96950700177
9340,Lede,Hofsmeer,12,50.9662096311,3.94571572667
9340,Lede,Leeuwerikstraat,7,50.9704774717,3.99450601408
9340,Lede,Wanzelekouter,7,50.972010901,3.95595334162
9340,Lede,Overimpestraat,70,50.958054636,3.96790881313
9340,Lede,Hoogledezijdestraat,12,50.9667303333,3.95167531414
9340,Lede,Grote Steenweg,178,50.957669394,3.89981772634
9340,Lede,Watermolenstraat,49,50.9704984895,3.95913252835
9340,Lede,Markt,23,50.9656374094,3.97791233773
9340,Lede,Billegemstraat,7,50.9764057957,3.95619022591
9340,Lede,Oud-Smetlede,137,50.9745363774,3.91213726341
9340,Lede,Serskampstraat,59,50.9715454911,3.93902776897
9340,Lede,Briel,188,50.9759537449,3.92593961888
9340,Lede,Overimpestraat,77,50.9586253255,3.96802791658
9340,Lede,Bosstraat,33,50.9660887861,4.00112355228
9340,Lede,Speurtstraat,107,50.9649378118,3.9016847168
9340,Lede,Dr.Prieëlslaan,38,50.9604165331,3.90325628585
9340,Lede,Dr. E. Rubbenslaan,10,50.972048523,3.98741120159
9340,Lede,Kerkevijverstraat,9,50.9668483346,3.9791799349
9340,Lede,Guchtstraat,8,50.9677107582,3.96463450401
9340,Lede,Openveldstraat,17,50.968943435,3.97444014925
9340,Lede,Langeweestraat,42,50.974060606,3.97681338972
9340,Lede,D'Heerselweg,15,50.9578286994,3.96834798463
9340,Lede,Watermolenstraat,60,50.9699051803,3.95897340999
9340,Lede,Kromme Elleboogstraat,16,50.9753509856,3.99733765612
9340,Lede,Smesweg,88,50.9635273849,3.9678937103
9340,Lede,Grote Steenweg,99,50.9587044701,3.89681222838
9340,Lede,Kapelleweg,96,50.9679336421,3.92286731661
9340,Lede,Wielewaalstraat,8,50.9693646872,3.99771770275
9340,Lede,Markizaatstraat,23,50.9678082317,3.98739964481
9340,Lede,Sasstraat,7,50.9610614464,4.00811014646
9340,Lede,Kasteelstraat,16,50.9682201021,3.98338820533
9340,Lede,Tussenbeekstraat,10,50.9761243193,3.95492829734
9340,Lede,Schildekensstraat,32,50.9666462077,3.93281350159
9340,Lede,Ossenbroeck,8,50.9607578521,3.87530767144
9340,Lede,Ommeganglaan,33,50.9618718259,3.9804262914
9340,Lede,Watermolenstraat,42,50.9708540623,3.95837072892
9340,Lede,Beekstraat,12,50.9604962858,3.89680219238
9340,Lede,Rodtstraat,3,50.9601691604,3.90721065734
9340,Lede,Heiplasstraat,50,50.9804801,3.97978952001
9340,Lede,Hoogstraat,22,50.9643071455,3.97741777417
9340,Lede,Julius De Geyterstraat,27,50.9650186203,3.97936166405
9340,Lede,Nonnenbosstraat,77,50.9792906919,3.95653838442
9340,Lede,Kasteelstraat,34,50.9685847863,3.98327459605
9340,Lede,Keibergkerkweg,36,50.959232816,3.98124162952
9340,Lede,Nieuwstraat,115,50.9650724769,3.98553225224
9340,Lede,Hippoliet Raesstraat,9,50.9624634232,3.96768713613
9340,Lede,Heiplasstraat,3,50.9800542123,3.97586809634
9340,Lede,Dr.Prieëlslaan,1A,50.9586938313,3.90140179465
9340,Lede,Steenland,38,50.961969003,3.96821347721
9340,Lede,Heiplasweg,10,50.9778608648,3.97335342477
9340,Lede,Blikstraat,77,50.9728295617,3.99693245724
9340,Lede,Molenhoek,50,50.9640362335,3.92339443668
9340,Lede,Bambochtweg,50,50.9722033884,3.98085170717
9340,Lede,Beekstraat,30,50.9616331237,3.89665511298
9340,Lede,Overimpestraat,95,50.9583238468,3.96663718661
9340,Lede,Wichelse steenweg,163A,50.9782598622,3.97514109511
9340,Lede,Wichelse steenweg,82,50.9723835838,3.9749867486
9340,Lede,Broeder de Saedeleerstraat,46,50.9649845107,3.98973979823
9340,Lede,Oudenhelweg,21,50.9644327471,3.97419046507
9340,Lede,Broeder de Saedeleerstraat,9,50.9648414737,3.98767270593
9340,Lede,Guchtstraat,94,50.9699989175,3.96724223179
9340,Lede,Braekenhaag,21,50.9699641952,4.00373600522
9340,Lede,Speurtstraat,11,50.9593248464,3.90026066066
9340,Lede,Rammelstraat,60,50.9680143649,3.97537387658
9340,Lede,Grote Steenweg,143,50.9574549937,3.89927559132
9340,Lede,Dwarsstraat,48,50.9694463504,3.9778004882
9340,Lede,Dries,46,50.9626976839,3.89433823869
9340,Lede,Oordegemkouter,21,50.9576224852,3.90415263147
9340,Lede,Kromme Elleboogstraat,34,50.9753342519,3.99896239845
9340,Lede,Dries,9,50.9622243309,3.89774879251
9340,Lede,Papegemstraat,65,50.9532728158,3.92974071279
9340,Lede,Kerkevijverstraat,46,50.9713121965,3.98200232059
9340,Lede,Bremenhulweg,76,50.9717893424,3.99243740192
9340,Lede,Populierenstraat,3,50.9686564047,3.99433160597
9340,Lede,Kapellenhoek,37,50.9685060513,3.92328627071
9340,Lede,Wijmenstraat,61,50.9565395086,3.94767058854
9340,Lede,Hoogveld,25,50.9689684842,3.9722883667
9340,Lede,Rammelstraat,24,50.9670503626,3.97702293202
9340,Lede,Heiplasstraat,39,50.9801312404,3.98025705938
9340,Lede,Vogelenzang,15,50.9819395487,4.01056905991
9340,Lede,Kerkevijverstraat,11,50.9669349172,3.97967420049
9340,Lede,Klinkaard,142,50.9684251262,3.90016302648
9340,Lede,Speurtstraat,99,50.9646635957,3.90110835072
9340,Lede,Kasteeldreef,107,50.9666662627,3.98682709697
9340,Lede,Hulst,54,50.9627874058,3.96333068752
9340,Lede,Bellaertstraat,22,50.9643547174,3.98372440695
9340,Lede,Ronkenburgstraat,104,50.9772881627,3.99565494046
9340,Lede,D'Heerselweg,1,50.9582212531,3.96829183306
9340,Lede,Dwarsstraat,16,50.9690694058,3.98037532369
9340,Lede,Guchtstraat,58,50.9695614033,3.96466470641
9340,Lede,Bellaertstraat,93,50.9594660948,3.98302332672
9340,Lede,Kasteeldreef,11,50.9662695952,3.97928652057
9340,Lede,Keiberg,26,50.9558926668,3.98418216366
9340,Lede,Putbosstraat,23,50.9548210445,3.93249428598
9340,Lede,Rodtstraat,39,50.9609781495,3.90452112284
9340,Lede,Rosselstraat,2A,50.9653577195,3.97584909887
9340,Lede,Stokstraat,17,50.9720866922,3.98466077611
9340,Lede,Ommeganglaan,1,50.9627113663,3.98182758579
9340,Lede,Charleroistraat,13,50.9710296566,3.98339946402
9340,Lede,Eikelstraat,2,50.9673156649,3.99694748889
9340,Lede,Wijmenstraat,43,50.9575160987,3.94912713321
9340,Lede,Ronkenburgstraat,74,50.9759968484,3.99556837615
9340,Lede,Dwarsstraat,34,50.969393113,3.97887921825
9340,Lede,Guchtstraat,76,50.9698396856,3.9661006598
9340,Lede,Ronkenburgstraat,21,50.9740660403,3.99338934323
9340,Lede,Stokstraat,45,50.9726791187,3.98704928513
9340,Lede,Bosstraat,1,50.9647747046,3.99884708283
9340,Lede,Vijverstraat,58,50.9695542791,3.97892984449
9340,Lede,Klinkaard,23,50.9618258836,3.90665545773
9340,Lede,Houwstraat,26,50.9647710354,3.89423657634
9340,Lede,Wijde Wereld,15,50.9637226349,3.89062206919
9340,Lede,Smetlededorp,28,50.966159459,3.92806185286
9340,Lede,Bellaertstraat,75,50.9603631461,3.98302507069
9340,Lede,Keibergkerkweg,4,50.960710172,3.98021953666
9340,Lede,Bremenhulweg,58,50.9709122686,3.99162579374
9340,Lede,Kasteeldreef,46,50.967078426,3.98340540199
9340,Lede,Speckaertweg,7,50.9641591094,3.98803867419
9340,Lede,Bredestraat,38,50.975759392,3.95437663339
9340,Lede,Veldekenswegel,23,50.9568560107,3.9634221569
9340,Lede,Bosstraat,15,50.9651545117,3.99942290272
9340,Lede,Wijstraat,56,50.9720487756,3.97290746368
9340,Lede,Ommeganglaan,51,50.9604221797,3.97884008526
9340,Lede,Steenstraat,103,50.9625176317,4.00492579664
9340,Lede,Nonnenbosstraat,5,50.9747047864,3.95663744662
9340,Lede,Impse Dam,2,50.9648661033,3.96684652256
9340,Lede,Ledestraat,69,50.9580428445,3.95969561152
9340,Lede,Wichelse steenweg,155,50.9776453122,3.97515535954
9340,Lede,Hoogstraat,75,50.9613291253,3.9767583434
9340,Lede,Kasteeldreef,99,50.9665988825,3.9863682545
9340,Lede,Koning Albertlaan,10,50.9633157377,3.982107162
9340,Lede,Broeder de Saedeleerstraat,107,50.9646699002,3.99486417682
9340,Lede,Briel,135,50.9694480916,3.92334609726
9340,Lede,Hoogledezijdestraat,40,50.9656817055,3.94918884257
9340,Lede,Vijverstraat,106,50.9726196095,3.98025655189
9340,Lede,Markt,8,50.966326761,3.97874124409
9340,Lede,de Kerchovelaan,46,50.9711943861,3.98653158446
9340,Lede,Oordegemkouter,122,50.9626513855,3.9127913238
9340,Lede,Zuster Lambertinestraat,37,50.9673258028,3.97618810974
9340,Lede,Openveldstraat,81,50.9702813398,3.97450152482
9340,Lede,Blikstraat,5,50.9728699114,3.99186436018
9340,Lede,Blokstraat,12,50.9539808364,3.92837308326
9340,Lede,Damstraat,41,50.9639834996,3.96815672498
9340,Lede,Hoogstraat,93,50.9606458326,3.97653829348
9340,Lede,Tuinwijk,5,50.9631827279,3.98373614853
9340,Lede,Keibergkerkweg,33A,50.9584958973,3.98089486271
9340,Lede,Katstraat,69,50.9627550951,3.97927608761
9340,Lede,Wichelse steenweg,18,50.9685049207,3.97623890146
9340,Lede,Suikerstraat,57,50.9803669152,4.00346475905
9340,Lede,Hofstraat,14,50.9744362362,3.95345214507
9340,Lede,Langehaag,105,50.9649764616,3.94436322713
9340,Lede,Oordegemkouter,56,50.9595788986,3.9066787057
9340,Lede,Olmendreef,30,50.9662368597,3.98594598058
9340,Lede,Dr.Prieëlslaan,6,50.9591876649,3.90213873949
9340,Lede,Oordegemkouter,74,50.9602016859,3.90780318285
9340,Lede,Speurtstraat,46,50.960512962,3.89939988731
9340,Lede,Smesweg,35,50.9646822845,3.97007736642
9340,Lede,Steenstraat,121,50.9621505521,4.00715889526
9340,Lede,Wichelse steenweg,36,50.9707830315,3.97503860841
9340,Lede,Keiberg,12A,50.9571855213,3.98404675739
9340,Lede,Hoeksken,5,50.967921274,3.98780303606
9340,Lede,Charleroistraat,31,50.9715304682,3.98296538735
9340,Lede,Hoging,59,50.950344987,3.90132775203
9340,Lede,Kloosterstraat,37,50.9752791573,3.97098181602
9340,Lede,Blikstraat,24,50.9725842154,3.99400101811
9340,Lede,Hoging,5,50.9552447965,3.90106663953
9340,Lede,Openveldstraat,45,50.9694981499,3.97389876741
9340,Lede,Kerkstraat,2,50.956894955,3.90205690578
9340,Lede,Billegemstraat,85,50.979824162,3.95434759409
9340,Lede,Keibergkerkweg,82,50.9575834568,3.98329754204
9340,Lede,Rampsande,5,50.9723151812,3.93935473955
9340,Lede,Bredestraat,6,50.9743556832,3.95539210335
9340,Lede,Papegemstraat,29,50.9537507015,3.93252472067
9340,Lede,Groeneweg,3,50.9619897718,3.95174232026
9340,Lede,Molenhoek,118,50.9638202705,3.91903201542
9340,Lede,Blikstraat,59,50.97261215,3.99600602601
9340,Lede,Dorenweg,18A,50.9629948042,3.97475143569
9340,Lede,Steenland,6,50.9615255172,3.96711893933
9340,Lede,Guido Gezellestraat,8,50.9679222297,3.9742733322
9340,Lede,Klinkaard,45,50.9635969966,3.90592955289
9340,Lede,Blikstraat,121,50.9741977171,3.9995867189
9340,Lede,Langenakker,14,50.9746810501,3.97933536663
9340,Lede,Smetledestraat,16,50.9662450737,3.94277956456
9340,Lede,Albrecht Rodenbachstraat,36,50.9612320813,3.96856437152
9340,Lede,Smetlededorp,9,50.9658436545,3.92712369653
9340,Lede,Oud-Smetlede,1,50.9713474561,3.91864214235
9340,Lede,Volderstraat,7,50.9742090196,3.95895478901
9340,Lede,Wanzelekouter,14,50.9722514094,3.95550445209
9340,Lede,Suikerstraat,93,50.9819929675,4.00730829286
9340,Lede,Hoogstraat,101,50.9602310234,3.97614818925
9340,Lede,Nieuwstraat,14,50.9655334973,3.98033238621
9340,Lede,Bergstraat,27,50.9700376192,3.97743409181
9340,Lede,Stationsweg,21,50.9684254118,3.98081186925
9340,Lede,Leeuwerikstraat,14,50.9699087727,3.99455126272
9340,Lede,Briel,2,50.9705439837,3.92220684219
9340,Lede,Nieuwstraat,49,50.9650793424,3.98070982043
9340,Lede,Hoogstraat,154,50.9559047319,3.97907412993
9340,Lede,Hollestraat,12,50.96541635,3.99262625657
9340,Lede,Rammelstraat,42,50.9673548744,3.97636083505
9340,Lede,Nonnenbosstraat,59,50.9782249809,3.95655557227
9340,Lede,Wanzelekouter,49,50.9702010382,3.95532588257
9340,Lede,Zwaluwstraat,2,50.9691865009,3.99805452477
9340,Lede,Billegemstraat,32,50.9771903549,3.95469634505
9340,Lede,Ledestraat,2,50.9601949837,3.95274082246
9340,Lede,Reymeersstraat,12,50.9659622115,3.97285711767
9340,Lede,Nonnenbosstraat,103,50.9808311252,3.95734367048
9340,Lede,Wanzelekouter,32,50.9715007507,3.95520822942
9340,Lede,Kerpelstraat,7,50.9675482834,3.97510914442
9340,Lede,Broeder de Saedeleerstraat,28,50.9650992514,3.98835690216
9340,Lede,Processieweg,17,50.9740919155,3.95803317966
9340,Lede,Oud-Smetlede,33,50.9729036352,3.91656231245
9340,Lede,Hoogstraat,57,50.9619990105,3.9767043561
9340,Lede,Blikstraat,103,50.9732641374,3.99874206422
9340,Lede,Poortendries,52,50.9735089774,3.98999164284
9340,Lede,Hoogstraat,172,50.9550756092,3.98001550258
9340,Lede,Albrecht Rodenbachstraat,4,50.9621507979,3.96951979294
9340,Lede,Blomstraat,29,50.9615486723,3.99906436227
9340,Lede,Suikerstraat,22,50.9792438081,3.99765687856
9340,Lede,Putbosstraat,45,50.9560831859,3.93213927078
9340,Lede,Reymeersstraat,65,50.9666117271,3.96547490761
9340,Lede,Overimpestraat,121,50.9584614038,3.96496159379
9340,Lede,Reymeersstraat,30,50.9664232922,3.97088826446
9340,Lede,Klinkaard,63,50.9650011592,3.9042229774
9340,Lede,Grote Steenweg,161,50.9566202627,3.90081724575
9340,Lede,Oud-Smetlede,68,50.9736829291,3.91287982069
9340,Lede,Kerkevijverstraat,99,50.9714926261,3.98266443644
9340,Lede,Impedorp,42,50.9607182714,3.95066427445
9340,Lede,Serskampstraat,24,50.9686233777,3.93751639778
9340,Lede,Biestraat,35,50.9602674906,3.96575982217
9340,Lede,Schildekensstraat,85,50.9666386948,3.93572353178
9340,Lede,Overimpestraat,59,50.9590409343,3.96904235519
9340,Lede,Stefaan Glorieuxstraat,8,50.9653135827,3.92744357082
9340,Lede,Barrevoetsehoek,5,50.9735187535,3.98959347143
9340,Lede,Albrecht Rodenbachstraat,18,50.9617839901,3.96908306793
9340,Lede,Dr. Moenslaan,22,50.9627770154,3.98524422139
9340,Lede,Nieuwstraat,67,50.9653853827,3.98239134823
9340,Lede,Grote Steenweg,120,50.9594278951,3.89612956668
9340,Lede,Bellaertstraat,27,50.9630729827,3.98220353665
9340,Lede,Grotekapellelaan,51,50.9632335926,3.96905137405
9340,Lede,Langehaag,32,50.9623626454,3.94820185762
9340,Lede,Hoeksken,16,50.9682416891,3.98820361021
9340,Lede,Suikerstraat,91,50.9819800585,4.00696832943
9340,Lede,Damstraat,48,50.9642118197,3.96836559991
9340,Lede,Bredestraat,11,50.9744015433,3.95496099303
9340,Lede,Impse Dam,24,50.9637707003,3.96543723594
9340,Lede,Hoging,16,50.9535578649,3.90032558465
9340,Lede,Guchtstraat,35,50.9682620025,3.96498082937
9340,Lede,Klinkaard,94,50.9668776275,3.90182045143
9340,Lede,Briel,200,50.9738289299,3.92177280392
9340,Lede,Heiplasstraat,10,50.9805770333,3.97524983146
9340,Lede,Essestraat,166,50.955214475,3.93763451749
9340,Lede,Ronkenburgstraat,28,50.9742400684,3.99271135556
9340,Lede,Vogelenzang,53,50.9793235813,4.01467294956
9340,Lede,Grote Steenweg,102,50.9602690471,3.89476901237
9340,Lede,Smesweg,51,50.9646537742,3.96856226496
9340,Lede,Smetlededorp,21,50.9662105024,3.92887509087
9340,Lede,Stationsstraat,25,50.970365292,3.98544920286
9340,Lede,Kasteelstraat,56,50.9690809201,3.9830865874
9340,Lede,Kapelleweg,61,50.9653506897,3.91789830411
9340,Lede,Hoging,34,50.9525988226,3.90031252082
9340,Lede,Poortseweg,7,50.9656898777,3.99188965426
9340,Lede,Schildekensstraat,72,50.9672213492,3.93679113203
9340,Lede,Kapellenhoek,12,50.9664568268,3.92607244887
9340,Lede,Dr.Prieëlslaan,11,50.9589658589,3.90269662337
9340,Lede,Hazel,22,50.9588728457,3.89870089886
9340,Lede,Bremenhulweg,35,50.9700538148,3.99095999405
9340,Lede,Suikerstraat,73,50.981280177,4.00472774527
9340,Lede,Kasteelstraat,74,50.9696412121,3.9828909293
9340,Lede,Openveldstraat,58,50.9702477519,3.97252842252
9340,Lede,Markizaatstraat,45,50.9685574473,3.98733077915
9340,Lede,Speurtstraat,38,50.9601733467,3.9001004618
9340,Lede,Stuivenbergstraat,1,50.9755459923,3.95394423981
9340,Lede,Essestraat,42,50.9596405815,3.94619350619
9340,Lede,Molenhoek,10,50.9651870243,3.92600968257
9340,Lede,Kapellenhoek,30,50.967151039,3.92513130681
9340,Lede,Albrecht Rodenbachstraat,26,50.9616029188,3.96883707352
9340,Lede,Putbosstraat,6,50.9542243435,3.93249811993
9340,Lede,Billegemstraat,90,50.9803819187,3.95387958457
9340,Lede,Bambochtweg,10,50.9716973354,3.98201367115
9340,Lede,Steenstraat,5,50.9644799169,3.99775187181
9340,Lede,Wichelse steenweg,143,50.9771813309,3.9751152499
9340,Lede,Dries,36A,50.9630175423,3.89521315493
9340,Lede,Bosstraat,53,50.966993584,4.00300871206
9340,Lede,Tuinwijk,34,50.9635649692,3.98547736191
9340,Lede,Biestraat,3,50.9597408872,3.96868425576
9340,Lede,Molenbergstraat,27,50.9642717356,3.97507325739
9340,Lede,Serskampstraat,62,50.9711381421,3.93800712579
9340,Lede,Heiplasweg,50,50.9780580243,3.97675040668
9340,Lede,Schildekensstraat,54,50.9669242166,3.93514263321
9340,Lede,Steenstraat,80,50.9630211399,4.00423336337
9340,Lede,Rampsande,16,50.9731442349,3.93964202426
9340,Lede,Stichelendries,51,50.9584059307,3.88561947972
9340,Lede,Volderstraat,14,50.9739900971,3.95925555738
9340,Lede,Beekstraat,19,50.9610083412,3.8962467507
9340,Lede,Langehaag,14,50.9614357969,3.94932313683
9340,Lede,Wichelse steenweg,13,50.9688036394,3.97680700442
9340,Lede,Stokveld,15,50.9734306014,3.98471883885
9340,Lede,Kasteeldreef,38,50.9664905011,3.98224573655
9340,Lede,Klinkaard,6,50.9606097605,3.90726425996
9340,Lede,Nieuwstraat,54,50.9654419682,3.9847962527
9340,Lede,Keibergkerkweg,66,50.9578322014,3.98234031272
9340,Lede,Wijmenstraat,78,50.9566840315,3.94718594493
9340,Lede,Julius De Geyterstraat,22,50.9652110674,3.97930298463
9340,Lede,Barrevoetsehoek,69,50.9763060052,3.98754222659
9340,Lede,Kerkevijverstraat,38,50.9708967598,3.98177082874
9340,Lede,Ouden Heirweg,78,50.954980314,3.8919865787
9340,Lede,Koekoekstraat,6,50.9702588677,3.99380416645
9340,Lede,Smetledestraat,4,50.9660786377,3.94373799934
9340,Lede,Veldekenswegel,6,50.9576703544,3.96452004938
9340,Lede,Hoogstraat,73,50.9613806964,3.97680403204
9340,Lede,Ouden Heirweg,25,50.9560493168,3.90044818658
9340,Lede,Oud-Smetlede,53,50.9733999033,3.91463768425
9340,Lede,Dwarsstraat,52,50.9695752962,3.97778517809
9340,Lede,Wichelse steenweg,164A,50.978704437,3.97453902376
9340,Lede,Oordegemkouter,28,50.9582894558,3.90416467914
9340,Lede,Wijmenstraat,25,50.9586898117,3.95002844385
9340,Lede,Keibergkerkweg,31,50.9587961618,3.98081922363
9340,Lede,Nieuwstraat,72,50.9652835944,3.98563003554
9340,Lede,Speurtstraat,102,50.9644909092,3.90160645494
9340,Lede,Stationsstraat,1,50.9698324769,3.98321196426
9340,Lede,Overimpestraat,44,50.9592647215,3.96955841257
9340,Lede,Barrevoetsehoek,34,50.9756337739,3.98776069245
9340,Lede,Stichelendries,3,50.9609416727,3.89106403074
9340,Lede,Zwaluwstraat,24,50.9701426084,3.99900042403
9340,Lede,Stationsweg,8,50.9682372145,3.97995112876
9340,Lede,Hoogstraat,91,50.9607054193,3.97653452214
9340,Lede,Klinkaard,76,50.9655936017,3.90291398799
9340,Lede,Overimpestraat,5,50.9615750593,3.97125572251
9340,Lede,Briel,24,50.9712697373,3.92345310896
9340,Lede,Ledezijdestraat,42,50.9640143203,3.95397348775
9340,Lede,Meirveld,68,50.9722832174,3.97862059068
9340,Lede,Kromme Elleboogstraat,17A,50.9749037989,3.99757541338
9340,Lede,Steenstraat,44,50.9640337801,4.00102105625
9340,Lede,Plataanstraat,5,50.9685283639,3.99624941697
9340,Lede,Vijverstraat,88,50.970486917,3.97901051532
9340,Lede,Openveldstraat,76,50.9708904997,3.9716243508
9340,Lede,Openveldstraat,6,50.968603265,3.97397960859
9340,Lede,de Kerchovelaan,38,50.9710088372,3.98597485494
9340,Lede,Sasstraat,60,50.9567082022,4.00993974028
9340,Lede,Wilgenstraat,6,50.9690687074,3.99282408266
9340,Lede,Billegemstraat,54,50.9788025155,3.95375655567
9340,Lede,Oordegemkouter,92,50.9608805293,3.90889781848
9340,Lede,Oordegemdorp,1,50.9574394815,3.90208935492
9340,Lede,Grote Steenweg,155,50.9570834966,3.89975796209
9340,Lede,Schildekensstraat,121,50.9669332808,3.93933405109
9340,Lede,Keibergkerkweg,84,50.957570397,3.98301526457
9340,Lede,Hoogstraat,27,50.9639107898,3.97692612444
9340,Lede,Smesweg,3,50.965631405,3.97341936322
9340,Lede,Molenhoek,116,50.9638783601,3.91913096233
9340,Lede,Katstraat,70,50.9620918588,3.97992797408
9340,Lede,Beukenlaan,15,50.9680098303,3.99465109646
9340,Lede,Bosstraat,124,50.9696402631,4.00558218023
9340,Lede,Hoging,80,50.951419701,3.89927941661
9340,Lede,Geesthoekrede,23,50.9753104095,4.00128317133
9340,Lede,Reymeersstraat,37,50.9660569899,3.96752633583
9340,Lede,Markt,35,50.9665780807,3.9775148754
9340,Lede,Wijmenstraat,1,50.9595672243,3.95125824543
9340,Lede,Heiplasstraat,78A,50.9799821854,3.98342880694
9340,Lede,Wijstraat,8,50.9734242105,3.97709776414
9340,Lede,Blikstraat,44,50.9728991969,3.99572796292
9340,Lede,Dries,21,50.9623345182,3.89680022988
9340,Lede,Kleine Ommegangweg,15,50.9662076156,3.98436363436
9340,Lede,Briel,52,50.9723199106,3.92553679372
9340,Lede,Hulst,142A,50.9626719376,3.96712194785
9340,Lede,Rammelstraat,5,50.9669884457,3.97759687293
9340,Lede,Guchtstraat,81,50.9694642208,3.96613249473
9340,Lede,Oudenhelweg,8,50.9650161433,3.97464365842
9340,Lede,Bellaertstraat,91,50.9596308657,3.98324188479
9340,Lede,Molenhoek,39,50.9648494884,3.92384296766
9340,Lede,Bredestraat,46,50.9761875243,3.95406202258
9340,Lede,Kasteeldreef,109,50.9666736437,3.98691330624
9340,Lede,Koning Albertlaan,50,50.9635364502,3.98039317043
9340,Lede,Openveldstraat,23,50.9690787375,3.97430988734
9340,Lede,Molenhoek,98,50.9639239794,3.92150294604
9340,Lede,Hulst,85,50.9632993522,3.96406363409
9340,Lede,Nerumweg,22,50.9637924667,3.99399143907
9340,Lede,Grotekapellelaan,129,50.9591651288,3.9750892937
9340,Lede,Benedenstraat,39,50.9563851352,3.92825247724
9340,Lede,Markizaatstraat,17,50.9675621823,3.98742370848
9340,Lede,Hofstraat,72,50.9727718863,3.9544283394
9340,Lede,Hofsmeer,20,50.9662603306,3.94659247829
9340,Lede,Olmendreef,19,50.9660459185,3.98627552644
9340,Lede,Bredestraat,99,50.9779632221,3.95203546285
9340,Lede,Stationsweg,28,50.96890635,3.9813612711
9340,Lede,Speurtstraat,9,50.9592308536,3.90031497466
9340,Lede,Molenbergstraat,7,50.9651082614,3.97606343526
9340,Lede,Bergstraat,22,50.9700595504,3.97697348794
9340,Lede,Essestraat,138,50.9561055087,3.93977775409
9340,Lede,Zwaanstraat,4,50.9554542484,3.901927046
9340,Lede,Bellaertstraat,7,50.9644972261,3.98326571955
9340,Lede,Katstraat,95,50.961872937,3.97948296818
9340,Lede,Populierenstraat,10,50.9692481766,3.99433357991
9340,Lede,Keibergkerkweg,13,50.959902736,3.97988844655
9340,Lede,Broeder de Saedeleerstraat,21,50.9648200083,3.98829040704
9340,Lede,Katstraat,52,50.9628540885,3.97977205796
9340,Lede,Nonnenbosstraat,44,50.9761264571,3.95813399238
9340,Lede,Dr.Prieëlslaan,46,50.9601201109,3.90367784472
9340,Lede,Kromme Elleboogstraat,4,50.9754608447,3.99614502363
9340,Lede,Guchtstraat,45,50.9685025784,3.96498716055
9340,Lede,Guido Gezellestraat,35,50.9679028267,3.97304462274
9340,Lede,Speurtstraat,109,50.9650437781,3.90197477782
9340,Lede,Blekte,79,50.9677820182,3.91557352474
9340,Lede,Dwarsstraat,4,50.9689865924,3.98099629559
9340,Lede,Zuster Lambertinestraat,12,50.9660962175,3.97588363533
9340,Lede,Charleroistraat,36,50.9712124341,3.98280299017
9340,Lede,Stokstraat,76,50.9735915942,3.98904372548
9340,Lede,Wichelse steenweg,66,50.9718507423,3.97481182449
9340,Lede,Watermolenstraat,26,50.9717130499,3.95745957349
9340,Lede,Hulst,49,50.9630634732,3.96351492264
9340,Lede,Wichelse steenweg,31,50.9711942936,3.97571199906
9340,Lede,Heiplasstraat,98,50.9800570594,3.98532822545
9340,Lede,Essestraat,60,50.9589046453,3.94507396914
9340,Lede,Papegemstraat,20,50.9534061788,3.93326413556
9340,Lede,Wijmenstraat,96,50.9551206424,3.94657033434
9340,Lede,Blekte,26,50.9664682305,3.90703599475
9340,Lede,Stokstraat,23,50.9721687178,3.98500508055
9340,Lede,Herdergemsestraat,48,50.9744989358,3.98487113707
9340,Lede,Vijverstraat,63,50.9720053174,3.98018589001
9340,Lede,Sint-Machariusstraat,7,50.9541213483,3.93204364918
9340,Lede,Groenstraat,50,50.9775114969,3.99182639715
9340,Lede,Watermolenstraat,79,50.9691842139,3.9599499283
9340,Lede,Dorenweg,13,50.9631013673,3.97417246728
9340,Lede,Oude Wichelsesteenweg,11,50.9805430206,3.97464818832
9340,Lede,Koekoekstraat,17,50.9704554719,3.99175047603
9340,Lede,Kloosterstraat,12,50.9718536041,3.97111504849
9340,Lede,Impedorp,26,50.9611130692,3.95187735769
9340,Lede,Wichelse steenweg,161,50.9780785837,3.97509790315
9340,Lede,Guchtstraat,63,50.969336148,3.96511538492
9340,Lede,Klinkaard,112,50.9678208603,3.89989187615
9340,Lede,Beukenlaan,33,50.9696287813,3.99207686889
9340,Lede,Hulst,32,50.9625335589,3.96472061189
9340,Lede,Kastanjestraat,15,50.968632916,3.99537119591
9340,Lede,Nonnenbosstraat,62,50.9764059162,3.95761325473
9340,Lede,Hoogstraat,7,50.9647105066,3.9769070686
9340,Lede,Koning Albertlaan,39,50.9637509506,3.98064321369
9340,Lede,Hoging,44,50.9519914365,3.900071235
9340,Lede,Wichelse steenweg,119A,50.9755986482,3.97532216138
9340,Lede,Vijverstraat,45,50.9704450668,3.97948481263
9340,Lede,Wichelse steenweg,84,50.972477992,3.97493911521
9340,Lede,Albrecht Rodenbachstraat,54,50.9605834437,3.96804537372
9340,Lede,Acaciastraat,9,50.9678077198,3.99387783017
9340,Lede,Charleroistraat,18,50.9706778605,3.98319349257
9340,Lede,Stokstraat,58,50.9733243198,3.98786699042
9340,Lede,Klinkaard,17,50.9612884852,3.90699582128
9340,Lede,Reymeersstraat,19,50.9666716749,3.96784167664
9340,Lede,Kasteeldreef,9,50.9663089863,3.97904731801
9340,Lede,Wichelse steenweg,196,50.98114935,3.97314673204
9340,Lede,Klinkaard,35,50.9628497478,3.90621378408
9340,Lede,Bellaertstraat,10,50.9647030197,3.98390661034
9340,Lede,Grote Steenweg,109,50.9583938266,3.89740319122
9340,Lede,Oud-Smetlede,78,50.9738635905,3.91222368254
9340,Lede,Broeder de Saedeleerstraat,56,50.9648585652,3.99049329248
9340,Lede,Nerumstraat,3,50.9664159482,3.99507961721
9340,Lede,Bredestraat,28,50.9749784635,3.954726813
9340,Lede,Dwarsstraat,24,50.9691406517,3.97995461215
9340,Lede,Beukenlaan,3,50.9677508802,3.99568158011
9340,Lede,Keiberg,14,50.9570634916,3.98406070863
9340,Lede,Openveldstraat,35,50.9693131618,3.97409009747
9340,Lede,Hoogstraat,126,50.957176866,3.97767956281
9340,Lede,Keiberg,32,50.9554591806,3.98417603389
9340,Lede,de Kerchovelaan,21,50.9716084281,3.98705684786
9340,Lede,Ronkenburgstraat,114,50.9781144815,3.99591835311
9340,Lede,Oordegemdorp,53,50.95693848,3.90287814396
9340,Lede,Molenbergstraat,10,50.9645413104,3.97619999325
9340,Lede,Groenstraat,47,50.9779164155,3.98956992559
9340,Lede,Hoeksken,14A,50.9682083436,3.98809383362
9340,Lede,Vuystermansstraat,14,50.9599915227,3.96871443197
9340,Lede,Kluize,3,50.9546480904,3.89232583371
9340,Lede,Ouden Heirweg,53,50.9562336715,3.89657261156
9340,Lede,Stationsstraat,30B,50.9703531257,3.98417096416
9340,Lede,Wijmenstraat,53,50.9567774737,3.94820346976
9340,Lede,Nieuwstraat,97,50.9651750306,3.98469978334
9340,Lede,Molenhoek,27,50.9649893945,3.92468494794
9340,Lede,Hulst,42,50.9626858851,3.9640273544
9340,Lede,Rodtstraat,27,50.9607836043,3.90438056206
9340,Lede,Schoot,5,50.9741041076,3.89722339137
9340,Lede,Papegemstraat,55,50.9534022207,3.93052567284
9340,Lede,Wijstraat,11,50.9737674306,3.97696519337
9340,Lede,Molenbergstraat,15B,50.964690004,3.97593340523
9340,Lede,Oudenhelweg,11,50.9648780244,3.97430857899
9340,Lede,Grote Steenweg,127,50.9579595313,3.89827535483
9340,Lede,Braekenhaag,11,50.9698421106,4.00460425986
9340,Lede,Klinkaard,119,50.9683842819,3.90155761156
9340,Lede,Kapellenhoek,29,50.9677991766,3.92434589065
9340,Lede,Heiplasstraat,27,50.9801919449,3.97879567873
9340,Lede,Kastanjestraat,3,50.9682708482,3.99495267858
9340,Lede,Grotekapellelaan,76,50.9613479648,3.97319777301
9340,Lede,Nonnenbosstraat,87,50.9799184146,3.95674405113
9340,Lede,Kerkwegel,14,50.9738195083,3.95727724344
9340,Lede,Oordegemkouter,11,50.9570592527,3.90350334155
9340,Lede,Wanzelekouter,79,50.9684117597,3.95487838111
9340,Lede,Guido Gezellestraat,17,50.9680583639,3.97374758154
9340,Lede,Hoogstraat,98,50.9599259856,3.9768410788
9340,Lede,Hofsmeer,7,50.9662279479,3.94468489238
9340,Lede,Houwstraat,14,50.9639369093,3.8953752745
9340,Lede,Rammelstraat,34,50.9672303542,3.97651733284
9340,Lede,Barrevoetsehoek,44,50.9763346398,3.98669692199
9340,Lede,Nonnenbosstraat,133,50.9823730368,3.95759517747
9340,Lede,Kasteeldreef,21,50.9661794793,3.97984488067
9340,Lede,Rodekruislaan,10,50.9584815534,3.98254804519
9340,Lede,Lindestraat,23,50.9686878925,3.99814914599
9340,Lede,Grotekapellelaan,94,50.9600739349,3.97543425051
9340,Lede,Pijpweg,5,50.9579473636,3.96977968958
9340,Lede,Beekstraat,20,50.9609761639,3.89678583991
9340,Lede,Klinkaard,183,50.9725078192,3.90054599271
9340,Lede,Processieweg,6,50.9744081294,3.95732903841
9340,Lede,Briel,110,50.9748615081,3.92480828466
9340,Lede,Hoogstraat,10,50.965213286,3.977585178
9340,Lede,Meirveld,23,50.9720422341,3.9778943447
9340,Lede,Steenland,28,50.9621452167,3.96763903596
9340,Lede,Langeweestraat,5,50.9734335305,3.97991138355
9340,Lede,Bellaertstraat,126,50.9592021438,3.98392277957
9340,Lede,Putbosstraat,35,50.9556749431,3.93205710076
9340,Lede,Kasteelstraat,24,50.9683937961,3.98333951543
9340,Lede,Kerkevijverstraat,21,50.9675499003,3.9794094391
9340,Lede,Sint-Machariusstraat,10,50.9540977936,3.93163113736
9340,Lede,Watermolenstraat,5,50.9726818799,3.95616328695
9340,Lede,Lijsterbesstraat,5,50.9683700265,3.99700648107
9340,Lede,Processieweg,58,50.9719102477,3.95907678965
9340,Lede,Blikstraat,115,50.9736768243,3.99945484056
9340,Lede,Kerkhofstraat,24,50.9685692256,3.92875689922
9340,Lede,Hulst,148,50.9624472681,3.96714066573
9340,Lede,Ommeganglaan,25,50.9621976891,3.98091739247
9340,Lede,Smetlededorp,4,50.9660982842,3.9272092788
9340,Lede,Markizaatstraat,35,50.9682239796,3.9872862225
9340,Lede,D'Heerselweg,25,50.9577884713,3.96907550052
9340,Lede,Markt,17,50.9657571413,3.97842567317
9340,Lede,Spoorstraat,4,50.9651736242,3.99649880343
9340,Lede,Tronkwegel,5,50.9756798731,3.99627442323
9340,Lede,Schildekensstraat,26,50.96670656,3.93233717678
9340,Lede,Wijmenstraat,71,50.9556829245,3.9475484661
9340,Lede,Papegemstraat,7,50.9543583348,3.93443245116
9340,Lede,Ouden Heirweg,71,50.9553064521,3.8927202273
9340,Lede,Wijde Wereld,25,50.9645649656,3.89025205728
9340,Lede,Dr.Prieëlslaan,28,50.9604705979,3.90215317929
9340,Lede,Suikerstraat,98,50.9813259932,4.0039044438
9340,Lede,Stationsweg,1,50.968013132,3.97987582312
9340,Lede,Hoogstraat,7A,50.9646204488,3.97688461645
9340,Lede,Ronkenburgstraat,11,50.9738889749,3.99272014668
9340,Lede,Kasteeldreef,56,50.9667608281,3.98500086075
9340,Lede,Stationsstraat,8,50.9701329121,3.98291379743
9340,Lede,Poortendriesstraat,7,50.9702276394,3.98818609569
9340,Lede,Langehaag,42,50.9629331625,3.94766323029
9340,Lede,Ledestraat,77,50.9580138606,3.96030618587
9340,Lede,Essestraat,113,50.9562440707,3.94099836926
9340,Lede,Impedorp,5,50.9598585195,3.95165007553
9340,Lede,Molenhoek,152,50.9630365387,3.91482814715
9340,Lede,Kloosterstraat,40,50.9740611321,3.97056342351
9340,Lede,Katstraat,59,50.9630710293,3.97931816522
9340,Lede,Steenstraat,16,50.964368612,3.99914765269
9340,Lede,Overimpestraat,151,50.9581092282,3.96311230209
9340,Lede,Damstraat,18,50.965116494,3.96720026506
9340,Lede,Heiplasstraat,73,50.9799594607,3.98233636629
9340,Lede,Guido Gezellestraat,45,50.9678275614,3.97252919388
9340,Lede,Reymeersstraat,20,50.9664030498,3.97152264035
9340,Lede,Hippoliet Raesstraat,4,50.9631741327,3.9672686851
9340,Lede,Serskampstraat,34,50.969389293,3.93776847264
9340,Lede,Beekveldrede,7,50.9713985669,3.97042369362
9340,Lede,Putbosstraat,51,50.9564035105,3.93193006001
9340,Lede,Poortendries,44,50.9734420756,3.98970543091
9340,Lede,Molenhoek,47,50.964574304,3.92345709381
9340,Lede,Hoogstraat,162,50.9555596296,3.97948147972
9340,Lede,Bosstraat,96,50.9682225252,4.00373786542
9340,Lede,Damstraat,2,50.965618123,3.96733932843
9340,Lede,Nieuwstraat,103,50.9650900051,3.98492454336
9340,Lede,Ledestraat,59,50.958236618,3.95880604943
9340,Lede,Benedenstraat,47,50.956058414,3.92744769348
9340,Lede,Keiberg,49,50.9540110141,3.9864729798
9340,Lede,Langenakker,26,50.9752905548,3.97890970767
9340,Lede,Billegemstraat,103,50.9806195651,3.95468860214
9340,Lede,Watermolenstraat,54,50.9702527318,3.95872208454
9340,Lede,Broeder de Saedeleerstraat,4,50.965104946,3.98661686567
9340,Lede,Broeder de Saedeleerstraat,38,50.9649806496,3.98912699803
9340,Lede,Rammelstraat,90,50.9695726231,3.97514684649
9340,Lede,Bremenhulweg,88,50.972108032,3.99328867135
9340,Lede,Grote Steenweg,173,50.9565004981,3.90176165074
9340,Lede,Nieuwstraat,26,50.9656200045,3.98083247722
9340,Lede,Poortseweg,10,50.9656781975,3.99144218231
9340,Lede,Speurtstraat,56,50.9616678514,3.89904486768
9340,Lede,Smetledestraat,24,50.9666124718,3.94198599816
9340,Lede,Vossedreef,26,50.9736823204,3.98293617781
9340,Lede,Dries,4,50.9623465053,3.89831310933
9340,Lede,Oordegemdorp,8,50.9574353809,3.90119171122
9340,Lede,Briel,245,50.9737447906,3.92586619588
9340,Lede,Serskampstraat,16,50.9681263223,3.93765421451
9340,Lede,Speurtstraat,74,50.9629822804,3.89909022519
9340,Lede,Wijstraat,1,50.973895682,3.9773360215
9340,Lede,Heiplasstraat,91,50.9795007187,3.98367597278
9340,Lede,Oordegemkouter,46,50.9589991393,3.90559482674
9340,Lede,Stokstraat,6,50.9723285514,3.9839864998
9340,Lede,Oudenhelweg,1,50.9653970802,3.97439276473
9340,Lede,Wanzelekouter,26,50.971755446,3.95536985929
9340,Lede,Wijmenstraat,8,50.959459958,3.95046638158
9340,Lede,Ouden Heirweg,8,50.9548676407,3.90250444827
9340,Lede,Papegemstraat,19,50.9539368877,3.93342772281
9340,Lede,Wijstraat,46,50.9722453041,3.97344953962
9340,Lede,Hoogveld,20,50.9691113801,3.97190448033
9340,Lede,Bovenstraat,8,50.9547311202,3.93132309217
9340,Lede,Billegemstraat,26,50.9770059005,3.95482598048
9340,Lede,Rammelstraat,54,50.9676150565,3.9756692045
9340,Lede,Wijmenstraat,124,50.9534555977,3.94621028812
9340,Lede,Damstraat,36,50.9644405683,3.96764349135
9340,Lede,Oordegemkouter,1,50.9565721476,3.90312444839
9340,Lede,Kluisberg,15,50.9658512547,3.98798196769
9340,Lede,Grote Steenweg,191,50.9562258105,3.90324430612
9340,Lede,Poortendriesstraat,19,50.9710832928,3.98903794994
9340,Lede,Nachtegaallaan,15,50.9698725142,3.99655609565
9340,Lede,Suikerstraat,10,50.978773636,3.99670554929
9340,Lede,Wichelse steenweg,138A,50.9760909103,3.97478664781
9340,Lede,Braekenhaag,1,50.9696517119,4.00550521331
9340,Lede,Klinkaard,51,50.964114949,3.90539988205
9340,Lede,Steenstraat,151,50.9623246219,4.00958041227
9340,Lede,Suikerstraat,144,50.9834975036,4.0085724163
9340,Lede,Keiberg,67,50.954332423,3.98881866265
9340,Lede,Openveldstraat,119,50.9713062533,3.97277206135
9340,Lede,Essestraat,14,50.9602257229,3.94883902847
9340,Lede,Plataanstraat,16,50.9688847523,3.99606706814
9340,Lede,Rijststraat,19,50.9677394915,3.9526710015
9340,Lede,Blekte,90,50.971112644,3.91059634272
9340,Lede,Grote Steenweg,227,50.9555531903,3.90672742017
9340,Lede,Blikstraat,34,50.9726054681,3.99500346382
9340,Lede,Nonnenbosstraat,69,50.9788593884,3.95651354944
9340,Lede,Vijverstraat,17,50.9688656406,3.97912988875
9340,Lede,Openveldstraat,51,50.9696141066,3.97378987786
9340,Lede,Smesweg,23,50.9650030765,3.97123667637
9340,Lede,Meidoornstraat,3,50.9687295284,3.99222900772
9340,Lede,Essestraat,49,50.9587507506,3.94559986153
9340,Lede,Stichelendries,58,50.9566603835,3.88740103913
9340,Lede,Hofsmeer,19,50.9666099655,3.94587682962
9340,Lede,Rosselstraat,2,50.9654006525,3.97575749031
9340,Lede,Hollestraat,44,50.9655808535,3.99485678376
9340,Lede,Bremenhulweg,17,50.9695549704,3.99033502787
9340,Lede,Kloosterstraat,29,50.974585202,3.97128029069
9340,Lede,Vrijdagmarkt,34,50.9749428519,4.00342692576
9340,Lede,Herdergemsestraat,36,50.9743106523,3.98397467427
9340,Lede,Smesweg,76,50.9637985292,3.96848286058
9340,Lede,Keibergkerkweg,9,50.9605222227,3.97976190248
9340,Lede,Benedenstraat,73,50.9570875089,3.926008461
9340,Lede,Grote Steenweg,56,50.9641263879,3.88705873307
9340,Lede,Koning Albertlaan,22,50.9633743861,3.98165344134
9340,Lede,Blikstraat,16,50.972721777,3.99330312815
9340,Lede,Guchtstraat,74A,50.9698899429,3.96597124302
9340,Lede,Grote Steenweg,74,50.9626737711,3.88996286158
9340,Lede,Hoogstraat,144,50.9562266436,3.97866782066
9340,Lede,Overimpestraat,34,50.9597494313,3.97003738764
9340,Lede,Stationsweg,11,49.2933351651,2.30668956214
9340,Lede,Kapellenhoek,40,50.9675446699,3.92424579873
9340,Lede,Benedenstraat,91,50.9556703575,3.92539387762
9340,Lede,Olmendreefrede,17,50.9637639108,3.98611574308
9340,Lede,Overimpestraat,69,50.9588789355,3.96864206404
9340,Lede,Tuinwijk,16,50.9637474837,3.98443857049
9340,Lede,Papegemstraat,37,50.9536178446,3.93182332306
9340,Lede,Molenhoek,91,50.9642999421,3.91929077316
9340,Lede,Blomstraat,19,50.9606844897,3.99699541444
9340,Lede,Briel,281,50.9751601464,3.92591022595
9340,Lede,Keibergkerkweg,41,50.9577337909,3.98138949396
9340,Lede,Rammelstraat,72,50.9688521133,3.97522264378
9340,Lede,Smesweg,58,50.9643898197,3.96998532724
9340,Lede,Kanariestraat,12,50.9706995291,3.99290328603
9340,Lede,Groenstraat,57,50.9778883179,3.98829915615
9340,Lede,Herdergemsestraat,18,50.9741322018,3.98254207248
9340,Lede,Poortendriesstraat,37,50.9720785046,3.98957035909
9340,Lede,Wichelse steenweg,178,50.9792747765,3.97447613755
9340,Lede,Nonnenbosstraat,16,50.9754757386,3.95749467603
9340,Lede,Stationsweg,46,50.9689742257,3.98259530567
9340,Lede,Wijmenstraat,106,50.9545204727,3.94608329384
9340,Lede,Bellaertstraat,98,50.9603017927,3.9835878145
9340,Lede,Poortendries,62,50.9735914445,3.99092655365
9340,Lede,Bosstraat,6,50.9651304422,3.99874235631
9340,Lede,Heiplasweg,40,50.9779122999,3.97601915466
9340,Lede,Albrecht Rodenbachstraat,34,50.9613041656,3.96861428896
9340,Lede,Tuinwijk,26,50.9638239661,3.9848469161
9340,Lede,Wanzelekouter,80,50.9692477107,3.95437657432
9340,Lede,Klinkaard,122,50.9682589409,3.90069000932
9340,Lede,Essestraat,52,50.9594059132,3.94540479341
9340,Lede,Reymeersstraat,73,50.9666994321,3.96507227549
9340,Lede,Heiplasstraat,20,50.98050928,3.97598504443
9340,Lede,Molenbergstraat,37,50.9643688475,3.97459755825
9340,Lede,Essestraat,4,50.9604788388,3.94963970632
9340,Lede,Nieuwstraat,80,50.9651541682,3.98607865201
9340,Lede,Kasteelstraat,66,50.9693207405,3.98264313922
9340,Lede,Acaciastraat,2,50.9676356249,3.9950253553
9340,Lede,Burgtrede,1,50.9684111644,3.98899192921
9340,Lede,Kasteeldreef,41,50.9661877969,3.98073155448
9340,Lede,Hazel,30,50.959010123,3.89753379079
9340,Lede,Bremenhulweg,25,50.9697494742,3.99055128362
9340,Lede,Grotekapellelaan,61,50.9628298341,3.96930235138
9340,Lede,Wanzelekouter,62,50.9701482963,3.95479559363
9340,Lede,Vrijdagmarkt,12A,50.9749313186,4.00096207255
9340,Lede,Kasteeldreef,2,50.9665107238,3.9790796678
9340,Lede,Kapellenhoek,108,50.9707674424,3.91903666202
9340,Lede,Grote Steenweg,110,50.9595990856,3.89584658377
9340,Lede,Ronkenburgstraat,18,50.9739610232,3.9920866879
9340,Lede,Smesweg,43,50.9645999222,3.96964673763
9340,Lede,Nieuwstraat,62,50.9653864946,3.9851244066
9340,Lede,Markizaatstraat,53,50.9691522296,3.98720735812
9340,Lede,Stokveld,23,50.9732861255,3.98416218067
9340,Lede,Impse Dam,14,50.9647036174,3.96593756687
9340,Lede,Ronkenburgstraat,36,50.9744639754,3.99307263725
9340,Lede,Essestraat,70,50.9584977223,3.94430718469
9340,Lede,Eikelstraat,14,50.9665415737,3.99808151883
9340,Lede,Hoogstraat,19,50.9642532227,3.97698903423
9340,Lede,Wichelse steenweg,194B,50.9803215914,3.97340689364
9340,Lede,Reymeersstraat,7,50.9660488015,3.97337243121
9340,Lede,Hoging,26,50.9531508241,3.90023514466
9340,Lede,Klinkaard,240,50.9758494374,3.89638271928
9340,Lede,Kerkevijverstraat,41,50.9686314148,3.97946695801
9340,Lede,Bosstraat,63,50.9672418065,4.00359728919
9340,Lede,Julius De Geyterstraat,12,50.9652249014,3.97889246266
9340,Lede,Vossedreef,5,50.9727862601,3.98331841813
9340,Lede,Guchtstraat,129,50.9705001701,3.97031585115
9340,Lede,Langehaag,24,50.9620380158,3.94869884344
9340,Lede,Langenakker,5,50.9729390749,3.98219252311
9340,Lede,Stichelendries,61,50.9587957881,3.88500328271
9340,Lede,Kluisberg,51,50.9661277473,3.99059937759
9340,Lede,Jezuïtenstraat,4,50.978453957,3.99604480953
9340,Lede,Groenstraat,29,50.9781562787,3.99241101522
9340,Lede,D'Heerselweg,6,50.9577339749,3.96962593347
9340,Lede,Suikerstraat,83,50.9817650239,4.00579515135
9340,Lede,Molenhoek,20,50.9648713826,3.9253578312
9340,Lede,Wanzelekouter,5,50.9721495142,3.95602971777
9340,Lede,Grotekapellelaan,43,50.9635719182,3.96880336949
9340,Lede,Dorenweg,21,50.9622510386,3.97389591608
9340,Lede,Bambochtweg,20,50.9714652839,3.98123623132
9340,Lede,Leeuwerikstraat,5,50.9705222393,3.99456289018
9340,Lede,Speckaertstraat,49,50.9585350457,3.99477849415
9340,Lede,Nieuwstraat,5,50.9654681305,3.97850580068
9340,Lede,Bellaertstraat,37,50.962156295,3.98210731054
9340,Lede,Billegemstraat,5,50.9763709974,3.95639286546
9340,Lede,Albrecht Rodenbachstraat,16,50.9618516143,3.96916974947
9340,Lede,Wichelse steenweg,48,50.9711471629,3.97503099987
9340,Lede,Ommeganglaan,6,50.9620896739,3.98163897548
9340,Lede,Processieweg,15,50.974159162,3.95798346983
9340,Lede,Wijde Wereld,6,50.9626785686,3.89067896294
9340,Lede,Kasteelstraat,84,50.9699657007,3.98271856007
9340,Lede,Oud-Smetlede,81,50.9739801962,3.91338836879
9340,Lede,Schildekensstraat,44,50.9667882808,3.93411377534
9340,Lede,Speurtstraat,2,50.9585558339,3.90133128881
9340,Lede,Molenhoek,55,50.9644287991,3.92299056111
9340,Lede,Wijstraat,18,50.9731864336,3.97636535916
9340,Lede,Oud-Smetlede,167,50.9790264241,3.90886986659
9340,Lede,Oudenhelweg,18,50.9644613921,3.97458396998
9340,Lede,Broeder de Saedeleerstraat,41,50.9646661856,3.9894842817
9340,Lede,Briel,14,50.9709749016,3.9229104768
9340,Lede,Paddestraat,7,50.9832254597,4.01119026425
9340,Lede,Katstraat,32,50.964005516,3.98006701069
9340,Lede,Klinkaard,68,50.9645349195,3.90409619786
9340,Lede,Wichelse steenweg,153,50.9775737562,3.97512805053
9340,Lede,Zwaluwstraat,14,50.9695776306,3.99839924116
9340,Lede,Serskampstraat,72,50.9715959357,3.93836697667
9340,Lede,Keibergkerkweg,56,50.9580733107,3.98174266803
9340,Lede,Wijstraat,64,50.9718711986,3.9723881546
9340,Lede,Oordegemkouter,64,50.9597892777,3.90712115899
9340,Lede,Iepenstraat,5,50.9678859704,3.9965281314
9340,Lede,Steenstraat,158,50.9626210154,4.01005771011
9340,Lede,Dries,13,50.9622863717,3.89748269453
9340,Lede,Langehaag,59,50.9636378965,3.94629917982
9340,Lede,Spoorstraat,31,50.9665668096,3.99409557638
9340,Lede,Oud-Smetlede,17,50.9722425493,3.91705176182
9340,Lede,Steenstraat,54,50.9638613237,4.00190155907
9340,Lede,Nachtegaallaan,3,50.9709742497,3.993780232
9340,Lede,Ledestraat,32,50.9596234093,3.95403176172
9340,Lede,Meirveld,76,50.972112841,3.97918225224
9340,Lede,Oordegemkouter,18,50.9578271041,3.90365685545
9340,Lede,Dries,41,50.9622291177,3.89435080155
9340,Lede,Leedshouwken,59,50.96661244,4.00635467725
9340,Lede,Berkenstraat,3,50.9683865119,3.99302216067
9340,Lede,Keibergkerkweg,21,50.9598535942,3.98008812643
9340,Lede,Molenbergstraat,19,50.964355605,3.97542273947
9340,Lede,Schildekensstraat,62,50.9670593663,3.93573986788
9340,Lede,Wijmenstraat,35,50.9581126154,3.94967761443
9340,Lede,Charleroistraat,8,50.9705047802,3.98331977212
9340,Lede,Oordegemdorp,35,50.9576346807,3.9025985297
9340,Lede,Katstraat,14,50.9645100028,3.98055950245
9340,Lede,Hoogstraat,83,50.9609366296,3.97672489465
9340,Lede,Vijverstraat,25,50.9692353209,3.9791962968
9340,Lede,Oordegemkouter,36,50.9584984023,3.90449211685
9340,Lede,Barrevoetsehoek,26,50.9751999834,3.98779852629
9340,Lede,Olmendreef,7,50.9655380758,3.9864027988
9340,Lede,Bellaertstraat,19,50.9635385677,3.98276027598
9340,Lede,Hofstraat,5,50.97444668,3.954043652
9340,Lede,Kleine Kouterrede,3,50.9668455905,3.98851942708
9340,Lede,Broeder de Saedeleerstraat,13,50.964801313,3.98792955161
9340,Lede,Molenhoek,126,50.9638368292,3.91774401023
9340,Lede,Hulst,113,50.9628423365,3.96592605605
9340,Lede,Hoogstraat,37,50.9627399731,3.97688507307
9340,Lede,Meirveld,58,50.9725541229,3.9782853216
9340,Lede,Beekstraat,27,50.9617180074,3.89607847608
9340,Lede,Kluisberg,3,50.9658582452,3.98722528848
9340,Lede,Nieuwstraat,44,50.9657848871,3.98322027469
9340,Lede,Tussenbeekstraat,30A,50.9771510757,3.95600398045
9340,Lede,Vijverstraat,78,50.9701912718,3.97896014969
9340,Lede,Bergstraat,40,50.9704836585,3.97753928859
9340,Lede,Katstraat,60,50.9626348814,3.97967608122
9340,Lede,Oude Wichelsesteenweg,1,50.9800627062,3.97472370419
9340,Lede,Barrevoetsehoek,79,50.9770343084,3.98676242473
9340,Lede,Billegemstraat,44,50.9777852993,3.95424540958
9340,Lede,Hippoliet Raesstraat,13,50.96219737,3.96830391187
9340,Lede,Processieweg,43,50.973479742,3.95976388896
9340,Lede,Dwarsstraat,60,50.9696721874,3.97748326372
9340,Lede,Hoogveld,27,50.9691253671,3.97234754797
9340,Lede,Grote Steenweg,2,50.9677183802,3.87979895848
9340,Lede,Vijverstraat,96,50.9720172593,3.97960974255
9340,Lede,Grotekapellelaan,119,50.9600072392,3.97406537079
9340,Lede,Kapellenhoek,75,50.9707176224,3.92068266963
9340,Lede,Langehaag,95,50.9653989516,3.94423598739
9340,Lede,Bergstraat,30,50.9701931868,3.97723347854
9340,Lede,Grote Steenweg,41,50.9620267079,3.88927637868
9340,Lede,Blikstraat,72,50.9732934675,3.99789226035
9340,Lede,Overimpestraat,54,50.958865375,3.96938758812
9340,Lede,Bosstraat,114,50.9693758807,4.00531742932
9340,Lede,Heiplasstraat,79A,50.9798154212,3.98279308446
9340,Lede,Vogelenzang,17,50.9818773583,4.01069242934
9340,Lede,Steenland,1,50.9615066598,3.96796931571
9340,Lede,Stokstraat,15,50.9720393467,3.98458670125
9340,Lede,Blikstraat,90,50.9744213017,3.99907736976
9340,Lede,Herdergemsestraat,11,50.9740535566,3.98419433888
9340,Lede,Nonnenbosstraat,141,50.9827393253,3.95774263696
9340,Lede,Stationsweg,36,50.9689103381,3.98189097987
9340,Lede,Koning Albertlaan,40,50.9634839598,3.98080456578
9340,Lede,Bellaertstraat,83,50.960037447,3.98318502898
9340,Lede,Rosselstraat,11,50.9656636929,3.97559969478
9340,Lede,Kluize,23,50.9530755655,3.89061688662
9340,Lede,Hofstraat,44,50.9728287735,3.95238443425
9340,Lede,Benedenstraat,29,50.9566727138,3.92950597434
9340,Lede,Kapellenhoek,93,50.9712732975,3.91909019002
9340,Lede,Speckaertstraat,14,50.960961306,3.99535815143
9340,Lede,Hoging,90,50.9503967175,3.89835921759
9340,Lede,Kasteeldreef,117,50.9666949364,3.98718703114
9340,Lede,Albrecht Rodenbachstraat,62,50.9603561274,3.96786753796
9340,Lede,Reymeersstraat,27,50.9661787463,3.96806653796
9340,Lede,Speckaertstraat,4,50.9613987594,3.99511340398
9340,Lede,Stationsweg,18,50.9685360832,3.98043383217
9340,Lede,Dries,31,50.9622715908,3.89523249193
9340,Lede,Wijde Wereld,17,50.9638903185,3.89020939392
9340,Lede,Hofsmeer,10,50.9662413132,3.94547656511
9340,Lede,Broeder de Saedeleerstraat,31,50.9645632124,3.98894004681
9340,Lede,Bosstraat,132,50.9699055431,4.0055841155
9340,Lede,Markt,25,50.9656360658,3.97756172732
9340,Lede,Oud-Smetlede,139,50.9744102922,3.91128917589
9340,Lede,Ronkenburgstraat,82,50.9768505925,3.99555020082
9340,Lede,Spoorstraat,13,50.9658749513,3.99555526169
9340,Lede,Overimpestraat,90,50.957970084,3.96544490779
9340,Lede,Impedorp,69,50.9600921677,3.95013422598
9340,Lede,Katstraat,85,50.962209648,3.97936530541
9340,Lede,Albrecht Rodenbachstraat,44,50.96094074,3.96832729314
9340,Lede,Poortendriesstraat,10,50.9702415081,3.9876099568
9340,Lede,Dr. Moenslaan,19,50.962379781,3.98480391573
9340,Lede,D'Heerselweg,17,50.9577554484,3.96821937183
9340,Lede,Grote Steenweg,198,50.9571381672,3.90080098383
9340,Lede,Openveldstraat,15,50.9689079638,3.97450479624
9340,Lede,Speurtstraat,41,50.9609615845,3.89880439879
9340,Lede,Hoging,54,50.9515295621,3.8997556382
9340,Lede,Bredestraat,89,50.9777040989,3.95240228721
9340,Lede,Bremenhulweg,53,50.9709270782,3.99223701772
9340,Lede,Hoging,72,50.9521604604,3.89632124326
9340,Lede,Lijsterbesstraat,16,50.968448153,3.99772237999
9340,Lede,Watermolenstraat,16,50.972292382,3.95631990565
9340,Lede,Essestraat,128,50.9564533579,3.94063139203
9340,Lede,Wichelse steenweg,56,50.9714656765,3.97501081769
9340,Lede,Keiberg,4,50.9579592872,3.98392555912
9340,Lede,Smetlededorp,13,50.9657619083,3.92761858443
9340,Lede,Kleine Ommegangweg,23,50.9664465873,3.98434701586
9340,Lede,Serskampstraat,90,50.9719855923,3.93798967029
9340,Lede,Beukenlaan,23,50.9681998784,3.99397677473
9340,Lede,Wichelse steenweg,171,50.9786593367,3.97516522877
9340,Lede,Bredestraat,1,50.9740200882,3.9546430001
9340,Lede,Zuster Lambertinestraat,22,50.9667633434,3.97602696261
9340,Lede,Stokstraat,33,50.9723594384,3.98576864994
9340,Lede,Wichelse steenweg,21,50.9702615199,3.976076441
9340,Lede,Wichelse steenweg,74,50.9721349128,3.97495181604
9340,Lede,Beekstraat,7,50.9603404884,3.89605988756
9340,Lede,Damstraat,11,50.9647005602,3.96680566031
9340,Lede,Watermolenstraat,69,50.9696431331,3.95974690321
9340,Lede,Damstraat,46,50.9642380342,3.96814402009
9340,Lede,Guido Gezellestraat,25,50.9679828271,3.97339131363
9340,Lede,Bellaertstraat,47,50.9616417165,3.98237231893
9340,Lede,Rammelstraat,16,50.9669388704,3.97712365587
9340,Lede,Stokstraat,68,50.9736189987,3.98851014982
9340,Lede,Charleroistraat,28,50.9710063583,3.98292769283
9340,Lede,Speurtstraat,117,50.965352939,3.90295509619
9340,Lede,Paddestraat,26,50.9851195304,4.01235973238
9340,Lede,Olmendreef,27,50.966344624,3.98616191289
9340,Lede,Langeweestraat,34,50.9734614706,3.97765230539
9340,Lede,Brilstraat,4,50.9655675157,3.97700526197
9340,Lede,Schildekensstraat,5,50.9662665395,3.93001670365
9340,Lede,Koning Albertlaan,29,50.9636783256,3.98102801512
9340,Lede,Kapellenhoek,57,50.9699363559,3.9228137033
9340,Lede,Blokstraat,27,50.9552742661,3.92790252923
9340,Lede,Grote Steenweg,200,50.9570992216,3.90086342795
9340,Lede,Kloosterstraat,22,50.9722663504,3.9711823144
9340,Lede,Guchtstraat,53,50.9687468232,3.96501481501
9340,Lede,Rammelstraat,26,50.9671156489,3.97689497532
9340,Lede,Speurtstraat,31,50.9600393616,3.89925473727
9340,Lede,Molenhoek,144,50.9631037297,3.91574906182
9340,Lede,Wanzelekouter,69,50.9690988661,3.95489325351
9340,Lede,Roodborststraat,1,50.9696366712,3.99645375151
9340,Lede,Grotekapellelaan,68,50.9617175177,3.97234259194
9340,Lede,Volderstraat,5,50.9741189577,3.95875125759
9340,Lede,Heiplasstraat,37,50.9801589937,3.98016811482
9340,Lede,Langehaag,5,50.9609671756,3.94924561747
9340,Lede,Billegemstraat,69,50.9790552019,3.95439425209
9340,Lede,Hazel,29,50.9598341461,3.89788464319
9340,Lede,Kapellenhoek,39,50.9685978425,3.92317008419
9340,Lede,Wijmenstraat,63,50.9564902511,3.94762149994
9340,Lede,Blikstraat,123,50.9744635344,3.99958804668
9340,Lede,Bredestraat,18,50.9747896463,3.95520119118
9340,Lede,Meirveld,15,50.9718980168,3.97723592382
9340,Lede,Bellaertstraat,20,50.9644080109,3.9837478852
9340,Lede,Hoogstraat,116,50.9578882012,3.97730329342
9340,Lede,Putbosstraat,25,50.954900458,3.93245583272
9340,Lede,Oud-Smetlede,88,50.9740783229,3.91089772798
9340,Lede,Keiberg,24,50.9560477643,3.98435695176
9340,Lede,Molenbergstraat,20,50.9641833883,3.97620981736
9340,Lede,Oordegemdorp,45,50.9572908249,3.90309540421
9340,Lede,Dwarsstraat,14,50.9690556626,3.98046028739
9340,Lede,Oordegemkouter,89,50.9599385511,3.90798297756
9340,Lede,Rodtstraat,37,50.9610506486,3.90469207108
9340,Lede,Broeder de Saedeleerstraat,66,50.9650394128,3.99146895099
9340,Lede,Wijmenstraat,45,50.9573240438,3.94886311774
9340,Lede,Hoogstraat,134,50.9567850903,3.97813400587
9340,Lede,Albrecht Rodenbachstraat,6,50.9620918933,3.96943303621
9340,Lede,Oordegemkouter,106,50.9616602045,3.91070350622
9340,Lede,Dwarsstraat,32,50.9692623318,3.97945404085
9340,Lede,Hoogstraat,47,50.9623097433,3.97685791558
9340,Lede,Stokstraat,43,50.972601276,3.98671789565
9340,Lede,Overimpestraat,123,50.9582451378,3.96473088034
9340,Lede,Essestraat,59,50.9585093117,3.94497918212
9340,Lede,Klinkaard,129,50.9688485957,3.90099477405
9340,Lede,Blikstraat,105,50.9733926215,3.99869349748
9340,Lede,Bremenhulweg,6,50.9692364396,3.98959572334
9340,Lede,Groenstraat,30,50.978021069,3.9939022411
9340,Lede,Briel,209,50.9724076313,3.9267048777
9340,Lede,Lindestraat,15,50.9687939105,3.99767451916
9340,Lede,Houwstraat,24,50.9646988804,3.89428855279
9340,Lede,Eikelstraat,4,50.967061325,3.99742170897
9340,Lede,Hulst,5,50.962439551,3.96624936164
9340,Lede,Grotekapellelaan,74A,50.9614515544,3.97304687134
9340,Lede,Briel,85,50.9705146543,3.92689596387
9340,Lede,Grotekapellelaan,86,50.9608386593,3.97481606601
9340,Lede,Rosselstraat,9,50.9656470661,3.97568154604
9340,Lede,Grote Steenweg,117,50.9582051786,3.8978174257
9340,Lede,Veldekenswegel,25,50.9567862049,3.96340809934
9340,Lede,Bredestraat,36,50.9755945003,3.95449655368
9340,Lede,Keibergkerkweg,2,50.9607846331,3.98009223753
9340,Lede,Nieuwstraat,69,50.9654273502,3.98288113066
9340,Lede,Herdergemsestraat,9,50.9739867121,3.98395753745
9340,Lede,Barrevoetsehoek,7,50.9735769441,3.9895189643
9340,Lede,Dr.Prieëlslaan,36,50.9604854284,3.90301547421
9340,Lede,Nonnenbosstraat,7,50.9750370994,3.95696543108
9340,Lede,Ledestraat,67,50.9580673803,3.9594871651
9340,Lede,Guchtstraat,6,50.9676051568,3.96461505496
9340,Lede,Kerkhofstraat,14,50.9670024875,3.92796767117
9340,Lede,Molenhoek,19,50.9653277722,3.92521458343
9340,Lede,Blikstraat,7,50.9727167576,3.99209666683
9340,Lede,Charleroistraat,1,50.9703769832,3.98379662088
9340,Lede,Langeweestraat,44,50.9741088444,3.97677611038
9340,Lede,Kloosterstraat,3,50.9723568316,3.97178322926
9340,Lede,Oordegemkouter,124,50.9627804332,3.91301327177
9340,Lede,Beekstraat,10,50.9603799963,3.89676564085
9340,Lede,Kapelleweg,94,50.9678095274,3.92254248457
9340,Lede,Hoogstraat,20,50.964374564,3.97744440165
9340,Lede,Dr.Prieëlslaan,82,50.9602633401,3.90425432671
9340,Lede,Wielewaalstraat,6,50.9694622982,3.99782783552
9340,Lede,Tuinwijk,7,50.9630860962,3.9839572948
9340,Lede,Markizaatstraat,25,50.9678544669,3.98738118943
9340,Lede,Briel,49,50.97205612,3.92612288113
9340,Lede,Katstraat,67,50.9628150829,3.97931203103
9340,Lede,Ossenbroeck,6,50.955466954,3.87554415957
9340,Lede,de Kerchovelaan,31,50.9721059874,3.98678001353
9340,Lede,Schildekensstraat,34,50.9665868708,3.93305449654
9340,Lede,Kasteelstraat,14,50.9681866628,3.98341595578
9340,Lede,Ommeganglaan,35,50.961750855,3.9801342058
9340,Lede,Keibergkerkweg,38,50.9590368139,3.98112183419
9340,Lede,Steenland,36,50.9619980621,3.9680882509
9340,Lede,Bellaertstraat,55,50.9610544404,3.98264546313
9340,Lede,Kasteelstraat,32,50.9685460783,3.98328559105
9340,Lede,Markizaatstraat,5A,50.9670382562,3.98747024275
9340,Lede,Heiplasweg,12,50.977850859,3.97345232951
9340,Lede,Steenstraat,47A,50.9635100739,4.00073675701
9340,Lede,Keiberg,59,50.9540824698,3.98794057499
9340,Lede,Katstraat,49,50.9633874115,3.97941418983
9340,Lede,Barrevoetsehoek,90,50.9783610019,3.98691823378
9340,Lede,Kerkevijverstraat,31,50.9678418873,3.97968576382
9340,Lede,Bellaertstraat,134,50.9587214363,3.98410079236
9340,Lede,Wijmenstraat,81,50.9552575804,3.94733153499
9340,Lede,Rodtstraat,19,50.9606145695,3.90496483548
9340,Lede,Guchtstraat,96,50.970143819,3.96758339112
9340,Lede,Hoging,7,50.9550549195,3.90103878451
9340,Lede,Kasteeldreef,31,50.9661863552,3.9802941029
9340,Lede,Schildekensstraat,16,50.966834873,3.93113532321
9340,Lede,Bosstraat,88,50.9680444758,4.00363105343
9340,Lede,Dr.Prieëlslaan,18,50.9598044671,3.90151414964
9340,Lede,Molenbergstraat,55,50.9640046985,3.97347348206
9340,Lede,Grote Steenweg,145,50.9572244655,3.89881489355
9340,Lede,Albrecht Rodenbachstraat,87,50.9632462281,3.96432615518
9340,Lede,Beekstraat,7A,50.9603832593,3.89627923071
9340,Lede,Leedshouwken,52,50.9658320169,4.00615926429
9340,Lede,Overimpestraat,141,50.9581845386,3.96409930062
9340,Lede,Overimpestraat,105,50.9585053408,3.96587414625
9340,Lede,Rampsande,7,50.9724526945,3.93957032159
9340,Lede,Bovenstraat,17,50.9547692999,3.93049441667
9340,Lede,Guido Gezellestraat,6,50.967947562,3.97437547811
9340,Lede,Molenstraat,50,50.955239279,3.94875081428
9340,Lede,Ouden Heirweg,17,50.9556982318,3.9014313184
9340,Lede,Steenland,8,50.9615683362,3.96699587332
9340,Lede,Langenakker,16,50.9747725501,3.97938643538
9340,Lede,Bredestraat,64,50.9770052016,3.95370751108
9340,Lede,Briel,291,50.9756438537,3.92607538819
9340,Lede,Zwaanstraat,2A,50.9557702389,3.90236127419
9340,Lede,Rodtstraat,83,50.9619225756,3.8997126229
9340,Lede,Leeuwerikstraat,16,50.9698142208,3.9944429621
9340,Lede,Wanzelekouter,16,50.9722012216,3.95544538073
9340,Lede,Bergstraat,29,50.9700892054,3.97753858796
9340,Lede,Ossenbroeck,5A,50.9554185905,3.87957290964
9340,Lede,Rammelstraat,44,50.9673964429,3.97626425183
9340,Lede,Charleroistraat,11,50.9708130327,3.98348751832
9340,Lede,Smesweg,15,50.9652520052,3.97201410228
9340,Lede,Nieuwstraat,34,50.9656838317,3.98121574081
9340,Lede,Speurtstraat,66,50.9623686681,3.89931642982
9340,Lede,Blikstraat,76A,50.9735597772,3.99825009253
9340,Lede,Hoogstraat,152,50.9559474093,3.97904032931
9340,Lede,Reymeersstraat,10,50.9658991309,3.97297139209
9340,Lede,Bellaertstraat,49A,50.961432039,3.98252264932
9340,Lede,Zwaluwstraat,4,50.969237402,3.99808999935
9340,Lede,Kasteeldreef,13,50.9662257078,3.97938938171
9340,Lede,Smetledestraat,32,50.9669686738,3.94083377418
9340,Lede,Damstraat,28,50.9647496075,3.96745465458
9340,Lede,Billegemstraat,34,50.9773453782,3.95458206169
9340,Lede,Wanzelekouter,34,50.9713472864,3.95525471314
9340,Lede,Hollestraat,10,50.9654168043,3.99248703005
9340,Lede,Kerkevijverstraat,13,50.9669662759,3.97928914294
9340,Lede,Ledestraat,4,50.9602636511,3.95283942488
9340,Lede,Heiplasstraat,83,50.9796939014,3.98298988073
9340,Lede,Wijmenstraat,17,50.9590600172,3.95069298334
9340,Lede,Putbosstraat,61,50.9569418816,3.93180820056
9340,Lede,Rammelstraat,80,50.969263292,3.97519798588
9340,Lede,Reymeersstraat,13A,50.9682130738,3.96969476082
9340,Lede,Grote Steenweg,163,50.9567350961,3.90071390916
9340,Lede,Oud-Smetlede,35,50.9730878609,3.9162903032
9340,Lede,Briel,273,50.9748626235,3.92629932019
9340,Lede,Hulst,138,50.9628235262,3.96678770188
9340,Lede,Hoogstraat,55,50.9619726867,3.97627697326
9340,Lede,Suikerstraat,20,50.9805564303,3.9976883714
9340,Lede,Hoogstraat,170,50.955167803,3.9799226563
9340,Lede,Bredestraat,82,50.9777018909,3.95330464743
9340,Lede,Schildekensstraat,87,50.9666774166,3.93613331131
9340,Lede,Dr. Moenslaan,20,50.9627250197,3.98503952446
9340,Lede,Guido Gezellestraat,53,50.9684033851,3.97254640245
9340,Lede,Stichelendries,15,50.9601776532,3.8901759151
9340,Lede,Biestraat,33,50.9601482075,3.96576141488
9340,Lede,Molenstraat,3,50.9582812443,3.94505212183
9340,Lede,Impedorp,44,50.9606289264,3.95059091029
9340,Lede,Benedenstraat,30,50.9561953686,3.92897372177
9340,Lede,Blikstraat,97,50.9731371151,3.99828318373
9340,Lede,Speurtstraat,84,50.9636112207,3.89991312474
9340,Lede,Speckaertweg,5,50.9642209686,3.98795916798
9340,Lede,Molenhoek,30,50.9645803656,3.92465764046
9340,Lede,Barrevoetsehoek,123,50.9774568034,3.98776156517
9340,Lede,Watermolenstraat,62,50.9698368356,3.95894012266
9340,Lede,de Kerchovelaan,13,50.9712353707,3.9873894718
9340,Lede,Spoorstraat,2A,50.965051489,3.99679273487
9340,Lede,Overimpestraat,79,50.9585161378,3.96766788902
9340,Lede,Hofstraat,16,50.9743327013,3.95330541047
9340,Lede,Koning Albertlaan,12,50.9633144774,3.98202446795
9340,Lede,Kluisberg,23,50.9659598481,3.98851150726
9340,Lede,Poortendriesstraat,27,50.9715956324,3.98918970675
9340,Lede,Impse Dam,4,50.9648219665,3.9666097399
9340,Lede,Kluisberg,58,50.9664667238,3.99090428404
9340,Lede,Benedenstraat,83,50.9560964593,3.9258968247
9340,Lede,Stationsstraat,17,50.9701941567,3.98504143025
9340,Lede,Stichelendries,68,50.9566675064,3.8857600516
9340,Lede,Nonnenbosstraat,97,50.9804506954,3.95711118844
9340,Lede,Ommeganglaan,53,50.9602071507,3.97862167161
9340,Lede,Blekte,62,50.9687225664,3.90969912765
9340,Lede,Overimpestraat,26,50.9600380281,3.97018168912
9340,Lede,Blokstraat,10,50.9538175915,3.92854198221
9340,Lede,Smesweg,86,50.963434174,3.96808112522
9340,Lede,Sasstraat,5,50.9613284132,4.00833997248
9340,Lede,Grote Steenweg,66,50.9633188904,3.8886261704
9340,Lede,Openveldstraat,61,50.9698901207,3.97350766028
9340,Lede,Suikerstraat,55,50.9802562938,4.00315760908
9340,Lede,Speckaertstraat,42,50.9581127166,3.9958526232
9340,Lede,Burgtrede,18,50.9681664827,3.98949644913
9340,Lede,Stichelendries,33,50.959553609,3.88807951499
9340,Lede,Grote Steenweg,181,50.9564102454,3.90230610004
9340,Lede,Wichelse steenweg,135,50.9769350522,3.97525813794
9340,Lede,Dr.Prieëlslaan,8,50.9593399814,3.90187575263
9340,Lede,Nonnenbosstraat,79,50.9793554721,3.95655476098
9340,Lede,Koning Albertlaan,30,50.9634179175,3.9812230471
9340,Lede,Wichelse steenweg,38,50.9708264386,3.97503525472
9340,Lede,Nieuwstraat,87,50.9652924373,3.98426079895
9340,Lede,Heiplasstraat,59A,50.9800574101,3.98112189137
9340,Lede,Vrijdagmarkt,26,50.9748719365,4.00253245595
9340,Lede,Smesweg,68,50.9640803806,3.96902281549
9340,Lede,Langeweestraat,80,50.9755789194,3.97579433531
9340,Lede,Blikstraat,79,50.972794913,3.99711924547
9340,Lede,Grote Steenweg,217,50.9556560266,3.90604011262
9340,Lede,Overimpestraat,97,50.9583140972,3.96657250838
9340,Lede,Tussenbeekstraat,25,50.9770956156,3.9570584426
9340,Lede,Openveldstraat,43,50.9694648642,3.97394488948
9340,Lede,Kerkstraat,4,50.956790928,3.9017345669
9340,Lede,Speurtstraat,13,50.9593701758,3.90008570289
9340,Lede,Smesweg,33,50.9646880799,3.97022265934
9340,Lede,Rammelstraat,62,50.9683323919,3.97526173521
9340,Lede,Molenstraat,39,50.956001448,3.94778315302
9340,Lede,Grote Steenweg,84,50.9616936663,3.89178119929
9340,Lede,Klinkaard,43,50.9634065431,3.90607477593
9340,Lede,Papegemstraat,27,50.9537497301,3.9326750195
9340,Lede,Blekte,80,50.9703514329,3.90909862886
9340,Lede,Nonnenbosstraat,36,50.9760444428,3.95915776236
9340,Lede,Watermolenstraat,20,50.9719814607,3.9567363781
9340,Lede,Dwarsstraat,6,50.9690194924,3.98088682945
9340,Lede,Hoogstraat,71,50.9614507301,3.97675206194
9340,Lede,Langehaag,127,50.9653248114,3.94454143941
9340,Lede,Stefaan Glorieuxstraat,11,50.9647039996,3.92748759224
9340,Lede,Suikerstraat,118A,50.9823117622,4.00626627634
9340,Lede,Houwstraat,5,50.9633945966,3.89674544716
9340,Lede,Zuster Lambertinestraat,14,50.9661850667,3.97586709052
9340,Lede,Reymeersstraat,45,50.9660379365,3.96700006305
9340,Lede,Molenstraat,23,50.957178034,3.94604272786
9340,Lede,Wichelse steenweg,24,50.9688269882,3.97601725217
9340,Lede,Kloosterstraat,32,50.9732420886,3.97111397005
9340,Lede,Vrijdagmarkt,27,50.9745614639,4.00274047696
9340,Lede,Rosselstraat,16,50.965414471,3.97464686449
9340,Lede,Smesweg,29,50.9647865336,3.97057428998
9340,Lede,Blikstraat,36,50.9726294461,3.99516615179
9340,Lede,Wijmenstraat,98,50.9550453669,3.94641032744
9340,Lede,Suikerstraat,53,50.9802077626,4.00310316308
9340,Lede,Oordegemkouter,81,50.9597417505,3.90760970447
9340,Lede,Molenhoek,123,50.963569452,3.91593161703
9340,Lede,Nieuwstraat,4,50.965747876,3.97864084983
9340,Lede,Leeuwerikstraat,4,50.9704064592,3.99507335413
9340,Lede,Stokstraat,21,50.9721485727,3.98489191449
9340,Lede,Heiplasstraat,87,50.9794530175,3.98319093121
9340,Lede,Herdergemsestraat,34,50.9742809003,3.98389290619
9340,Lede,Bergstraat,15,50.969602538,3.97694768778
9340,Lede,Ledezijdestraat,102,50.9616966996,3.9528553463
9340,Lede,Albrecht Rodenbachstraat,15,50.9620729348,3.96869400099
9340,Lede,Overimpestraat,36,50.9596189472,3.96991679677
9340,Lede,Putbosstraat,56,50.9568354749,3.93135558701
9340,Lede,Groenstraat,61,50.9781350792,3.98788350427
9340,Lede,Plataanstraat,3,50.9684326907,3.99643994665
9340,Lede,Langenakker,19,50.9739458854,3.98003699252
9340,Lede,Blikstraat,18,50.9726798942,3.99361583751
9340,Lede,Hulst,30,50.9625079505,3.96482873054
9340,Lede,Essestraat,146,50.9558650988,3.93917662866
9340,Lede,Poortendriesstraat,26,50.9711046731,3.98842045212
9340,Lede,Zuster Lambertinestraat,32,50.9672552968,3.97572090265
9340,Lede,Reymeersstraat,63,50.9665703212,3.96559014642
9340,Lede,Stichelendries,29,50.9597090964,3.88840273996
9340,Lede,Tuinwijk,18,50.963945843,3.98448292676
9340,Lede,Keibergkerkweg,86,50.9576524395,3.98267683897
9340,Lede,Bosstraat,82,50.9676279007,4.00313474561
9340,Lede,Grote Steenweg,157,50.9568425501,3.90054076175
9340,Lede,Speurtstraat,51,50.9615244154,3.8987156375
9340,Lede,Bambochtweg,8,50.9717748834,3.98222374624
9340,Lede,Papegemstraat,35,50.9535707927,3.93191014857
9340,Lede,Nerumstraat,22,50.9672499257,3.99560256283
9340,Lede,Herdergemsestraat,16,50.9739794493,3.98245234735
9340,Lede,Kluisberg,39,50.9660452984,3.98969906631
9340,Lede,Nonnenbosstraat,18,50.9755931352,3.95744210411
9340,Lede,Kleine Ommegangweg,22,50.966072171,3.98401312158
9340,Lede,Vrijdagmarkt,3,50.9745361542,4.00001433803
9340,Lede,Essestraat,29,50.9593505662,3.94726691458
9340,Lede,Beukenlaan,22,50.9696317985,3.992599191
9340,Lede,Briel,50,50.9721321921,3.92569845368
9340,Lede,Oordegemkouter,45,50.9585306501,3.90528460253
