PKANCODE,COMMUNE_NL,STREET_NL,HUISNR,LAT,LON
9600,Ronse,Kruisstraat,18,50.7507668956,3.59593070859
9600,Ronse,Engelsenlaan,268,50.7413574873,3.57843722058
9600,Ronse,Priestersstraat,38,50.7486890112,3.60037620358
9600,Ronse,Oudestraat,71,50.7555621694,3.59315249282
9600,Ronse,Scheldekouter,43,50.7400851659,3.61134666128
9600,Ronse,Maagdenstraat,25,50.7488031938,3.62617963984
9600,Ronse,Populierstraat,13,50.7568067989,3.62976347534
9600,Ronse,Leuzesesteenweg,108,50.7411269201,3.58795850554
9600,Ronse,Germinal,62,50.7467927125,3.62370138218
9600,Ronse,Kruisstraat,278,50.7564825242,3.58851244473
9600,Ronse,Drieborrebeekstraat,18,50.7578139262,3.62547899006
9600,Ronse,Aatstraat,181,50.7388912442,3.61366877675
9600,Ronse,Kleine Heide,73,50.7313249925,3.63739790172
9600,Ronse,Paul-Henri Spaakstraat,15,50.7457149831,3.62036162986
9600,Ronse,Broeke,54,50.754564906,3.59575379156
9600,Ronse,Ommegangstraat,17B,50.7671256625,3.60011432176
9600,Ronse,Molekensstraat,169,50.7527234183,3.57867707627
9600,Ronse,Spinstersstraat,129,50.750169876,3.58595531477
9600,Ronse,Elzeelsesteenweg,662,50.7322669169,3.63910157643
9600,Ronse,Dammekensstraat,132,50.7564888686,3.6107878841
9600,Ronse,Braambos,2A,50.7547578919,3.63463231998
9600,Ronse,Opgeëistenstraat,65,50.7521267166,3.59237600524
9600,Ronse,Houtstraat,2,50.7600815338,3.64630921364
9600,Ronse,Deurnemeers,21,50.7335281809,3.61291190455
9600,Ronse,Ovide Decrolylaan,79,50.7416476956,3.60987879484
9600,Ronse,Dammekensstraat,8,50.7552361689,3.60585615241
9600,Ronse,Ephrem De Malanderplein,4,50.7443103115,3.60440077202
9600,Ronse,Geraardsbergenstraat,71,50.7471860377,3.61687809326
9600,Ronse,Zonnestraat,159,50.7494423626,3.58696147601
9600,Ronse,Beekstraat,13,50.7504414586,3.60496514506
9600,Ronse,Jacob van Arteveldestraat,21,50.7553158354,3.59576387077
9600,Ronse,Ninovestraat,40,50.7505640435,3.60640790317
9600,Ronse,Groeneweg,47,50.7558385647,3.58893255325
9600,Ronse,Groeneweg,65,50.7562847313,3.58848425478
9600,Ronse,Oudestraat,53,50.755184914,3.59336590194
9600,Ronse,Broeke,196,50.7610914784,3.59757431998
9600,Ronse,Viermaartlaan,35,50.7407260769,3.59567447024
9600,Ronse,Pontstraat,6,50.7393189296,3.57882161325
9600,Ronse,Maagdenstraat,81C,50.7475104705,3.64570588729
9600,Ronse,Kruisstraat,36,50.751269229,3.595529503
9600,Ronse,Hogerlucht,66,50.7588782733,3.60393862237
9600,Ronse,Blauwesteen,232,50.7441725847,3.62104540035
9600,Ronse,Elzelestraat,139,50.7447837575,3.60958772731
9600,Ronse,Klevestraat,3,50.7555550613,3.59820614274
9600,Ronse,Waatsbrugstraat,59,50.7462446347,3.61547286736
9600,Ronse,Schavaart,13,50.7619490621,3.58301563085
9600,Ronse,Watermolenstraat,8,50.7493916855,3.59850058791
9600,Ronse,Maagdenstraat,81A,50.7475513042,3.64505371893
9600,Ronse,Beukenlaan,6,50.7435182234,3.60831574963
9600,Ronse,Joseph Wautersplein,2,50.735622843,3.6048522449
9600,Ronse,Edouard Jolystraat,28,50.7583971847,3.5941098954
9600,Ronse,Kruisstraat,296,50.7566718678,3.58860837984
9600,Ronse,Braambos,6,50.7556625424,3.63348059934
9600,Ronse,Leuzesesteenweg,126,50.74025802,3.58828345599
9600,Ronse,Saint-Sauveurstraat,110,50.7372400242,3.59908780585
9600,Ronse,Lorettestraat,95,50.7508562104,3.62992179017
9600,Ronse,Savooistraat,110,50.7609167555,3.62455239835
9600,Ronse,Louis Pasteurlaan,38,50.7402367574,3.60662345185
9600,Ronse,Boekzitting,26,50.7660258565,3.64884372007
9600,Ronse,Karel Lodewijk Ledeganckstraat,18,50.7550580485,3.60975560882
9600,Ronse,Scheldekouter,329,50.740504843,3.61705602516
9600,Ronse,Hermes Van Wynghenestraat,51,50.7424209758,3.60938419123
9600,Ronse,Léopold Sturbautstraat,27,50.7421612857,3.59574346144
9600,Ronse,Prolstraat,21,50.7612957154,3.63624090943
9600,Ronse,Linde,34,50.7506477755,3.62289251187
9600,Ronse,Charles Vandendoorenstraat,25,50.7456464036,3.60208434167
9600,Ronse,Hogerlucht,48,50.7583533156,3.60421104939
9600,Ronse,Malaise,81,50.7338235421,3.5728353967
9600,Ronse,Zonnebloemstraat,17,50.7384699213,3.6134254672
9600,Ronse,Constantin Meunierstraat,44,50.7363179747,3.59621919453
9600,Ronse,Abeelstraat,39,50.7446275235,3.59998316043
9600,Ronse,Langveld,9,50.7567126525,3.54677997427
9600,Ronse,Engelsenlaan,26,50.7448966733,3.59001866166
9600,Ronse,Nijverheidsstraat,4,50.7431722873,3.60968904982
9600,Ronse,Broeke,72,50.7547093914,3.59642361789
9600,Ronse,Ernest Solvaystraat,72,50.733778586,3.60325571092
9600,Ronse,Deurnestraat,35,50.7345322681,3.61512473328
9600,Ronse,Adolphe Hullebroeckstraat,13,50.7388627507,3.62035051375
9600,Ronse,Scheldekouter,222,50.7407737448,3.61427435837
9600,Ronse,Germinal,44,50.7476385691,3.62547955309
9600,Ronse,Broeke,215,50.7629317019,3.59951947486
9600,Ronse,Molekensstraat,187,50.7539119062,3.57855384252
9600,Ronse,Georges De Myttenaerestraat,9,50.7426503113,3.58243438293
9600,Ronse,Opgeëistenstraat,83,50.7527047356,3.59197477836
9600,Ronse,Théodule Canfijnstraat,47,50.7495033571,3.60857660348
9600,Ronse,Langehaag,133,50.7536208386,3.59225942239
9600,Ronse,Pieter Paul Rubensstraat,47,50.7379352404,3.60156778198
9600,Ronse,Molendam,58,50.7408008335,3.59883430818
9600,Ronse,Ninoofsesteenweg,523,50.753241054,3.64238937398
9600,Ronse,Hendrik Consciencestraat,53,50.7434558243,3.6158712167
9600,Ronse,Floréal,159,50.7424240654,3.57593245166
9600,Ronse,Cyriel Buyssestraat,29,50.7554667968,3.58922640723
9600,Ronse,Karel Lodewijk Ledeganckstraat,36,50.7546603032,3.60998862806
9600,Ronse,Opgeëistenstraat,101,50.7530732621,3.59174691612
9600,Ronse,Charles Vandendoorenstraat,1,50.7462468579,3.60172685108
9600,Ronse,Dammekensstraat,96,50.7562576492,3.60941471348
9600,Ronse,Scheldekouter,451,50.7415156954,3.61462137215
9600,Ronse,Olifantstraat,50,50.7461703498,3.60589783855
9600,Ronse,Elzeelsesteenweg,253,50.7402844491,3.61883025343
9600,Ronse,Saint-Sauveurstraat,92,50.7376982231,3.59890479557
9600,Ronse,Achturenstraat,8,50.7387193606,3.61300126318
9600,Ronse,Théodule Canfijnstraat,30,50.7499531625,3.60901006649
9600,Ronse,Aatstraat,145,50.7391002554,3.61189815847
9600,Ronse,Hendrik Consciencestraat,1,50.742304051,3.61578164115
9600,Ronse,Blauwesteen,195,50.7436809065,3.62058023534
9600,Ronse,Jablonecstraat,4,50.7577472525,3.59933067472
9600,Ronse,Kruisstraat,153,50.7539834561,3.59307996987
9600,Ronse,Ninovestraat,146,50.752277964,3.62114317328
9600,Ronse,Elzeelsesteenweg,188,50.7415383666,3.61740750271
9600,Ronse,Adolphe Hullebroeckstraat,66,50.7374051802,3.61729215384
9600,Ronse,Théodule Canfijnstraat,12,50.750341881,3.60868849709
9600,Ronse,Savooistraat,28,50.7531284913,3.61987094243
9600,Ronse,Sint-Martensstraat,17,50.7478540247,3.59954455282
9600,Ronse,Hector Denisstraat,74,50.7340264939,3.60465314278
9600,Ronse,Aatstraat,99,50.7400840976,3.60905798893
9600,Ronse,Sint-Martensstraat,63,50.7486627098,3.59891720791
9600,Ronse,Jean Monnetstraat,4,50.7454015093,3.61749897672
9600,Ronse,Biest,173,50.7337996597,3.58016166735
9600,Ronse,Zonnestraat,214,50.7491759688,3.58414931983
9600,Ronse,Langeweg,22,50.7386686381,3.61202395096
9600,Ronse,Kapellestraat,153,50.7530837188,3.58143697011
9600,Ronse,Stooktstraat,289,50.7347579455,3.61300779342
9600,Ronse,Hogerlucht,122B,50.7647751155,3.60307080065
9600,Ronse,Olifantstraat,39,50.7463701999,3.60679524025
9600,Ronse,Gasmeterstraat,25,50.7506196091,3.59259525189
9600,Ronse,Frédéric Bruneellaan,20,50.7446847871,3.59393843117
9600,Ronse,Ovide Decrolylaan,97,50.7413154314,3.60910445956
9600,Ronse,Hogerlucht,84,50.7594880893,3.60359606904
9600,Ronse,Engelsenlaan,90,50.7439188657,3.58606263377
9600,Ronse,Ninovestraat,164,50.7524357614,3.62257044732
9600,Ronse,Napoléon Annicqstraat,33,50.7495601871,3.6098540346
9600,Ronse,Savooistraat,74,50.7583141946,3.62352041716
9600,Ronse,Maagdenstraat,1,50.7494992224,3.62500469269
9600,Ronse,Gomar Vandewielelaan,8,50.7426604236,3.59439604889
9600,Ronse,Germinal,80,50.7474892079,3.62706272829
9600,Ronse,Hector Denisstraat,28,50.735032552,3.60517063431
9600,Ronse,Georges Desmetstraat,21,50.7424846753,3.60777105438
9600,Ronse,Populierstraat,31,50.7575991439,3.63215425738
9600,Ronse,Saint-Sauveurstraat,145,50.7343108236,3.59733961405
9600,Ronse,Scheldekouter,61,50.7408782074,3.61129311947
9600,Ronse,Ovide Decrolylaan,9,50.7434173042,3.61205613673
9600,Ronse,Dammekensstraat,78,50.7563350146,3.60831351365
9600,Ronse,Brokelaerestraat,3,50.7231576507,3.63216502755
9600,Ronse,Veemarkt,9,50.7487371974,3.60511901325
9600,Ronse,Voorzienigheidsstraat,43,50.7525813589,3.59209216916
9600,Ronse,Langehaag,9,50.7502370528,3.59531034199
9600,Ronse,Rozenaaksesteenweg,13,50.7491622522,3.56159524404
9600,Ronse,Ernest Solvaystraat,54,50.7341333105,3.60349856965
9600,Ronse,Elzelestraat,61,50.746361155,3.60692504043
9600,Ronse,Elzeelsesteenweg,11,50.7443065989,3.61094091801
9600,Ronse,Ninovestraat,118,50.7522354219,3.61879136579
9600,Ronse,Lorettestraat,59,50.7507844356,3.62926112343
9600,Ronse,Rotterij,199,50.7438617705,3.62892775411
9600,Ronse,Zuidstraat,36,50.7451277875,3.60453771677
9600,Ronse,Langehaag,79,50.7519072049,3.59394203166
9600,Ronse,Kasteelstraat,53,50.7473276068,3.59485701256
9600,Ronse,Hogerlucht,31,50.756925721,3.60552848307
9600,Ronse,Adolphe Hullebroeckstraat,84,50.7373559381,3.61665173509
9600,Ronse,Kruisstraat,100,50.7528748285,3.59399727113
9600,Ronse,Blauwesteen,53,50.7443174711,3.61436600841
9600,Ronse,Zuidstraat,48,50.7447855104,3.6046863748
9600,Ronse,Boontjesstraat,130,50.7437177154,3.63448029269
9600,Ronse,Rode Mutslaan,103,50.7446475173,3.57437695726
9600,Ronse,Gefusilleerdenlaan,21,50.7420824205,3.59706271476
9600,Ronse,Zonnestraat,195,50.7501222535,3.58384986794
9600,Ronse,Engelsenlaan,286,50.7410589525,3.57749663171
9600,Ronse,Nachtegaalstraat,34,50.7513406566,3.62492972879
9600,Ronse,Grote Marijve,108,50.7467888769,3.61134227491
9600,Ronse,Victor Lagachestraat,27,50.7504503704,3.59109774402
9600,Ronse,Napoléon Annicqstraat,15,50.7502084531,3.60933797894
9600,Ronse,Floréal,53,50.7422567457,3.57776571446
9600,Ronse,Groeneweg,12,50.7546140329,3.58828855134
9600,Ronse,Karnemelkbeekstraat,3,50.7519814349,3.54372472312
9600,Ronse,Georges Desmetstraat,56,50.7421832811,3.60899710796
9600,Ronse,Kruisstraat,48,50.75157067,3.59546121278
9600,Ronse,Bakkereel,54,50.7427864692,3.57280524899
9600,Ronse,Sint-Ambrosiusstraat,20,50.7530624466,3.60362595685
9600,Ronse,Zonnestraat,106,50.7493355555,3.5889301499
9600,Ronse,Rotterij,301,50.7419726836,3.63675840788
9600,Ronse,Klevestraat,55,50.7572391316,3.59452789963
9600,Ronse,Steenveldstraat,12B,50.7492014268,3.57185959735
9600,Ronse,Fiertelmeers,30,50.753912278,3.59138827917
9600,Ronse,Elzeelsesteenweg,117,50.742287061,3.61471983452
9600,Ronse,Kruisstraat,64,50.7518178807,3.59489993444
9600,Ronse,Sint-Martensstraat,35,50.7480370255,3.59956579856
9600,Ronse,Kapellestraat,48,50.7509642004,3.58390514804
9600,Ronse,Opgeëistenstraat,19,50.7512381454,3.59288153307
9600,Ronse,César Snoecklaan,3B,50.7478861018,3.58517801271
9600,Ronse,Jan van Nassaustraat,65,50.7467803555,3.59299272241
9600,Ronse,Georges Dumontstraat,38,50.7338360741,3.60220365478
9600,Ronse,Ommegangstraat,77C,50.7707577364,3.63756329945
9600,Ronse,Gebroeders Van Eyckstraat,67,50.7370950423,3.60011912595
9600,Ronse,Zonnestraat,71,50.7499312671,3.59033866641
9600,Ronse,Saint-Sauveurstraat,217,50.7328262426,3.59597324054
9600,Ronse,Schorissesteenweg,25,50.7739765826,3.66255011938
9600,Ronse,Blauwesteen,142,50.7442237086,3.61754211251
9600,Ronse,Karel Lodewijk Ledeganckstraat,46,50.7544424046,3.61006172096
9600,Ronse,Nieuwebrugstraat,7,50.7440556086,3.60584717826
9600,Ronse,Broeke,215B,50.7640655421,3.59856101363
9600,Ronse,Elzeelsesteenweg,634,50.7329278645,3.63724059809
9600,Ronse,David Teniersstraat,37,50.740410151,3.60049594147
9600,Ronse,Zénobe Grammestraat,38,50.7462080727,3.61093359603
9600,Ronse,Kasteelstraat,71,50.7471878857,3.59414782467
9600,Ronse,Blauwesteen,160,50.7442087684,3.61822672136
9600,Ronse,Fiertelmeers,12,50.7538337073,3.59224287782
9600,Ronse,Ommegangstraat,5,50.7649176538,3.58954865746
9600,Ronse,Stijn Streuvelsstraat,15,50.7517685031,3.62589372153
9600,Ronse,Bredestraat,27,50.7469521826,3.60788103566
9600,Ronse,Mussenstraat,26,50.7505375991,3.57250008048
9600,Ronse,Spinstersstraat,140,50.75012379,3.58837223686
9600,Ronse,Elzelestraat,43,50.7466062698,3.60600584542
9600,Ronse,Leuzesesteenweg,179,50.7376170658,3.58862453404
9600,Ronse,Bruul,7,50.7507867831,3.60352032626
9600,Ronse,Bosrede,2J,50.7594592191,3.639789065
9600,Ronse,Rodekruisstraat,17,50.7456993399,3.61679609443
9600,Ronse,Elzeelsesteenweg,597,50.7334127451,3.63271288416
9600,Ronse,Elzelestraat,33,50.7468285762,3.60571261479
9600,Ronse,Groeneweg,30,50.7550701845,3.58808428507
9600,Ronse,Hoogdeurnestraat,21,50.7274853367,3.62499187769
9600,Ronse,Opgeëistenstraat,37,50.7516007083,3.59277098104
9600,Ronse,Elzeelsesteenweg,82,50.7433675985,3.61365972319
9600,Ronse,Hul,2,50.7554864448,3.63785160218
9600,Ronse,Grote Marijve,126,50.7469307854,3.6119609247
9600,Ronse,Koekamerstraat,8,50.7711426234,3.67019906848
9600,Ronse,Albert Vandeputtestraat,21,50.7404646302,3.59071765771
9600,Ronse,Hendrik Consciencestraat,25,50.7429974613,3.61589270383
9600,Ronse,Spinstersstraat,58,50.7504456746,3.59194822896
9600,Ronse,Engelsenlaan,72,50.7437619713,3.58822942561
9600,Ronse,Fabriekstraat,15,50.7476252684,3.59756884488
9600,Ronse,Zonnestraat,124,50.7492334877,3.58837237742
9600,Ronse,Kruisstraat,46,50.7514582392,3.59523532263
9600,Ronse,Elzeelsesteenweg,225,50.7406429721,3.61790305908
9600,Ronse,Ninoofsesteenweg,204,50.7526189341,3.62549045853
9600,Ronse,Decrolykoer,5,50.750318012,3.60152415036
9600,Ronse,Neerhofstraat,27,50.7486797285,3.59353679518
9600,Ronse,Pierre D'Hauwerstraat,6,50.7429616542,3.59725193185
9600,Ronse,Breucq,39,50.759246914,3.66470079834
9600,Ronse,Oswald Ponettestraat,36,50.7454956423,3.59530253358
9600,Ronse,Prolstraat,4,50.7608755382,3.63641710344
9600,Ronse,Ninovestraat,93,50.7507911844,3.6093219321
9600,Ronse,Leuzesesteenweg,19,50.7435813331,3.58646057731
9600,Ronse,Bereidersstraat,11,50.7510725946,3.59385328976
9600,Ronse,Hermes Van Wynghenestraat,23,50.7430168711,3.60880557489
9600,Ronse,Scheldekouter,33,50.7399928638,3.6119906586
9600,Ronse,Oswald Ponettestraat,89,50.7456043666,3.59309142066
9600,Ronse,Moortelstraat,27,50.7406493859,3.58574087807
9600,Ronse,Molekensstraat,10,50.7491863153,3.57858670794
9600,Ronse,Politiekegevangenenstraat,7,50.7440325884,3.60125023045
9600,Ronse,Spinstersstraat,76,50.7505766195,3.59108815087
9600,Ronse,Jules Bordetlaan,11,50.739869908,3.60505660352
9600,Ronse,Kapellestraat,46,50.7508373627,3.5834914757
9600,Ronse,Elzeelsesteenweg,490,50.7352731763,3.62960052089
9600,Ronse,Ninovestraat,12,50.7500913159,3.60470723751
9600,Ronse,Viermaartlaan,17,50.7411043948,3.59627523701
9600,Ronse,Walenweg,160,50.7360076115,3.59447383537
9600,Ronse,Langehaag,168,50.7536594997,3.59171755453
9600,Ronse,Elzeelsesteenweg,526,50.7333816243,3.63497396134
9600,Ronse,Aatstraat,11,50.7424732861,3.60495790729
9600,Ronse,IJsmolenstraat,22,50.755255655,3.64041926014
9600,Ronse,Ooststraat,15,50.7427707508,3.62644607613
9600,Ronse,Ninoofsesteenweg,285,50.7520838212,3.62523275343
9600,Ronse,Langehaag,115,50.7532335156,3.5925678059
9600,Ronse,Kammeland,49,50.7564760647,3.60387937819
9600,Ronse,Molendam,6,50.7425056018,3.60413744221
9600,Ronse,Konrad Adenauerstraat,10,50.7452056351,3.6197204692
9600,Ronse,Klevestraat,73,50.7571266304,3.5933129866
9600,Ronse,Camille Lemonnierlaan,140,50.733324603,3.59068301932
9600,Ronse,Spinstersstraat,23,50.7506027737,3.59392251461
9600,Ronse,Dammekensstraat,114,50.7566918402,3.61035305459
9600,Ronse,Saint-Sauveurstraat,21,50.7389172881,3.59815101196
9600,Ronse,Wolvestraat,66,50.7524976297,3.60517501914
9600,Ronse,Wijnstraat,21,50.7481342226,3.59863732793
9600,Ronse,Kapellestraat,64,50.7512327124,3.58360605559
9600,Ronse,Spinstersstraat,94,50.7503571029,3.59036096963
9600,Ronse,Adolphe Hullebroeckstraat,41,50.7382571941,3.61871019109
9600,Ronse,Oude Vesten,27,50.7463877657,3.60270695484
9600,Ronse,Geraardsbergenstraat,53,50.7470482951,3.61621812446
9600,Ronse,Ninoofsesteenweg,222,50.7529732802,3.6262060745
9600,Ronse,Louis Pasteurlaan,48,50.7400877634,3.60621895625
9600,Ronse,Kruisstraat,207,50.7548943325,3.59203322903
9600,Ronse,Nachtegaalstraat,16,50.7517773446,3.62493516836
9600,Ronse,Jan van Nassaustraat,47,50.7476963676,3.59306012173
9600,Ronse,Muziekbosstraat,9,50.7592225763,3.62869985574
9600,Ronse,Jean-Baptiste Dekeyserstraat,13,50.7450073605,3.6015187445
9600,Ronse,Robert Schumanstraat,17,50.7445681114,3.62284358489
9600,Ronse,Jules Bordetlaan,46,50.7392236742,3.60274158322
9600,Ronse,Constantin Meunierstraat,9,50.7366291597,3.59791582859
9600,Ronse,Floréal,71,50.7420565198,3.5774045151
9600,Ronse,Stynskoer,2,49.2933351651,2.30668956214
9600,Ronse,Ninovestraat,30,50.7502514257,3.60571319365
9600,Ronse,Scheldekouter,731,50.7395969257,3.61667875805
9600,Ronse,Kapellestraat,207,50.7552698105,3.5785565909
9600,Ronse,Linde,16,50.7516118975,3.62235830322
9600,Ronse,Coupl'Voie,39,50.7448055517,3.59637882489
9600,Ronse,Biest,74,50.7330951251,3.5854843837
9600,Ronse,Voorzienigheidsstraat,25,50.7528560851,3.59317547204
9600,Ronse,Oudestraat,88,50.7565605318,3.59109091201
9600,Ronse,Bredestraat,81,50.7470939569,3.60968217058
9600,Ronse,Kleine Marijve,28,50.745773481,3.60983591459
9600,Ronse,Rode Broeckstraat,150,50.7383714802,3.60654323211
9600,Ronse,Germinal,79,50.7473534198,3.62685826424
9600,Ronse,Jacob van Arteveldestraat,4,50.7547415212,3.59524338258
9600,Ronse,Albert Demanezstraat,64,50.7294406108,3.62688886433
9600,Ronse,Beukenlaan,23,50.7431788727,3.60679877619
9600,Ronse,Aatstraat,56,50.74172033,3.60828381844
9600,Ronse,Zonnestraat,425,50.7490895755,3.56585451371
9600,Ronse,Zonnestraat,152,50.7490117239,3.58743213961
9600,Ronse,Savooistraat,135,50.7606449558,3.62579479709
9600,Ronse,Ernest Solvaystraat,89,50.7343853696,3.60294426289
9600,Ronse,Camille Lemonnierlaan,68,50.7334451296,3.59431262201
9600,Ronse,Geraardsbergenstraat,88,50.7497539228,3.62074191632
9600,Ronse,Jacob van Arteveldestraat,38,50.7557600733,3.59399931472
9600,Ronse,Coolstraat,5,50.7375929315,3.55769297053
9600,Ronse,Ninovestraat,57,50.7500806513,3.60703158917
9600,Ronse,Ives-Sabin Maghermanlaan,48,50.7473131267,3.59047343042
9600,Ronse,Aatstraat,217,50.7382774784,3.61499418794
9600,Ronse,Joseph Ferrantstraat,14,50.7439362881,3.60372147493
9600,Ronse,Engelsenlaan,133,50.7420462214,3.5787954774
9600,Ronse,Schorissesteenweg,88,50.7761502408,3.66318280945
9600,Ronse,Aimé Delhayeplein,8,50.7503272466,3.59606290403
9600,Ronse,Langehaag,80,50.7518482631,3.59318638322
9600,Ronse,Willocqsteegje,4,50.745810363,3.60161407622
9600,Ronse,Nieuwebrugstraat,42,50.7442838823,3.60817134478
9600,Ronse,Edouard Jolystraat,21,50.7593326364,3.59449379723
9600,Ronse,Germinal,97,50.747255228,3.62516804468
9600,Ronse,Oudstrijderslaan,2,50.7423082252,3.60077842751
9600,Ronse,Théodule Canfijnstraat,40,50.7497227283,3.60920182684
9600,Ronse,Elzelestraat,104,50.7456216979,3.60923515729
9600,Ronse,Léopold Sturbautstraat,10,50.7425582593,3.59696495619
9600,Ronse,Wijnstraat,66,50.7496636179,3.59679011679
9600,Ronse,Jean-Baptiste Mouroitplein,8,50.7486839687,3.60356125757
9600,Ronse,Rode Broeckstraat,33,50.741758821,3.60503890523
9600,Ronse,Papekouters,1,50.7416612962,3.6169923934
9600,Ronse,Viermaartlaan,159,50.7404689275,3.59020087628
9600,Ronse,Scheldekouter,703,50.7397480749,3.61605267966
9600,Ronse,Groeneweg,40,50.7552903441,3.58815008468
9600,Ronse,Blauwesteen,88,50.7444157871,3.61579935403
9600,Ronse,Abeelstraat,32,50.7450956989,3.6005394721
9600,Ronse,Ninovestraat,75,50.7504935857,3.60771150641
9600,Ronse,Paul-Henri Spaakstraat,8,50.7457550299,3.61882174731
9600,Ronse,Germinal,22A,50.7484855851,3.62224979342
9600,Ronse,Floréal,259,50.7432555786,3.57992729462
9600,Ronse,Edmond Puissantstraat,32,50.7464569574,3.58861770279
9600,Ronse,Oswald Ponettestraat,90,50.7446472796,3.59249646612
9600,Ronse,Zonnestraat,295,50.7487871288,3.57831735446
9600,Ronse,Ommegangstraat,68A,50.771560745,3.64107504841
9600,Ronse,Rode Broeckstraat,265,50.7363535358,3.60510887074
9600,Ronse,Georges Desmetstraat,28,50.7427242288,3.60847151657
9600,Ronse,Klevestraat,20,50.7554556633,3.59695476864
9600,Ronse,Langehaag,44,50.7513243135,3.59387933736
9600,Ronse,Spinstersstraat,130,50.750198971,3.58865908942
9600,Ronse,Georges De Myttenaerestraat,26,50.7423534642,3.58332034158
9600,Ronse,David Teniersstraat,55,50.7398433534,3.60083061186
9600,Ronse,Elzeelsesteenweg,181,50.7408960028,3.61702726255
9600,Ronse,Elzelestraat,122,50.745274556,3.60992414423
9600,Ronse,Ernest Solvaystraat,48,50.7342558054,3.60356089664
9600,Ronse,Zonnestraat,170,50.7487126503,3.58677674663
9600,Ronse,Coupl'Voie,50,50.7443430691,3.59623875697
9600,Ronse,Wolvestraat,120,50.7539878708,3.60479261001
9600,Ronse,Ninoofsesteenweg,340,50.7535219325,3.63756644932
9600,Ronse,Hemelberg,15,50.75623019,3.59936337293
9600,Ronse,Ovide Decrolylaan,44,50.7420270096,3.61128401743
9600,Ronse,Bakkereel,36,50.742757816,3.57101195961
9600,Ronse,Populierstraat,6,50.7578942954,3.62698221542
9600,Ronse,Scheldekouter,433,50.7410869799,3.61431865224
9600,Ronse,Waatsbrugstraat,60,50.7462396466,3.61553600259
9600,Ronse,Muziekbosstraat,5B,50.7594509688,3.62930460672
9600,Ronse,Napoléon Annicqstraat,51,50.7498178008,3.61033283125
9600,Ronse,Rozenaaksesteenweg,130,50.7504977426,3.54515207937
9600,Ronse,Floréal,17,50.7426611519,3.57987532128
9600,Ronse,Savooistraat,117,50.7587062877,3.6263860564
9600,Ronse,Pontstraat,129,50.7348866875,3.57881637858
9600,Ronse,Nieuwe Pontstraat,19,50.7346434874,3.58077597751
9600,Ronse,Mussenstraat,62,50.7493417489,3.56894214883
9600,Ronse,Bredestraat,63,50.7471006461,3.60910534166
9600,Ronse,Floréal,285,50.7429010029,3.5786869342
9600,Ronse,Robert Schumanstraat,1,50.745912635,3.62086165794
9600,Ronse,Jan van Nassaustraat,20,50.7486260904,3.59289008318
9600,Ronse,Elzeelsesteenweg,288,50.7397997399,3.6206082329
9600,Ronse,Kammeland,7,50.7564529805,3.60198455509
9600,Ronse,IJsmolenstraat,49,50.7568482215,3.64749018686
9600,Ronse,Hermes Van Wynghenestraat,68,50.7425437906,3.61048170326
9600,Ronse,Mahautveld,1A,50.7537791741,3.63616141466
9600,Ronse,Geraardsbergenstraat,114,50.7500391732,3.62209340566
9600,Ronse,Snoecksteegje,1,50.7471359831,3.59301591985
9600,Ronse,Kasteelstraat,1,50.7475374936,3.59842502753
9600,Ronse,Lorettestraat,24,50.7504420404,3.62557394971
9600,Ronse,Fiertelmeers,40,50.7539442983,3.59074050908
9600,Ronse,Opgeëistenstraat,118,50.7535518219,3.59081373656
9600,Ronse,Zonnestraat,47,50.749960384,3.59287095957
9600,Ronse,Rozenaaksesteenweg,48,50.7486098067,3.55870511236
9600,Ronse,Beekstraat,6,50.7503996605,3.60396024401
9600,Ronse,Scheldekouter,415,50.7417060662,3.61387519391
9600,Ronse,Kasteelstraat,17,50.747451076,3.59742446582
9600,Ronse,Bredestraat,216,50.7481947898,3.61600413288
9600,Ronse,Zonnestraat,17,50.7500400402,3.59459708989
9600,Ronse,Elzelestraat,96,50.7457803664,3.60880411098
9600,Ronse,Kruisstraat,368,50.7584266716,3.5867209071
9600,Ronse,Frédéric Bruneellaan,19,50.7446159916,3.59325617445
9600,Ronse,Oudestraat,114,50.7573923602,3.59051678121
9600,Ronse,Neerhofstraat,45,50.7480276277,3.59415599252
9600,Ronse,Kapellestraat,107,50.7523728629,3.58285651623
9600,Ronse,Gyselingssteegje,12,50.7431625727,3.60224771201
9600,Ronse,Théodule Canfijnstraat,29,50.7498375919,3.6082962994
9600,Ronse,Kaatsspelplein,7,50.7508562312,3.59886197569
9600,Ronse,Zonnestraat,277,50.7489749616,3.5790410195
9600,Ronse,Rotterij,201,50.7438051386,3.62905687231
9600,Ronse,Aatstraat,82,50.7404713483,3.60943868009
9600,Ronse,Bredestraat,169,50.7471072541,3.61259985388
9600,Ronse,Rotterij,22,50.7475304008,3.62028123539
9600,Ronse,Blauwesteen,114,50.7442438082,3.61710169756
9600,Ronse,Ninoofsesteenweg,338A,50.753433987,3.63567841453
9600,Ronse,Ernest Solvaystraat,115,50.7338494781,3.60265830987
9600,Ronse,Hector Denisstraat,21,50.7347202181,3.60432811897
9600,Ronse,Gefusilleerdenlaan,28,50.7415820155,3.59778499217
9600,Ronse,Oscar Delghuststraat,21,50.7507590688,3.6129886681
9600,Ronse,Fiertelmeers,108,50.7545828985,3.58439407947
9600,Ronse,Gomar Vandewielelaan,61,50.7411077221,3.5939888471
9600,Ronse,Frédéric Bruneellaan,3,50.745075379,3.5932133369
9600,Ronse,Jean-Baptiste Guissetplein,2,50.74454289,3.60007366522
9600,Ronse,Beekstraat,38,50.7547208574,3.61666084123
9600,Ronse,Savooistraat,21,50.7531296097,3.62093267945
9600,Ronse,Poermagazijnstraat,13,50.7445800468,3.60830004239
9600,Ronse,Winkelveldeke,4A,50.7638515626,3.62896284185
9600,Ronse,Grote Markt,6,50.7480810792,3.60169105999
9600,Ronse,Hoogstraat,4,50.7457232533,3.59950393108
9600,Ronse,Hospitaalstraat,8,50.7483064875,3.60198298803
9600,Ronse,Barreelstraat,12,50.7472873723,3.61462881632
9600,Ronse,Germinal,9,50.748247878,3.62565642998
9600,Ronse,Wolvestraat,102,50.7535665291,3.60486604632
9600,Ronse,Populierstraat,38,50.7589461804,3.63666478273
9600,Ronse,Victor Lagachestraat,3,50.749885362,3.59115609498
9600,Ronse,Hoogstraat,18,50.7456162658,3.59883290258
9600,Ronse,Veemarkt,26,50.7495430553,3.60470152641
9600,Ronse,Louis Vangrootenbruelstraat,48,50.743687419,3.59199892284
9600,Ronse,Priestersstraat,13,50.7488909507,3.60127047897
9600,Ronse,Scheldekouter,25,50.7397781075,3.61242523248
9600,Ronse,Waatsbrugstraat,42,50.7458954247,3.61449025265
9600,Ronse,Molekensstraat,162,50.7530683568,3.57796836849
9600,Ronse,Elzelestraat,78,50.7459889465,3.60830650934
9600,Ronse,Ommegangstraat,66C,50.7714969567,3.64027132769
9600,Ronse,Oscar Delghuststraat,74,50.7485799168,3.61657585664
9600,Ronse,Olifantstraat,32,50.7457006915,3.60563423016
9600,Ronse,Germinal,20C,50.7486425339,3.62300883078
9600,Ronse,Kammeland,39,50.7564236099,3.60350124673
9600,Ronse,Ninoofsesteenweg,329,50.7523340629,3.62756655348
9600,Ronse,Bakkereel,18,50.7436986328,3.57251582059
9600,Ronse,Langehaag,62,50.7515748596,3.59351073015
9600,Ronse,Elzeelsesteenweg,418,50.7368259561,3.62668457284
9600,Ronse,Langehaag,26,50.7507961747,3.5944015819
9600,Ronse,Mgr. Beylsstraat,131,50.7437075998,3.62310260406
9600,Ronse,Rozenaaksesteenweg,6,50.7483178855,3.56402548919
9600,Ronse,Boontjesstraat,41,50.7461422832,3.63330570019
9600,Ronse,Louis Vangrootenbruelstraat,2,50.7450202527,3.59150200575
9600,Ronse,Louis Vangrootenbruelstraat,36,50.7439889383,3.59190199802
9600,Ronse,Langeweg,57,50.7376684474,3.61208930196
9600,Ronse,Zonnestraat,259,50.7491394639,3.58001221814
9600,Ronse,Dammekensstraat,61,50.7553152849,3.6087751219
9600,Ronse,Abeelstraat,14,50.7458354104,3.60053875599
9600,Ronse,Rodekruisstraat,1,50.7448901153,3.61715784933
9600,Ronse,Spinstersstraat,112,50.7502790718,3.58965838194
9600,Ronse,Geraardsbergenstraat,152,50.7500633494,3.62426755035
9600,Ronse,Ernest Solvaystraat,36,50.7345265118,3.60370000901
9600,Ronse,Albert Vandeputtestraat,28,50.7406842246,3.59151085192
9600,Ronse,Camille Lemonnierlaan,130,50.7334507966,3.59115223981
9600,Ronse,Opgeëistenstraat,12,50.7510416431,3.59253232736
9600,Ronse,Georges Dumontstraat,31,50.7341360649,3.60174843639
9600,Ronse,Kanarieberg,14,50.7615410383,3.65190838197
9600,Ronse,Victor Lagachestraat,10,50.7500544853,3.59082014584
9600,Ronse,Aatstraat,135,50.7392536091,3.61061635474
9600,Ronse,Groeneweg,29,50.7550844666,3.58893283945
9600,Ronse,Ninovestraat,5,50.7497290527,3.60463105893
9600,Ronse,Kapellestraat,99,50.7522501303,3.58306858617
9600,Ronse,Stijn Streuvelsstraat,33,50.7512354224,3.62580037118
9600,Ronse,Germinal,26,50.7477314185,3.62167494488
9600,Ronse,Zonnestraat,239,50.7493202739,3.58058891987
9600,Ronse,Edmond Van Beverenplein,2,50.7555417191,3.61011616724
9600,Ronse,Ninovestraat,136,50.7523070506,3.62041854334
9600,Ronse,Biest,21,50.7338570787,3.58826217088
9600,Ronse,Hogerlucht,13,50.7563555314,3.60544091413
9600,Ronse,Grote Marijve,91,50.7463690528,3.61084485616
9600,Ronse,Elzeelsesteenweg,110,50.7428585981,3.61482206182
9600,Ronse,Engelsenlaan,89,50.7438142991,3.58353603261
9600,Ronse,Wolvestraat,38,50.751762937,3.60441485697
9600,Ronse,Bereidersstraat,4,50.7509247151,3.5942897853
9600,Ronse,Zonnestraat,478,50.7479923565,3.56971295411
9600,Ronse,Viermaartlaan,71,50.7404619349,3.59389107139
9600,Ronse,Rotterij,156,50.7434584808,3.6274790747
9600,Ronse,de Mérodestraat,31,50.7464943692,3.59212342799
9600,Ronse,Maagdenstraat,61,50.7464862431,3.63277534335
9600,Ronse,Savooistraat,191,50.7650208786,3.62730751215
9600,Ronse,Scheldekouter,257,50.7403743386,3.61278715548
9600,Ronse,Georges Dumontstraat,13,50.734628961,3.60203068826
9600,Ronse,Rijkswachtdreef,8,50.7704772142,3.64089471773
9600,Ronse,Rozenaaksesteenweg,31,50.7495473426,3.55861843245
9600,Ronse,IJsmolenstraat,10A,50.7546227688,3.63798276367
9600,Ronse,Georges Desmetstraat,74,50.7419519242,3.60954575628
9600,Ronse,Scheldekouter,8,50.7393092158,3.61425712782
9600,Ronse,Oscar Delghuststraat,92,50.7487388409,3.61625037483
9600,Ronse,Grote Marijve,73,50.7462663672,3.61016168021
9600,Ronse,Gyselingssteegje,5,50.7433313861,3.60209307688
9600,Ronse,Brokelaerestraat,20,50.7246260952,3.63468100351
9600,Ronse,David Teniersstraat,20,50.7406672879,3.60130741188
9600,Ronse,Blauwesteen,149,50.7436233674,3.61899124606
9600,Ronse,Grote Markt,31,50.7475314907,3.60315896472
9600,Ronse,Bredestraat,10,50.7471190946,3.60681048612
9600,Ronse,Kasteelstraat,88,50.7467563896,3.59498286553
9600,Ronse,Kerkplein,2,50.7456691371,3.60289334173
9600,Ronse,Maagdenstraat,43A,50.7468098255,3.63030812656
9600,Ronse,Populierstraat,18A,50.7580180248,3.62869212012
9600,Ronse,Sint-Cornelisstraat,10,50.7481443577,3.5972538488
9600,Ronse,Oudestraat,17,50.7543055784,3.59361009742
9600,Ronse,Gustave Royerslaan,34,50.7420138079,3.59259762619
9600,Ronse,Zonnestraat,496,50.7482414331,3.56782420073
9600,Ronse,Walenweg,167,50.7366784002,3.59347212736
9600,Ronse,Opgeëistenstraat,30,50.7513261622,3.59228488749
9600,Ronse,Ives-Sabin Maghermanlaan,6,50.7477517498,3.59262616672
9600,Ronse,Rotterij,254,50.7423448828,3.63078496719
9600,Ronse,Ninoofsesteenweg,551,50.7536782094,3.6470823462
9600,Ronse,Rode Broeckstraat,86,50.7403930966,3.6063194292
9600,Ronse,Steenveldstraat,1,50.7491854247,3.57349999104
9600,Ronse,Ooststraat,150,50.7363273477,3.62898488639
9600,Ronse,Zonnestraat,88,50.7493233685,3.58962514399
9600,Ronse,Savooistraat,173,50.7626166875,3.6256827808
9600,Ronse,Elzeelsesteenweg,99,50.7425722155,3.6143405131
9600,Ronse,Zénobe Grammestraat,31,50.7457571991,3.61086191752
9600,Ronse,Olifantstraat,14,50.744954857,3.60494378118
9600,Ronse,Stooktstraat,174,50.7359975121,3.60771748731
9600,Ronse,Wodecqstraat,23,50.736873874,3.61942736396
9600,Ronse,Stooktstraat,326,50.7358661577,3.61381396827
9600,Ronse,Waatsbrugstraat,24,50.7455800625,3.61334855251
9600,Ronse,Ernest Solvaystraat,2,50.7359419575,3.60429514103
9600,Ronse,Ruyffelaerekoer,18,50.7506282085,3.61040694706
9600,Ronse,Moortelstraat,10,50.7404278661,3.58675006599
9600,Ronse,Fostierlaan,21,50.7450025309,3.59766190072
9600,Ronse,Napoléon Annicqstraat,8,50.7504639184,3.60917982455
9600,Ronse,Hector Denisstraat,56,50.7344286278,3.60485982978
9600,Ronse,Alexandre-Louis Vanhovestraat,16,50.7459726777,3.59304781182
9600,Ronse,Spinessenberg,2,50.7615213579,3.58401582242
9600,Ronse,Aatstraat,18,50.7422422838,3.60706341911
9600,Ronse,Emmanuel Hielstraat,14,50.7497659811,3.58730726459
9600,Ronse,Vlamingenweg,58,50.7597474118,3.58382849498
9600,Ronse,Rode Mutslaan,32,50.7432624962,3.57400880223
9600,Ronse,Broeke,225B,50.7654190926,3.59912009366
9600,Ronse,Georges Eeckhoutstraat,1,50.7351321155,3.6032904073
9600,Ronse,Ninovestraat,19,50.7497741139,3.60528218853
9600,Ronse,Geraardsbergenstraat,167,50.7492897754,3.62182937001
9600,Ronse,Grote Marijve,55,50.746452397,3.60948519386
9600,Ronse,Blauwesteen,43A,50.7444650323,3.61410576723
9600,Ronse,Gustave Royerslaan,166,50.7407217744,3.58845089906
9600,Ronse,Leuzesesteenweg,279,50.7337226606,3.58947502792
9600,Ronse,Rode Broeckstraat,15,50.7420059248,3.60506068991
9600,Ronse,Gustave Royerslaan,148,50.7408974126,3.58943183454
9600,Ronse,Molendam,23,50.7413022719,3.60176080698
9600,Ronse,Geraardsbergenstraat,17,50.7467647567,3.61501763794
9600,Ronse,Kapellestraat,178,50.7533139965,3.57986570317
9600,Ronse,Geraardsbergenstraat,1,50.7464930071,3.6146024124
9600,Ronse,Gustave Royerslaan,16,50.7423929754,3.59332433044
9600,Ronse,Bereidersstraat,18,50.7508069385,3.59394920213
9600,Ronse,Scheldekouter,275,50.739751635,3.61417495988
9600,Ronse,Germinal,105,50.7467506196,3.62463187751
9600,Ronse,Broeke,166D,50.7579159493,3.59976134153
9600,Ronse,Jan van Nassaustraat,40,50.7479734872,3.59340571184
9600,Ronse,Borrekens,78,50.7544039188,3.62167167184
9600,Ronse,Fostierlaan,56,50.7434563626,3.59814951893
9600,Ronse,Breucq,32,50.7583262893,3.66533845737
9600,Ronse,Leuzesesteenweg,190,50.73757923,3.58954475494
9600,Ronse,Adolphe Hullebroeckstraat,48,50.7377266189,3.61884089252
9600,Ronse,Hogerlucht,112,50.7603399234,3.60322647272
9600,Ronse,Karnemelkbeekstraat,10,50.7623643837,3.54061332537
9600,Ronse,Jules Bordetlaan,28,50.7392754233,3.60397432541
9600,Ronse,Leuzesesteenweg,226,50.7363444187,3.58986931981
9600,Ronse,Wijnstraat,28,50.7483603553,3.59786261981
9600,Ronse,Sint-Ambrosiusstraat,3,50.7525398369,3.6025792135
9600,Ronse,Coupl'Voie,32,50.7445190252,3.59667767308
9600,Ronse,Ossestraat,1A,50.7500689418,3.56888517328
9600,Ronse,Ommegangstraat,93,50.7707312131,3.64110189203
9600,Ronse,Pontstraat,193,50.7329130118,3.57849089836
9600,Ronse,Constantin Meunierstraat,26,50.7362723774,3.5970484173
9600,Ronse,Grote Marijve,20,50.7468296182,3.60849983253
9600,Ronse,de Mérodestraat,13,50.7460755504,3.59222384708
9600,Ronse,Geraardsbergenstraat,35,50.7468493744,3.61560773972
9600,Ronse,Kapellestraat,196,50.7536215634,3.57944021248
9600,Ronse,Viermaartlaan,53,50.7406713647,3.59486353226
9600,Ronse,Geraardsbergenstraat,132,50.7500942003,3.62354873891
9600,Ronse,Leuzesesteenweg,208,50.7371854511,3.59009811185
9600,Ronse,Charles de Gaullestraat,18,50.7430948633,3.59846359967
9600,Ronse,Leuzesesteenweg,20,50.7423597066,3.58778960477
9600,Ronse,Konrad Adenauerstraat,27,50.7449247406,3.62186819139
9600,Ronse,Walenweg,149,50.7370258326,3.59361531147
9600,Ronse,Bosrede,8,50.760737549,3.64460592293
9600,Ronse,Breucq,14,50.7564042677,3.66322648254
9600,Ronse,Kruisstraat,243,50.7557860799,3.59088259377
9600,Ronse,Leuzesesteenweg,55,50.7424149486,3.58692000752
9600,Ronse,Devoskoer,7,50.7446428817,3.60670823956
9600,Ronse,Saint-Sauveurstraat,135,50.7349487223,3.59703182685
9600,Ronse,Broeke,18,50.754390754,3.59413236259
9600,Ronse,Floréal,1,50.7429793957,3.5809153764
9600,Ronse,Floréal,35,50.7424302772,3.57884756008
9600,Ronse,Constantin Meunierstraat,79,50.7370785525,3.59484428835
9600,Ronse,Stooktstraat,57,50.7362883767,3.60050726893
9600,Ronse,Wilgenstraat,68,50.7631884419,3.66594218066
9600,Ronse,Kruisstraat,196,50.7548809282,3.59104265526
9600,Ronse,Saint-Sauveurstraat,188,50.7350611504,3.59866451295
9600,Ronse,Georges Eeckhoutstraat,17,50.7352632628,3.60277856777
9600,Ronse,Edmond Van Beverenplein,18,50.7548425172,3.61052750547
9600,Ronse,Rotterij,290,50.7416870866,3.63489417393
9600,Ronse,Ossestraat,6,50.7551502502,3.56352009889
9600,Ronse,Jules Bordetlaan,125,50.739781052,3.60015921925
9600,Ronse,Waatsbrugstraat,95,50.7463875978,3.61888055183
9600,Ronse,Sint-Ambrosiusstraat,37,50.7526460377,3.60424833507
9600,Ronse,Klijpestraat,10,50.7433483688,3.55902234924
9600,Ronse,Oswald Ponettestraat,72,50.7452159564,3.59371135041
9600,Ronse,Jean-Baptiste Dekeyserstraat,6,50.7447247276,3.60205724465
9600,Ronse,Linde,9,50.7516737334,3.62163642484
9600,Ronse,Savooistraat,155,50.7612997777,3.62519610093
9600,Ronse,Oudestraat,35,50.7547027454,3.59338956402
9600,Ronse,Rode Broeckstraat,68,50.7407733652,3.60583340542
9600,Ronse,Stationsstraat,36,50.7432436934,3.60144202437
9600,Ronse,Ninoofsesteenweg,433,50.7526286916,3.63304664417
9600,Ronse,Georges De Myttenaerestraat,44,50.7417808595,3.58338513649
9600,Ronse,Geraardsbergenstraat,185,50.7493802133,3.62244946489
9600,Ronse,Scheldekouter,293,50.740115161,3.61534196537
9600,Ronse,Sint-Ambrosiusstraat,45,50.7527436707,3.60468919423
9600,Ronse,Ommegangstraat,49,50.7677900344,3.62128029416
9600,Ronse,Viermaartlaan,25,50.7410711574,3.59585682582
9600,Ronse,Ninovestraat,211,50.7517305658,3.61924608008
9600,Ronse,Kruisstraat,2,50.7502734827,3.59656699862
9600,Ronse,Konrad Adenauerstraat,3,50.7447099,3.61886104013
9600,Ronse,Blokstraat,11,50.7500512212,3.5769689044
9600,Ronse,Charles Vandendoorenstraat,15,50.7458799435,3.60199793497
9600,Ronse,Kleine Marijve,11,50.7461359195,3.60905201923
9600,Ronse,Scheldekouter,71,50.7405732861,3.61113055048
9600,Ronse,Ernest Solvaystraat,44,50.7343370062,3.60360505278
9600,Ronse,Mgr. Beylsstraat,16,50.7401851878,3.6205999927
9600,Ronse,Aimé Delhayeplein,25,50.7497557812,3.59657391893
9600,Ronse,Kruisstraat,145,50.7538098791,3.59328732935
9600,Ronse,Blauwesteen,222,50.7441731958,3.62066239848
9600,Ronse,Moortelstraat,88,50.738698648,3.58072351819
9600,Ronse,IJsmolenstraat,42,50.7569905305,3.6506654443
9600,Ronse,Ten Houte,12,50.7763043126,3.66295576951
9600,Ronse,Théodule Canfijnstraat,57,50.7493064513,3.60873976566
9600,Ronse,Aatstraat,153,50.7390047898,3.61217808424
9600,Ronse,Scheldekouter,214,50.7411727603,3.61373482259
9600,Ronse,Klevestraat,19,50.7560605983,3.59737543332
9600,Ronse,Broeke,82,50.754611204,3.5969807822
9600,Ronse,Ninovestraat,50,50.7506485618,3.60674111685
9600,Ronse,Jacob van Arteveldestraat,31,50.7558098405,3.59490484124
9600,Ronse,Elzeelsesteenweg,690,50.7319969911,3.64129162327
9600,Ronse,Jan van Nassaustraat,3,50.749421125,3.59201258189
9600,Ronse,Prolstraat,11,50.7602934752,3.6381243297
9600,Ronse,Kleine Heide,63,50.7314416889,3.63653526742
9600,Ronse,Jules Bordetlaan,4,50.7393155219,3.60506303133
9600,Ronse,Poermagazijnstraat,4,50.7445885141,3.60772123154
9600,Ronse,Kruisstraat,288,50.7565560419,3.58827964202
9600,Ronse,Willocqsteegje,13,50.745695525,3.60106021102
9600,Ronse,Schavaart,21,50.7623908078,3.58297042022
9600,Ronse,Léopold Sturbautstraat,35,50.742175661,3.59538801896
9600,Ronse,Lentestraat,2,50.752748753,3.55206349072
9600,Ronse,Leuzesesteenweg,98,50.7415468737,3.58789388637
9600,Ronse,Scheldekouter,53,50.7405206986,3.61150670758
9600,Ronse,Kapellestraat,145,50.7529321351,3.58171670334
9600,Ronse,Fiertelmeers,93,50.754463703,3.58792227661
9600,Ronse,Olifantstraat,29,50.7461025883,3.60677179211
9600,Ronse,Engelsenlaan,258,50.7420539179,3.58021773385
9600,Ronse,Hospitaalstraat,1,50.7483042354,3.60264180797
9600,Ronse,Nijverheidsstraat,18,50.7439131104,3.61109587562
9600,Ronse,Maagdenstraat,15,50.7490585594,3.62580378113
9600,Ronse,Langehaag,107,50.7531185582,3.59268052285
9600,Ronse,Hector Denisstraat,82,50.733866156,3.60456408588
9600,Ronse,Klevestraat,37,50.7570382047,3.5956585259
9600,Ronse,Elzeelsesteenweg,198,50.7414167608,3.61769280685
9600,Ronse,Wodecqstraat,104,50.735976435,3.62588491387
9600,Ronse,Groeneweg,57,50.7560416078,3.58853405711
9600,Ronse,Rode Broeckstraat,6,50.742317301,3.6054122713
9600,Ronse,Ernest Solvaystraat,62,50.7339715,3.60341818169
9600,Ronse,Zonnestraat,45,50.7500136796,3.59290919435
9600,Ronse,Hemelberg,8,50.7559816159,3.59936417022
9600,Ronse,Deurnemeers,31,50.7327023461,3.61276010834
9600,Ronse,César Snoecklaan,60,50.7452209867,3.58694701892
9600,Ronse,Beekstraat,23,50.7505060981,3.60529612645
9600,Ronse,Stooktstraat,101,50.736314623,3.60250988898
9600,Ronse,IJsmolenstraat,29,50.7547897876,3.64059326541
9600,Ronse,Priestersstraat,4,50.748343581,3.60173029259
9600,Ronse,Fiertelmeers,75,50.7541400889,3.5892773984
9600,Ronse,Spillegem,11,50.7473062695,3.60396847694
9600,Ronse,Oudestraat,63,50.7553789221,3.59317563282
9600,Ronse,Fostierlaan,46,50.7438683537,3.59833605247
9600,Ronse,Sandwichstraat,6,50.7573538065,3.5985181715
9600,Ronse,Ommegangstraat,85,50.7712009343,3.63921984017
9600,Ronse,Blokstraat,9,50.7500923949,3.5769819588
9600,Ronse,Zonnestraat,149,50.7494992191,3.58730403389
9600,Ronse,Savooistraat,82,50.7585489438,3.62410263729
9600,Ronse,Scheldekouter,232,50.7405940105,3.61538857875
9600,Ronse,Paillartcamp,1,50.7349796706,3.55916703181
9600,Ronse,Camille Lemonnierlaan,61,50.734065046,3.5953793543
9600,Ronse,Boontjesstraat,66,50.7449530084,3.63452977832
9600,Ronse,Floréal,252,50.743534427,3.58043030636
9600,Ronse,Savooistraat,100,50.7598459528,3.6257307098
9600,Ronse,Hermes Van Wynghenestraat,41,50.7426928666,3.60924960213
9600,Ronse,Hendrik Consciencestraat,61,50.7437500717,3.61599673204
9600,Ronse,Kruisstraat,307,50.7571905031,3.58914702103
9600,Ronse,Broeke,225,50.7652338943,3.5990652817
9600,Ronse,Karel Lodewijk Ledeganckstraat,28,50.754830941,3.60989206047
9600,Ronse,Oswald Ponettestraat,97,50.745581144,3.59274790577
9600,Ronse,Molekensstraat,177,50.7528834263,3.57846110822
9600,Ronse,Hector Denisstraat,46,50.7346312306,3.60496435386
9600,Ronse,Elzeelsesteenweg,654,50.7324592275,3.63826679767
9600,Ronse,Oudestraat,167,50.7585813263,3.59013941114
9600,Ronse,Zonnebloemstraat,27,50.7382569422,3.61323025161
9600,Ronse,Leuzesesteenweg,136,50.7396144732,3.58875215351
9600,Ronse,Deurnestraat,180,50.7323412519,3.62180284151
9600,Ronse,Blauwesteen,204,50.7440177125,3.61996632826
9600,Ronse,Populierstraat,23,50.7575628729,3.63196192744
9600,Ronse,Jean-Baptiste Guissetplein,11,50.7444254511,3.60101542722
9600,Ronse,Kasteelstraat,45,50.7473774852,3.59511295728
9600,Ronse,Léopold Sturbautstraat,17,50.7421413713,3.59618613127
9600,Ronse,Kapellestraat,26,50.7498212421,3.58543196122
9600,Ronse,Karel Lodewijk Ledeganckstraat,4,50.7553541454,3.609582897
9600,Ronse,Kasteelstraat,43C,50.7472268554,3.59541951965
9600,Ronse,Langehaag,87,50.7520580444,3.59355904579
9600,Ronse,Aatstraat,48,50.7417968975,3.60798858806
9600,Ronse,Elzeelsesteenweg,386,50.7383099404,3.62417258024
9600,Ronse,Fiertelmeers,57,50.754339221,3.58999363202
9600,Ronse,Blauwesteen,17,50.7447355858,3.61229980615
9600,Ronse,Robert Schumanstraat,8,50.7460107244,3.62197582457
9600,Ronse,Zonnestraat,167,50.7494195914,3.58649974391
9600,Ronse,Oudestraat,149,50.7575587991,3.59100867938
9600,Ronse,Zonnestraat,224,50.7491053538,3.58391497782
9600,Ronse,Beukenlaan,38,50.7429216659,3.60736614223
9600,Ronse,Louis Vangrootenbruelstraat,44,50.7437872158,3.59195902232
9600,Ronse,Spillegem,9,50.74727716,3.60388874624
9600,Ronse,Hoogstraat,21,50.7462195273,3.59806992645
9600,Ronse,Adolphe Hullebroeckstraat,76,50.7376263485,3.61681728726
9600,Ronse,Zonnestraat,63,50.7499581024,3.59064304051
9600,Ronse,Engelsenlaan,294,50.7408402487,3.57734133396
9600,Ronse,Savooistraat,18,50.752898938,3.62003444647
9600,Ronse,Gefusilleerdenlaan,11,50.7426190002,3.59728743414
9600,Ronse,Mgr. Beylsstraat,60,50.7417785844,3.62105998161
9600,Ronse,Opgeëistenstraat,73,50.7522284974,3.59214715785
9600,Ronse,Zuidstraat,26,50.7453636148,3.6043193677
9600,Ronse,Langeweg,40,50.7380232869,3.6127010204
9600,Ronse,Ninovestraat,174,50.7523933351,3.62322117105
9600,Ronse,Zonnestraat,81,50.7497712303,3.59006653504
9600,Ronse,Waatsbrugstraat,49,50.7460412308,3.61489289101
9600,Ronse,Wijnstraat,41,50.7485413865,3.5983770252
9600,Ronse,Hogerlucht,6,50.7555149333,3.6035644677
9600,Ronse,Olifantstraat,40,50.7460082898,3.60562698466
9600,Ronse,Savooistraat,40A,50.7560920716,3.61862881822
9600,Ronse,Blauwesteen,185,50.7436898786,3.6202115571
9600,Ronse,Opgeëistenstraat,111,50.7532906317,3.59160926678
9600,Ronse,Jean-Baptiste Guissetplein,9,50.7441363083,3.60091684171
9600,Ronse,Delplanquettestraat,7,50.7384798408,3.54977674303
9600,Ronse,Ovide Decrolylaan,34,50.7423796848,3.6117272145
9600,Ronse,Zonnestraat,10,50.7494805122,3.59345886765
9600,Ronse,Peperstraat,30,50.7469083205,3.59977394843
9600,Ronse,Georges Desmetstraat,11,50.7427700538,3.60772011709
9600,Ronse,Blauwesteen,167,50.7436915138,3.6196517136
9600,Ronse,Pontstraat,227,50.7313626856,3.5811534773
9600,Ronse,Paul-Henri Spaakstraat,1,50.7452557938,3.61841310457
9600,Ronse,Savooistraat,64,50.757897483,3.62241610347
9600,Ronse,Bierinkstraat,6,50.753654785,3.57383643633
9600,Ronse,Germinal,2,50.7479450494,3.62722503425
9600,Ronse,Saint-Sauveurstraat,120,50.7370429032,3.59888800911
9600,Ronse,Hulstken,2,50.7643735924,3.58937677547
9600,Ronse,Germinal,70,50.7463094985,3.62534421098
9600,Ronse,Oudestraat,45,50.7550028664,3.5935024009
9600,Ronse,Europastraat,15,50.7445904175,3.61789234446
9600,Ronse,Parkstraat,14,50.7482305908,3.59391941284
9600,Ronse,Kruisstraat,163,50.7541312179,3.59289783509
9600,Ronse,Ninovestraat,128,50.7521395139,3.62003091814
9600,Ronse,Hogerlucht,56,50.7586501301,3.60408065774
9600,Ronse,Elzelestraat,25,50.7468808492,3.60549794361
9600,Ronse,Zuidstraat,2,50.7472251284,3.60327276569
9600,Ronse,Kruisstraat,325,50.7575936122,3.58817302964
9600,Ronse,Blauwesteen,43,50.744512618,3.61388679894
9600,Ronse,Scheldekouter,441,50.7408704794,3.61533570682
9600,Ronse,Floréal,169,50.7421920881,3.57547686288
9600,Ronse,Germinal,52,50.7474453784,3.62374023944
9600,Ronse,Elzelestraat,129,50.7449163499,3.60930829743
9600,Ronse,Broeke,100,50.7548296605,3.59763523048
9600,Ronse,Pieter Paul Rubensstraat,57,50.737694958,3.60161305924
9600,Ronse,Peperstraat,12,50.7468070198,3.60074978698
9600,Ronse,Aimé Delhayeplein,1,50.7500072758,3.59718000114
9600,Ronse,Maquisstraat,60,50.7312909137,3.63389309722
9600,Ronse,Kruisstraat,110,50.7530324955,3.59364066671
9600,Ronse,Hector Denisstraat,64,50.7342386404,3.60475977708
9600,Ronse,Zonnestraat,206,50.7491699807,3.58443651841
9600,Ronse,Ninoofsesteenweg,513,50.7532265896,3.641579393
9600,Ronse,Scheldekouter,249,50.740716813,3.61305751877
9600,Ronse,Ooststraat,142,50.7368029972,3.62851175879
9600,Ronse,Opgeëistenstraat,91,50.7528531151,3.59188602713
9600,Ronse,Engelsenlaan,80,50.7443318803,3.58743643131
9600,Ronse,Engelsenlaan,276,50.7408955231,3.57800447223
9600,Ronse,Zonnestraat,185,50.7499905093,3.58427378947
9600,Ronse,Walenweg,15,50.7386146582,3.59497138026
9600,Ronse,Saint-Sauveurstraat,102,50.7374981388,3.59892435409
9600,Ronse,Frédéric Bruneellaan,45,50.7439432554,3.59351477349
9600,Ronse,Zonnestraat,132,50.7491694671,3.58812800025
9600,Ronse,Hogerlucht,21,50.7565948884,3.6056537423
9600,Ronse,Hendrik Consciencestraat,17,50.7428199838,3.6170388141
9600,Ronse,Gasmeterstraat,15,50.7504065986,3.59271255246
9600,Ronse,Rotterij,47,50.7464652845,3.62307897386
9600,Ronse,Hector Denisstraat,18,50.7352349951,3.60527828028
9600,Ronse,Maagdenstraat,47,50.7462257478,3.62901393986
9600,Ronse,Elzelestraat,51,50.7465865787,3.60628162694
9600,Ronse,Kapellestraat,110,50.7517962337,3.58170562288
9600,Ronse,Rode Mutslaan,166,50.746719087,3.57382527439
9600,Ronse,Kruisstraat,353,50.7621622412,3.58785994365
9600,Ronse,Rozenaaksesteenweg,38,50.7488742697,3.55975430085
9600,Ronse,Albert Vandeputtestraat,11,50.741048615,3.59064667365
9600,Ronse,Ninoofsesteenweg,339,50.7520907479,3.62804342398
9600,Ronse,Saint-Sauveurstraat,66,50.7387159377,3.59890759106
9600,Ronse,Jean Monnetstraat,18,50.7463231919,3.61852393028
9600,Ronse,Elzeelsesteenweg,482,50.7354612863,3.62929270937
9600,Ronse,Charles de Gaullestraat,9,50.7436438702,3.59908855378
9600,Ronse,Steenveldstraat,10,50.7485389889,3.57320339376
9600,Ronse,Ninoofsesteenweg,293,50.7520950708,3.62548964751
9600,Ronse,Olifantstraat,7,50.7450616172,3.60597174565
9600,Ronse,Mussenstraat,36,50.7504915793,3.57157633194
9600,Ronse,Kruisstraat,92,50.7525722071,3.59444440238
9600,Ronse,Spinstersstraat,43,50.7507998247,3.59280655355
9600,Ronse,Oude Vesten,37,50.7465128026,3.6031305869
9600,Ronse,Spinstersstraat,31,50.750652346,3.5937105497
9600,Ronse,Ommegangstraat,101,50.7707484957,3.6415833634
9600,Ronse,Zénobe Grammestraat,41,50.7458549723,3.61120311045
9600,Ronse,Bredestraat,35,50.747003099,3.60812124619
9600,Ronse,Fostierlaan,18,50.7450721856,3.59831468253
9600,Ronse,Floréal,43,50.7423779655,3.57818307445
9600,Ronse,Rotterij,12,50.7480601043,3.61943762787
9600,Ronse,Pierre D'Hauwerstraat,38,50.7430074599,3.59562275657
9600,Ronse,Stijn Streuvelsstraat,6,50.7520449916,3.62659510621
9600,Ronse,Klevestraat,65,50.7571153963,3.59408815644
9600,Ronse,Elzeelsesteenweg,127,50.7420395729,3.61491733394
9600,Ronse,Georges Dumontstraat,4,50.7347445388,3.60267068674
9600,Ronse,Oudestraat,8,50.7549307504,3.59235987073
9600,Ronse,Sint-Martensstraat,25,50.7479186284,3.60029240022
9600,Ronse,Barasteegje,13,50.7455298035,3.6047540887
9600,Ronse,Elzeelsesteenweg,518,50.7341785024,3.63292277546
9600,Ronse,Moortelstraat,17,50.7407607079,3.58613432219
9600,Ronse,Jagersstraat,12,50.737196528,3.62995430327
9600,Ronse,Ruyffelaerekoer,11,50.7506067475,3.61007767229
9600,Ronse,Sint-Martensstraat,55,50.7484239924,3.59904991529
9600,Ronse,Oscar Delghuststraat,13,50.7509000733,3.61274379699
9600,Ronse,Kanarieberg,5,50.7590064455,3.65519224258
9600,Ronse,Leuzesesteenweg,201,50.7364723091,3.58889054164
9600,Ronse,Politiekegevangenenstraat,39,50.7433578185,3.60308277281
9600,Ronse,Dammekensstraat,108B,50.7561541189,3.61015591667
9600,Ronse,Rode Broeckstraat,139,50.738910968,3.60557437434
9600,Ronse,Geraardsbergenstraat,8,50.7484023551,3.61786423081
9600,Ronse,de Mérodestraat,4,50.7460354655,3.5913988348
9600,Ronse,Geraardsbergenstraat,45,50.7469242075,3.61590680647
9600,Ronse,Napoléon Annicqstraat,25,50.7498583765,3.60962958616
9600,Ronse,Ooststraat,23,50.7425249027,3.62679197726
9600,Ronse,Blauwesteen,250,50.7442882946,3.6217649188
9600,Ronse,Hermes Van Wynghenestraat,15,50.7432113261,3.60851410416
9600,Ronse,Edmond Van Beverenplein,9,50.7552312982,3.61029831896
9600,Ronse,Zonnestraat,114,50.7492996439,3.58864052679
9600,Ronse,Hemelberg,41,50.7570632098,3.5974335772
9600,Ronse,Louis Vangrootenbruelstraat,80,50.7428009449,3.59211554097
9600,Ronse,Gustave Royerslaan,138,50.7409737665,3.58994941401
9600,Ronse,Grote Markt,38,50.7480705298,3.60333556019
9600,Ronse,Nachtegaalstraat,24,50.7515585965,3.62511661184
9600,Ronse,Georges Eeckhoutstraat,8,50.7348669328,3.60293743502
9600,Ronse,Biest,145,50.7341794117,3.58132431447
9600,Ronse,Bredestraat,17,50.7468879041,3.60757685126
9600,Ronse,Spinstersstraat,150,50.750059291,3.58802909121
9600,Ronse,Molekensstraat,20,50.7495366264,3.57810129518
9600,Ronse,Oude Vesten,19,50.7464426527,3.60228805193
9600,Ronse,Groeneweg,108,50.7568177868,3.58754369703
9600,Ronse,Breucq,5,50.7556090899,3.66570907621
9600,Ronse,Emmanuel Hielstraat,7,50.7498492189,3.58780427634
9600,Ronse,Oudestraat,10,50.7549711639,3.59232632504
9600,Ronse,Wolvestraat,58,50.7523486599,3.60500921455
9600,Ronse,Schaffendal,5,50.7598662567,3.58100122263
9600,Ronse,Constantin Meunierstraat,54,50.7364295454,3.59504831654
9600,Ronse,Hogerlucht,92,50.7597853856,3.60349826247
9600,Ronse,Grote Marijve,19,50.746607901,3.60822000932
9600,Ronse,Napoléon Annicqstraat,1,50.7507114127,3.60897092248
9600,Ronse,Stationsstraat,44,50.7430369805,3.60161626441
9600,Ronse,Walenweg,170,50.7358625828,3.59421314073
9600,Ronse,Grote Marijve,134,50.7469322206,3.61223877534
9600,Ronse,Rode Broeckstraat,61,50.7412999614,3.60472216558
9600,Ronse,Kapellestraat,217,50.7572920606,3.57730266337
9600,Ronse,Dammekensstraat,124,50.7563710702,3.61065867936
9600,Ronse,Geraardsbergenstraat,10,50.7484300985,3.61792868958
9600,Ronse,Leuzesesteenweg,272,50.7347126565,3.58998665017
9600,Ronse,Beekstraat,58,50.7557202875,3.61786473502
9600,Ronse,Wilgenstraat,61,50.7626296834,3.6660133051
9600,Ronse,Wolvestraat,76,50.7527113614,3.60515270898
9600,Ronse,Ernest Solvaystraat,80,50.7335479333,3.60312388604
9600,Ronse,Kasteelstraat,43A,50.7472476321,3.59562521251
9600,Ronse,Kapellestraat,74,50.7513643211,3.58333659137
9600,Ronse,Wijnstraat,11,50.7478873232,3.59882458286
9600,Ronse,Louis Pasteurlaan,13,50.7398993194,3.60707420224
9600,Ronse,Broeke,171,50.7558984714,3.60062689931
9600,Ronse,Maagdenstraat,33,50.748575694,3.62689571379
9600,Ronse,Savooistraat,48,50.7574825752,3.62065230362
9600,Ronse,Rijkswachtdreef,23,50.7692624215,3.64158233362
9600,Ronse,Viermaartlaan,1,50.7412583931,3.59717466969
9600,Ronse,Dammekensstraat,106,50.7562709645,3.60986023397
9600,Ronse,Stefaan Modest Glorieuxlaan,148,50.7550324942,3.59985330429
9600,Ronse,Sint-Cornelisstraat,37,50.7481870305,3.59663517913
9600,Ronse,Broeke,46,50.7545268957,3.59522536227
9600,Ronse,Steenveldstraat,8,50.7484111846,3.57319563095
9600,Ronse,Aatstraat,64,50.7415033019,3.60843551958
9600,Ronse,Maagdenstraat,45,50.7464423603,3.63030240385
9600,Ronse,Kruisstraat,217,50.7550742891,3.5917307993
9600,Ronse,David Teniersstraat,27,50.7406749635,3.60055835915
9600,Ronse,Jan van Nassaustraat,57,50.7475974468,3.59282510623
9600,Ronse,Ninoofsesteenweg,214,50.7528880556,3.62596536308
9600,Ronse,Stooktstraat,189,50.7356598833,3.60696388814
9600,Ronse,Neerhofstraat,17,50.7490992985,3.59365842455
9600,Ronse,Rode Mutslaan,40,50.7438363442,3.57325383295
9600,Ronse,Kruisstraat,74,50.7520209041,3.59467226605
9600,Ronse,Doorniksesteenweg,86,50.7373577508,3.56656909517
9600,Ronse,Fiertelmeers,102A,50.7545226082,3.584869289
9600,Ronse,Geraardsbergenstraat,63,50.7471455845,3.61659845467
9600,Ronse,Hermes Van Wynghenestraat,33,50.742837826,3.60906123132
9600,Ronse,Waaienberg,4,50.7469890865,3.64102405184
9600,Ronse,Oudestraat,47,50.755059328,3.59347567846
9600,Ronse,Georges Eeckhoutstraat,10,50.7348876556,3.60284813357
9600,Ronse,Leuzesesteenweg,254,50.7354795338,3.58994721185
9600,Ronse,Edmond Van Beverenplein,11,50.7551529311,3.61034422308
9600,Ronse,Charles Vandendoorenstraat,33,50.7453879443,3.60233311063
9600,Ronse,Scherpenberg,19,50.7590499568,3.56611488179
9600,Ronse,Ninovestraat,20,50.750152214,3.60504337827
9600,Ronse,Stooktstraat,50,50.7370798695,3.60128744719
9600,Ronse,Elzeelsesteenweg,109,50.7422917832,3.61443397838
9600,Ronse,Spinstersstraat,66,50.7504878842,3.59161621297
9600,Ronse,Kastanjestraat,5,50.7694559588,3.64343607238
9600,Ronse,Oswald Ponettestraat,79,50.7456006206,3.59377502548
9600,Ronse,Joseph Ferrantstraat,7,50.743629503,3.60443164449
9600,Ronse,Constantin Meunierstraat,72,50.7366931933,3.59475711033
9600,Ronse,Saint-Sauveurstraat,84,50.737922879,3.59901262492
9600,Ronse,Neerhofstraat,35,50.7481850722,3.59406469909
9600,Ronse,Waatsbrugstraat,39,50.7458331004,3.61430534363
9600,Ronse,Fiertelmeers,100C,50.7539017139,3.58721971826
9600,Ronse,Aatstraat,21,50.7423501482,3.60555526783
9600,Ronse,Ijzerstraat,2,50.7429446548,3.60217984351
9600,Ronse,Langehaag,125,50.7534365469,3.59235556788
9600,Ronse,Fabriekstraat,23,50.7475298152,3.59790014686
9600,Ronse,Elzeelsesteenweg,233,50.7404649884,3.61827128678
9600,Ronse,Ruyffelaerekoer,9,50.7506407132,3.61006111235
9600,Ronse,Broeke,118A,50.7554231116,3.59912654096
9600,Ronse,Geraardsbergenstraat,47,50.747001836,3.61601141698
9600,Ronse,Oudestraat,81,50.7556772044,3.59248136679
9600,Ronse,Charles de Gaullestraat,11,50.7436153979,3.59895582967
9600,Ronse,Alexandre-Louis Vanhovestraat,7,50.7457276581,3.59370789867
9600,Ronse,Oswald Ponettestraat,26,50.7449397251,3.59574424534
9600,Ronse,Broeke,207,50.759312401,3.5993510497
9600,Ronse,Aatstraat,171,50.7388373124,3.61326600644
9600,Ronse,Opgeëistenstraat,5,50.7509362659,3.59301914393
9600,Ronse,Hermes Van Wynghenestraat,76,50.7423388026,3.61059112251
9600,Ronse,Remi Van Caeneghemstraat,6,50.7592138271,3.58475272104
9600,Ronse,Aatstraat,46,50.7418296541,3.60793818657
9600,Ronse,Rode Broeckstraat,257,50.7365112676,3.60486732143
9600,Ronse,Folderstraat,4,50.751142346,3.55848105317
9600,Ronse,Deurnestraat,252,50.7291207937,3.62491368088
9600,Ronse,Floréal,61,50.742335548,3.57705425806
9600,Ronse,Sint-Cornelisstraat,19,50.7483727598,3.59712498622
9600,Ronse,Bereidersstraat,21,50.750995674,3.59353258309
9600,Ronse,Sint-Ambrosiusstraat,10,50.7530344434,3.60268384146
9600,Ronse,Saint-Sauveurstraat,31,50.7386368023,3.59774275345
9600,Ronse,Bredestraat,53,50.7470838968,3.60875461936
9600,Ronse,IJsmolenstraat,30,50.7562041982,3.64330151196
9600,Ronse,Jean-Baptiste Dekeyserstraat,21,50.7450181412,3.60110595486
9600,Ronse,Ninoofsesteenweg,613,50.754088972,3.65838013065
9600,Ronse,Grote Marijve,144,50.7469265913,3.61256435048
9600,Ronse,Gefusilleerdenlaan,4,50.7429811034,3.59796657324
9600,Ronse,Gasmeterstraat,8,50.7502432208,3.59230173096
9600,Ronse,Leuzesesteenweg,63,50.7421892374,3.58701938812
9600,Ronse,Prolstraat,18,50.7601700276,3.63916108178
9600,Ronse,Savooistraat,107,50.758372445,3.62547259312
9600,Ronse,Kruisstraat,300,50.7567608922,3.5883415879
9600,Ronse,Rozenaaksesteenweg,56,50.7486691968,3.55732316402
9600,Ronse,Drieborrebeekstraat,11,50.7565990569,3.62577238998
9600,Ronse,Zonnestraat,142,50.7490777077,3.58774152599
9600,Ronse,Scheldekouter,713,50.739490104,3.61547294405
9600,Ronse,Saint-Sauveurstraat,13,50.7391059175,3.59779798804
9600,Ronse,Kleine Marijve,18,50.7460192364,3.6094694974
9600,Ronse,Europastraat,8,50.7447136871,3.61628343874
9600,Ronse,Kruisstraat,271,50.756348188,3.58994130999
9600,Ronse,Elzeelsesteenweg,173,50.7413409005,3.61639279771
9600,Ronse,Voorzienigheidsstraat,15,50.7528198897,3.59356111549
9600,Ronse,Klevestraat,12,50.7550269869,3.59691034088
9600,Ronse,Maagdenstraat,8,50.7493514215,3.62711718305
9600,Ronse,Théodule Canfijnstraat,50,50.7494797969,3.60939350319
9600,Ronse,Lorettestraat,16,50.7501564873,3.62535752579
9600,Ronse,IJsmolenstraat,12,50.7548849194,3.63896311093
9600,Ronse,Georges De Myttenaerestraat,36,50.7420660265,3.58335771715
9600,Ronse,Ninovestraat,67,50.7498923052,3.6077091669
9600,Ronse,Frédéric Bruneellaan,27,50.7444168433,3.5932947313
9600,Ronse,Stooktstraat,118,50.7363484623,3.60466184773
9600,Ronse,Spinstersstraat,84,50.7505447177,3.59061635341
9600,Ronse,Zonnestraat,415,50.7491226819,3.56622508184
9600,Ronse,Georges Desmetstraat,4,50.743075332,3.60797844731
9600,Ronse,Zonnestraat,285,50.7488682614,3.57868315572
9600,Ronse,Aatstraat,74,50.7412992438,3.60871565851
9600,Ronse,Edouard Jolystraat,11,50.7593644254,3.59627250869
9600,Ronse,Ernest Solvaystraat,79,50.7345879815,3.60304991183
9600,Ronse,Saint-Sauveurstraat,127,50.7352744583,3.59713019564
9600,Ronse,Abel Regibostraat,1,50.7606025757,3.59785885628
9600,Ronse,Nachtegaalstraat,60,50.7507178092,3.62463133345
9600,Ronse,Geraardsbergenstraat,124,50.7501015888,3.6228874065
9600,Ronse,Langehaag,100,50.7520876366,3.59285508163
9600,Ronse,Fiertelmeers,118,50.7566477608,3.57995986143
9600,Ronse,Scheldekouter,239,50.7406125974,3.61372367252
9600,Ronse,Savooistraat,136C,50.7625585047,3.62514165846
9600,Ronse,Mussenstraat,72,50.7494150514,3.56774956333
9600,Ronse,Zonnebloemstraat,10,50.7385249156,3.61424431603
9600,Ronse,Langehaag,70,50.751691032,3.59336412914
9600,Ronse,Molekensstraat,170,50.7532278113,3.57748427221
9600,Ronse,Germinal,87,50.7470531935,3.62597183633
9600,Ronse,Aatstraat,207,50.7384132577,3.61469110151
9600,Ronse,Ooststraat,114,50.7378442169,3.62761194688
9600,Ronse,Kleine Marijve,4,50.7462633667,3.6086587375
9600,Ronse,Karel Lodewijk Ledeganckstraat,11,50.7550447407,3.60910332373
9600,Ronse,Hermes Van Wynghenestraat,58,50.7426774655,3.61009147239
9600,Ronse,Ninovestraat,85,50.7508083492,3.60876642915
9600,Ronse,Beukenlaan,13,50.7434483218,3.60758873411
9600,Ronse,Floréal,269,50.7432441541,3.57935250959
9600,Ronse,Stefaan Modest Glorieuxlaan,5,50.7516436513,3.60273790124
9600,Ronse,Langeweg,65,50.7375010682,3.61210615465
9600,Ronse,Spinstersstraat,104,50.7504288964,3.5899764562
9600,Ronse,Scheldekouter,423,50.7414777627,3.61403611734
9600,Ronse,Spillegem,28,50.7476765567,3.60468175197
9600,Ronse,Blauwesteen,78,50.7445524716,3.61521736463
9600,Ronse,Kapellestraat,56,50.7510938734,3.58373576787
9600,Ronse,Oscar Delghuststraat,66,50.7490441904,3.61559946251
9600,Ronse,Coupl'Voie,40,50.7444217568,3.59650129969
9600,Ronse,Breucq,42,50.7608386973,3.66299583613
9600,Ronse,Klevestraat,30,50.7557347105,3.5970216303
9600,Ronse,Elzelestraat,86,50.7458970803,3.60850254085
9600,Ronse,Nijverheidsstraat,11,50.743082005,3.61029650463
9600,Ronse,Zonnestraat,160,50.7489480458,3.58718549185
9600,Ronse,Charles Vandendoorenstraat,8,50.7462491463,3.60235113581
9600,Ronse,Germinal,21A,50.7489593281,3.62287855214
9600,Ronse,Germinal,17F,50.748237082,3.62347592232
9600,Ronse,Aatstraat,225,50.7381994412,3.61524534757
9600,Ronse,Rotterij,108,50.746429864,3.62234511187
9600,Ronse,Elzelestraat,130,50.7451710303,3.61008323314
9600,Ronse,Ninovestraat,152B,50.7523283793,3.62156284532
9600,Ronse,Floréal,275,50.743129898,3.57912729461
9600,Ronse,Elzeelsesteenweg,298,50.7396657611,3.62106896999
9600,Ronse,Théodule Canfijnstraat,3,50.750371888,3.60785447271
9600,Ronse,Ommegangstraat,39,50.7659248383,3.61762348397
9600,Ronse,Oscar Delghuststraat,84,50.7486512696,3.61686535544
9600,Ronse,Georges Desmetstraat,18,50.7428481438,3.60818529297
9600,Ronse,Blauwesteen,150,50.7442158798,3.61783539738
9600,Ronse,Kruisstraat,56,50.7517688524,3.59541247162
9600,Ronse,Peperstraat,37,50.7470897469,3.59958281094
9600,Ronse,Elzelestraat,68,50.7463056925,3.60822658425
9600,Ronse,Langehaag,2,50.7503382865,3.59491614295
9600,Ronse,Saint-Sauveurstraat,109,50.7359492821,3.59792424943
9600,Ronse,Stijn Streuvelsstraat,25,50.751471506,3.62591398958
9600,Ronse,Jan van Nassaustraat,10,50.7492995735,3.59252742388
9600,Ronse,Zonnestraat,27,50.7498337545,3.59395045766
9600,Ronse,Wijnstraat,58,50.7494104934,3.59694631373
9600,Ronse,Schoonboeke,12,50.7480541957,3.65697991208
9600,Ronse,Veemarkt,36,50.7483828391,3.60425624569
9600,Ronse,Zonnestraat,98,50.7492925605,3.58930511067
9600,Ronse,Scheldekouter,405,50.7417253954,3.61356842135
9600,Ronse,Lorettestraat,70,50.7509535533,3.62792553
9600,Ronse,Fiertelmeers,22,50.7538911979,3.59158505254
9600,Ronse,Savooistraat,11,50.7527132993,3.62110565899
9600,Ronse,Elzeelsesteenweg,323,50.7382983362,3.62189833208
9600,Ronse,Kasteelstraat,98,50.7467059534,3.59434335251
9600,Ronse,Oscar Delghuststraat,31,50.7500158451,3.61314144082
9600,Ronse,Gefusilleerdenlaan,18,50.7417527034,3.59780671292
9600,Ronse,Zuidstraat,44,50.7449057443,3.60463653392
9600,Ronse,Gomar Vandewielelaan,15,50.7417354858,3.59394424507
9600,Ronse,Elzelestraat,112,50.7455558467,3.60942268983
9600,Ronse,Oudestraat,124,50.7583188255,3.58916804549
9600,Ronse,Watermolenstraat,1,50.7496576519,3.59888891685
9600,Ronse,Fiertelmeers,50,50.7539160882,3.59024268213
9600,Ronse,Parkstraat,7,50.7482103596,3.59348414662
9600,Ronse,Georges Dumontstraat,41,50.7338257049,3.60149891929
9600,Ronse,Doorniksesteenweg,15,50.7384539871,3.56714095001
9600,Ronse,Germinal,34,50.7477608997,3.62410240449
9600,Ronse,Barreelstraat,20,50.7471164621,3.61468369564
9600,Ronse,Savooistraat,125,50.7593415443,3.62637364252
9600,Ronse,Olifantstraat,22,50.7452144803,3.60494155929
9600,Ronse,Mgr. Beylsstraat,59,50.7404261417,3.62182793803
9600,Ronse,Germinal,21C,50.7488328713,3.62206560426
9600,Ronse,Hul,3B,50.7584782439,3.63688082433
9600,Ronse,Louis Vangrootenbruelstraat,79,50.742572334,3.59161574969
9600,Ronse,Ninovestraat,111,50.7509356295,3.60991422927
9600,Ronse,Fiertelmeers,112A,50.7550572208,3.58314595196
9600,Ronse,Lorettestraat,52,50.7506282272,3.62697820345
9600,Ronse,Gebroeders Van Eyckstraat,77,50.7371922725,3.59977002243
9600,Ronse,Rotterij,126,50.745233192,3.62358985521
9600,Ronse,Lorettestraat,34,50.7507120757,3.62586686136
9600,Ronse,Hogerlucht,38,50.7580656819,3.60474282189
9600,Ronse,Clementine De Niestraat,10,50.7502473989,3.61989828278
9600,Ronse,Rode Broeckstraat,140,50.7386195703,3.60635745315
9600,Ronse,Ernest Solvaystraat,105,50.7340590519,3.60278367591
9600,Ronse,Kasteelstraat,27,50.7475318394,3.59677414902
9600,Ronse,Peperstraat,5,50.7475796217,3.60081556352
9600,Ronse,Kruisstraat,117,50.7531973984,3.59424210434
9600,Ronse,Floréal,293,50.742932631,3.57630235109
9600,Ronse,Stooktstraat,48A,50.7369974925,3.60087199367
9600,Ronse,Abeelstraat,24,50.7454858682,3.60031915449
9600,Ronse,Dammekensstraat,1,50.7545802412,3.60552450584
9600,Ronse,Geraardsbergenstraat,106,50.7500242819,3.62178825838
9600,Ronse,Clementine De Niestraat,3,50.7508868123,3.61858225298
9600,Ronse,Germinal,16,50.7480794088,3.62398712912
9600,Ronse,Groeneweg,22,50.7548342774,3.5881107259
9600,Ronse,Bredestraat,197,50.7473305157,3.61356678469
9600,Ronse,Hulstken,16,50.7635531997,3.59110325362
9600,Ronse,Pontstraat,150,50.737348169,3.57984816923
9600,Ronse,Langeweg,47,50.7379312747,3.6119289614
9600,Ronse,Zonnestraat,249,50.7492228546,3.58028686928
9600,Ronse,Schorissesteenweg,5A,50.7709436639,3.6498887354
9600,Ronse,Engelsenlaan,97,50.7438407124,3.58251484888
9600,Ronse,Kruisstraat,378,50.7636560313,3.58650869029
9600,Ronse,Peperstraat,19,50.7475956197,3.60014320937
9600,Ronse,Louis Vangrootenbruelstraat,26,50.7442271754,3.5918606662
9600,Ronse,Franklin Rooseveltplein,26,50.7465186038,3.60017266885
9600,Ronse,Germinal,69,50.7464145915,3.6250747445
9600,Ronse,Langehaag,52,50.7529990225,3.59278070165
9600,Ronse,Hoogdeurnestraat,127,50.7221301504,3.63082217788
9600,Ronse,Hoogstraat,28,50.7455336771,3.59756677995
9600,Ronse,Mussenstraat,54,50.7492993864,3.570019848
9600,Ronse,Georges Desmetstraat,46,50.7424169509,3.60888835341
9600,Ronse,Wodecqstraat,13,50.7371794185,3.61808853953
9600,Ronse,Ninoofsesteenweg,322,50.7532269803,3.63379025833
9600,Ronse,Saint-Sauveurstraat,198,50.7347780333,3.598566713
9600,Ronse,Rozenaaksesteenweg,21,50.7495069615,3.56051632364
9600,Ronse,Clariststeegje,2,50.7433569306,3.60279572447
9600,Ronse,Langehaag,16,50.7506308574,3.59429475422
9600,Ronse,Scheldekouter,267,50.7401277604,3.61446405977
9600,Ronse,Aatstraat,107,50.7397737319,3.60904060363
9600,Ronse,Bosrede,2A,50.7582122823,3.63771083423
9600,Ronse,Molendam,31,50.7413043394,3.60118440581
9600,Ronse,Isidoor Opsomerstraat,31,50.7363863132,3.60783786474
9600,Ronse,Hersenplank,5,50.7326273788,3.59042168943
9600,Ronse,Breucq,24,50.7584139771,3.66234047631
9600,Ronse,Fiertelmeers,3,50.7540753547,3.59209221535
9600,Ronse,Wijnstraat,4,50.7476333619,3.59837528242
9600,Ronse,Politiekegevangenenstraat,14,50.7443512441,3.60198411139
9600,Ronse,Rode Broeckstraat,104,50.7389357879,3.60656938865
9600,Ronse,Coupl'Voie,22,50.7447460518,3.59694033987
9600,Ronse,Barasteegje,6,50.7456493961,3.60453705598
9600,Ronse,Leuzesesteenweg,182,50.7377482639,3.58952028602
9600,Ronse,Jablonecstraat,11,50.7568767206,3.59928804991
9600,Ronse,Sint-Ambrosiusstraat,27,50.75267939,3.60375235007
9600,Ronse,Oude Vesten,20,50.7466578311,3.60127848854
9600,Ronse,Brokelaerestraat,30,50.7231443263,3.63811630385
9600,Ronse,Stooktstraat,146,50.7359494095,3.60636222645
9600,Ronse,Pierre D'Hauwerstraat,13,50.7434461356,3.59651486924
9600,Ronse,Adolphe Hullebroeckstraat,102,50.7366809648,3.61581432643
9600,Ronse,Leuzesesteenweg,218,50.7366061168,3.5898545141
9600,Ronse,Rotterij,262,50.7419688078,3.63211078705
9600,Ronse,Molendam,13,50.7420034596,3.60406284019
9600,Ronse,Berchemsesteenweg,14,50.7495862935,3.56432225847
9600,Ronse,Albert Vandeputtestraat,18,50.7410023022,3.59149767495
9600,Ronse,Hector Denisstraat,11,50.7349235869,3.6044259708
9600,Ronse,Ernest Solvaystraat,123,50.7336476544,3.60256327598
9600,Ronse,Spinstersstraat,204,50.7497312195,3.58588465816
9600,Ronse,Schoonboeke,5,50.7505729273,3.65684014141
9600,Ronse,Mgr. Beylsstraat,70,50.7422983194,3.62087860064
9600,Ronse,Maagdenstraat,51,50.7464537507,3.63146840155
9600,Ronse,Deurnestraat,287,50.7315395813,3.62135020527
9600,Ronse,Hermes Van Wynghenestraat,8,50.7438563391,3.60866098162
9600,Ronse,Engelsenlaan,79,50.7440289921,3.58412713788
9600,Ronse,Deurnestraat,471,50.7240045794,3.62374686825
9600,Ronse,Scheldekouter,17,50.7396209812,3.61318091267
9600,Ronse,Linde,44,50.7503992072,3.62285180542
9600,Ronse,Ruyffelaerekoer,28,50.750465931,3.6105312867
9600,Ronse,Langeweg,12,50.7388890718,3.61184204394
9600,Ronse,Théodule Canfijnstraat,22,50.7501043577,3.60888221709
9600,Ronse,Scheldekouter,285,50.7397928671,3.61549658522
9600,Ronse,Zonnestraat,468,50.7480913186,3.57059338626
9600,Ronse,Georges Dumontstraat,23,50.7343301105,3.60187745155
9600,Ronse,Langehaag,34,50.7511477447,3.59420548684
9600,Ronse,Bakkereel,46,50.7431783116,3.5723095224
9600,Ronse,Jules Bordetlaan,133,50.7396248096,3.59928421067
9600,Ronse,Albert Vandeputtestraat,4,50.7414925126,3.59139863363
9600,Ronse,Scheldekouter,114,50.7415828811,3.61093481645
9600,Ronse,Ernest Solvaystraat,26,50.7347376137,3.60381175698
9600,Ronse,Opgeëistenstraat,20,50.7511637443,3.5923852028
9600,Ronse,Ninoofsesteenweg,541,50.7530013088,3.64446951462
9600,Ronse,Adolphe Hullebroeckstraat,23,50.7387766412,3.61994527216
9600,Ronse,Geraardsbergenstraat,177,50.7493922332,3.62223359629
9600,Ronse,Politiekegevangenenstraat,32,50.7439823744,3.60300093547
9600,Ronse,Ninoofsesteenweg,242D,50.7530118466,3.62800939534
9600,Ronse,Ninoofsesteenweg,304,50.7532282738,3.63187803003
9600,Ronse,Elzelestraat,147,50.7448057433,3.61005326201
9600,Ronse,Kapellestraat,200,50.7538737928,3.57895456127
9600,Ronse,Jan van Nassaustraat,50,50.7477593614,3.59351763576
9600,Ronse,Konrad Adenauerstraat,17,50.7446835497,3.62058883949
9600,Ronse,Grote Marijve,30,50.7468184306,3.60882620566
9600,Ronse,Rotterij,148,50.7439006074,3.62554782449
9600,Ronse,Malaise,108,50.7305660493,3.57016258314
9600,Ronse,Jules Bordetlaan,115,50.7396544611,3.60067869176
9600,Ronse,Bereidersstraat,28,50.7507733204,3.59366463027
9600,Ronse,IJsmolenstraat,5,50.7541868048,3.6388431088
9600,Ronse,Nieuwebrugstraat,32,50.7444237923,3.60762116302
9600,Ronse,Savooistraat,183,50.763861791,3.62624475473
9600,Ronse,Walenweg,159,50.7368345201,3.59352027868
9600,Ronse,Libbrechtstraat,37,50.7524933138,3.59654807049
9600,Ronse,Rode Broeckstraat,78,50.740545959,3.60597862372
9600,Ronse,Geraardsbergenstraat,195,50.7494913353,3.62284519545
9600,Ronse,Kruisstraat,188,50.7547271884,3.59112285624
9600,Ronse,Scherpenberg,20,50.7579946839,3.5664302092
9600,Ronse,Oudestraat,27,50.7545898381,3.59363561047
9600,Ronse,Maagdenstraat,73A,50.7472804478,3.63474009552
9600,Ronse,Walenweg,106,50.7374421237,3.5949539261
9600,Ronse,Leuzesesteenweg,236,50.7360801322,3.58990045991
9600,Ronse,Jagersstraat,5,50.7365455293,3.62895468873
9600,Ronse,Broeke,178,50.7585158944,3.59890326975
9600,Ronse,Jules Bordetlaan,18,50.7392836709,3.60446651972
9600,Ronse,Sint-Cornelisstraat,20,50.7479019663,3.59711511996
9600,Ronse,Aatstraat,28,50.7421129901,3.60746222722
9600,Ronse,Grote Marijve,65,50.7462985303,3.60985296934
9600,Ronse,Grote Marijve,83,50.7461407304,3.61048818912
9600,Ronse,Voorzienigheidsstraat,33,50.7526134955,3.59236968941
9600,Ronse,Nieuwebrugstraat,14,50.74440314,3.60658813314
9600,Ronse,Winston Churchillplein,1,50.7427243177,3.60117985265
9600,Ronse,Ninoofsesteenweg,250,50.7528725156,3.62850986339
9600,Ronse,Wijnstraat,18,50.7481589926,3.59801569323
9600,Ronse,David Teniersstraat,10,50.7410293208,3.60123818786
9600,Ronse,Grote Marijve,12,50.7468096631,3.60819564165
9600,Ronse,Broeke,125,50.7548477539,3.59934795332
9600,Ronse,Rode Broeckstraat,96,50.7400609389,3.60581347841
9600,Ronse,Oudestraat,195,50.7590033511,3.58929123249
9600,Ronse,Kapellestraat,188,50.7534849269,3.57962928765
9600,Ronse,Geraardsbergenstraat,98,50.7499567878,3.62119981864
9600,Ronse,Elzeelsesteenweg,102,50.7433633529,3.61517813273
9600,Ronse,Savooistraat,99,50.7579837765,3.62461911086
9600,Ronse,Dammekensstraat,152,50.7568029036,3.61131729748
9600,Ronse,Zonnestraat,486,50.7481403325,3.56860614321
9600,Ronse,Camille Lemonnierlaan,104,50.7336009408,3.59239977478
9600,Ronse,Gustave Royerslaan,156,50.7407757539,3.5890235343
9600,Ronse,Geraardsbergenstraat,27,50.7467524756,3.61537250783
9600,Ronse,de Mérodestraat,23,50.7462991328,3.59216886997
9600,Ronse,Jacob van Arteveldestraat,13,50.7550825356,3.59594045882
9600,Ronse,Stooktstraat,67,50.7363530481,3.6021446103
9600,Ronse,Neerhofstraat,53,50.7475539371,3.59400719373
9600,Ronse,Oswald Ponettestraat,62,50.745199704,3.59428519946
9600,Ronse,Adolphe Hullebroeckstraat,58,50.737702302,3.61828677457
9600,Ronse,Elzeelsesteenweg,120,50.7427641155,3.61525586069
9600,Ronse,Savooistraat,165,50.7616957968,3.625635781
9600,Ronse,Kleine Markt,6,50.7489227743,3.59838042949
9600,Ronse,Kruisstraat,253,50.7559345919,3.59029962732
9600,Ronse,Cyriel Buyssestraat,40,50.7552214192,3.58909965231
9600,Ronse,Libbrechtstraat,5,50.7522563768,3.59554633243
9600,Ronse,Bredestraat,71,50.7470863382,3.60935283956
9600,Ronse,Wodecqstraat,31,50.7367684269,3.62044098297
9600,Ronse,Populierstraat,41,50.7585653363,3.63653193915
9600,Ronse,Waatsbrugstraat,32,50.7456747309,3.61387867991
9600,Ronse,Camille Lemonnierlaan,122,50.7333979907,3.59160769642
9600,Ronse,Hogerlucht,35A,50.7574837693,3.60596051737
9600,Ronse,Elzeelsesteenweg,155,50.7415355315,3.61570621037
9600,Ronse,Auguste Delfossestraat,2,50.7549347785,3.61593987992
9600,Ronse,Achturenstraat,17,50.7387237898,3.6122947992
9600,Ronse,Adolphe Hullebroeckstraat,120,50.7362457019,3.61489887648
9600,Ronse,Robert Schumanstraat,10,50.7459067698,3.62219710087
9600,Ronse,Engelsenlaan,158,50.7429232735,3.58325431646
9600,Ronse,Stationsstraat,26,50.7434968609,3.60133262908
9600,Ronse,Saint-Sauveurstraat,210,50.7344434737,3.59858917606
9600,Ronse,Ernest Solvaystraat,97,50.7342223586,3.60285907938
9600,Ronse,Aatstraat,125,50.7395557937,3.60977318887
9600,Ronse,Rode Broeckstraat,193,50.7381477174,3.60503972394
9600,Ronse,Broeke,28,50.7545084043,3.59439956162
9600,Ronse,Pierre D'Hauwerstraat,31,50.7434310973,3.59531216933
9600,Ronse,Floréal,25,50.7425727642,3.57936629988
9600,Ronse,Riekestraat,7,50.7553065688,3.56917400069
9600,Ronse,Sint-Cornelisstraat,55,50.7479991484,3.59598287722
9600,Ronse,Scheldekouter,453,50.741681899,3.61451967695
9600,Ronse,Spillegem,21,50.7474387587,3.60454291199
9600,Ronse,Rode Broeckstraat,195,50.7378975375,3.60483579954
9600,Ronse,Hermes Van Wynghenestraat,38,50.7432115845,3.60946865783
9600,Ronse,Maquisstraat,161,50.7289379781,3.63762485783
9600,Ronse,Molendam,56,50.7408156223,3.5989505292
9600,Ronse,Pierre D'Hauwerstraat,8,50.742968959,3.59715985659
9600,Ronse,Léopold Sturbautstraat,40,50.7426884359,3.59566964341
9600,Ronse,Gomar Vandewielelaan,10,50.7423634744,3.59442302845
9600,Ronse,Zonnestraat,240,50.7491570473,3.58286902633
9600,Ronse,Grote Marijve,57,50.7464237125,3.60955367105
9600,Ronse,Fiertelmeers,121,50.7567665731,3.58163836822
9600,Ronse,Jablonecstraat,6,50.7579662385,3.59868518955
9600,Ronse,Sint-Martensstraat,43,50.7486082611,3.5990452066
9600,Ronse,Winkelveldeke,1A,50.7643490443,3.62766282164
9600,Ronse,Politiekegevangenenstraat,9,50.7439462807,3.60129116712
9600,Ronse,Oswald Ponettestraat,87,50.7455282732,3.59322175763
9600,Ronse,Bredestraat,254,50.7481468936,3.6159235597
9600,Ronse,Oswald Ponettestraat,69,50.7457245304,3.59414565123
9600,Ronse,Moortelstraat,78,50.7388413177,3.5812171427
9600,Ronse,Elzelestraat,35,50.746710949,3.60565202891
9600,Ronse,Noordstraat,2B,50.7565485648,3.5781543275
9600,Ronse,Klevestraat,29,50.7563332111,3.59612475308
9600,Ronse,Sint-Martensstraat,19,50.7478762413,3.59965571069
9600,Ronse,Olifantstraat,19,50.7458012475,3.60671828284
9600,Ronse,Breucq,30,50.7583624927,3.66446597339
9600,Ronse,Langeweg,24,50.7385874167,3.61204565545
9600,Ronse,David Teniersstraat,35,50.7404629457,3.60048558875
9600,Ronse,Peperstraat,22,50.7469167895,3.60021506466
9600,Ronse,Molendam,8,50.7423455167,3.60405956015
9600,Ronse,Sint-Martensstraat,61,50.7485943513,3.59896692898
9600,Ronse,Kapellestraat,155,50.7531250129,3.58136102756
9600,Ronse,Gefusilleerdenlaan,23,50.7420263648,3.59706929954
9600,Ronse,Ovide Decrolylaan,99,50.7412434995,3.60908904142
9600,Ronse,Stationsstraat,4,50.7440509384,3.60094997078
9600,Ronse,Sint-Ambrosiusstraat,5,50.7525565504,3.60266042921
9600,Ronse,Geraardsbergenstraat,51,50.7470639521,3.61612236857
9600,Ronse,Langehaag,11,50.7502734257,3.59527743531
9600,Ronse,Hogerlucht,86,50.7595439117,3.60358127257
9600,Ronse,Dammekensstraat,10,50.7552744094,3.60598535385
9600,Ronse,Cyriel Buyssestraat,42,50.7552009688,3.58898519303
9600,Ronse,Sint-Martensstraat,37,50.7481751885,3.59963170415
9600,Ronse,Olifantstraat,37,50.7463168673,3.60677824813
9600,Ronse,Broeke,176,50.7584601895,3.598894825
9600,Ronse,Ninovestraat,269,50.7520180281,3.62301453326
9600,Ronse,Pontstraat,185,50.7337714607,3.57864579885
9600,Ronse,Kastanjestraat,10,50.770235003,3.64340054911
9600,Ronse,Voorzienigheidsstraat,45,50.752498718,3.5920619277
9600,Ronse,Kruisstraat,155,50.7540150021,3.59303778465
9600,Ronse,Hoogstraat,13,50.7461291288,3.5986642678
9600,Ronse,Jules Bordetlaan,44,50.7392371825,3.60303378518
9600,Ronse,Kapellestraat,191,50.753777533,3.57983895553
9600,Ronse,Scheldekouter,309,50.7399341676,3.61582812363
9600,Ronse,Oudestraat,157,50.7581425535,3.59057838091
9600,Ronse,Deurnestraat,190,50.7319189527,3.62174210164
9600,Ronse,Rozenaaksesteenweg,15,50.7492207889,3.56123146966
9600,Ronse,Clementine De Niestraat,15,50.7508222615,3.6208316754
9600,Ronse,Priestersstraat,18,50.7484833067,3.60125259968
9600,Ronse,Veemarkt,7,50.7485159694,3.60495680162
9600,Ronse,Geraardsbergenstraat,193,50.7494229251,3.62277542409
9600,Ronse,Rode Mutslaan,158,50.7461100823,3.57398361683
9600,Ronse,Breucq,12,50.75565957,3.66305480135
9600,Ronse,Kapellestraat,16,50.7496796488,3.5854996415
9600,Ronse,Pieter Paul Rubensstraat,39,50.738160103,3.60152913046
9600,Ronse,Oude Vesten,25,50.7464093808,3.60257539076
9600,Ronse,Adolphe Hullebroeckstraat,86,50.737312104,3.61658769051
9600,Ronse,Ninovestraat,162,50.7523330108,3.62248690223
9600,Ronse,Boontjesstraat,132,50.7429723592,3.63451230178
9600,Ronse,Jean-Baptiste Dekeyserstraat,4,50.7447617906,3.60212947254
9600,Ronse,Kanarieberg,12,50.7612879964,3.65225141965
9600,Ronse,Grote Markt,15,50.7469331327,3.60128165917
9600,Ronse,Linde,18,50.7517613815,3.622608755
9600,Ronse,Klevestraat,5,50.7557109782,3.59810084234
9600,Ronse,Germinal,60,50.7468989276,3.62335452345
9600,Ronse,Engelsenlaan,266,50.7418529052,3.57976529354
9600,Ronse,Scheldekouter,41,50.7401103131,3.6115512676
9600,Ronse,Populierstraat,11,50.7573288943,3.62882907924
9600,Ronse,Maagdenstraat,27,50.748781728,3.62636731229
9600,Ronse,Kegelkaai,16,50.7497978346,3.59758063876
9600,Ronse,Dammekensstraat,130,50.7564479528,3.61077238491
9600,Ronse,Paul-Henri Spaakstraat,17,50.7457895136,3.62061521703
9600,Ronse,Zonnestraat,104,50.7494715656,3.58892832536
9600,Ronse,Groeneweg,67,50.7563249842,3.58848075393
9600,Ronse,Kapellestraat,34,50.7500802067,3.58504900946
9600,Ronse,Blauwesteen,91,50.743892776,3.61671509315
9600,Ronse,Wijnstraat,48,50.7490260803,3.59720696991
9600,Ronse,Langehaag,99,50.7522659771,3.5934758404
9600,Ronse,Aatstraat,183,50.7388991014,3.6137719326
9600,Ronse,Zonnestraat,365,50.7481769738,3.57312731372
9600,Ronse,Biest,23,50.733600767,3.587911695
9600,Ronse,Broeke,52,50.7545604048,3.59565749356
9600,Ronse,Kleine Heide,71,50.7314781637,3.63742314908
9600,Ronse,Opgeëistenstraat,49,50.751822529,3.5926400698
9600,Ronse,Georges Desmetstraat,23,50.7424502236,3.60782346766
9600,Ronse,Bereidersstraat,2,50.7509403378,3.59434111197
9600,Ronse,Beekstraat,11,50.7504228962,3.60491726416
9600,Ronse,Watermolenstraat,10,50.749412016,3.59839312473
9600,Ronse,Ninoofsesteenweg,484,50.7544002265,3.66502685697
9600,Ronse,Saint-Sauveurstraat,41,50.738369665,3.59824255676
9600,Ronse,Broeke,194,50.7610624274,3.59774998936
9600,Ronse,Zonnestraat,157,50.7494535014,3.58702746897
9600,Ronse,Saint-Sauveurstraat,130,50.7367501003,3.59884844639
9600,Ronse,Klevestraat,40,50.7560281881,3.5957317811
9600,Ronse,Hoogstraat,31,50.7461620454,3.59770953623
9600,Ronse,Georges Desmetstraat,76,50.7419038191,3.6096139728
9600,Ronse,Kruisstraat,34,50.75125828,3.59573672574
9600,Ronse,Blauwesteen,234,50.744177391,3.62110823518
9600,Ronse,Zonnestraat,319,50.7486624703,3.57661925725
9600,Ronse,Kleine Markt,1,50.749104002,3.59891141946
9600,Ronse,Aatstraat,41,50.742207395,3.60605390399
9600,Ronse,Karel Lodewijk Ledeganckstraat,44,50.7544986683,3.61008717591
9600,Ronse,Nieuwebrugstraat,9,50.7440555607,3.60593644465
9600,Ronse,Schavaart,15,50.7619937559,3.58296385727
9600,Ronse,Bierinkstraat,3A,50.7547076851,3.57790883911
9600,Ronse,Zuidstraat,16,50.7456466264,3.60414020961
9600,Ronse,Hermes Van Wynghenestraat,1,50.7435919811,3.608404675
9600,Ronse,Adolphe Hullebroeckstraat,104,50.7364729172,3.6156584126
9600,Ronse,Aimé Delhayeplein,17,50.7493606999,3.59618445857
9600,Ronse,Zonnestraat,122,50.7492461369,3.58843579468
9600,Ronse,Leuzesesteenweg,35,50.7430684183,3.586659375
9600,Ronse,Dammekensstraat,112,50.7561391273,3.61049261952
9600,Ronse,Leuzesesteenweg,389,50.7305293256,3.58827530934
9600,Ronse,Walenweg,129,50.7374172427,3.59372009031
9600,Ronse,Saint-Sauveurstraat,112,50.7372652735,3.59886695343
9600,Ronse,Ernest Solvaystraat,4,50.7352062669,3.60394808719
9600,Ronse,Scheldekouter,327,50.7403092945,3.61702627248
9600,Ronse,Grote Markt,33,50.7477084743,3.60349773563
9600,Ronse,Ives-Sabin Maghermanlaan,4,50.7478022252,3.59272722028
9600,Ronse,Fiertelmeers,67,50.7542106598,3.58962841153
9600,Ronse,Blauwesteen,27,50.7446461217,3.61268792187
9600,Ronse,Léopold Sturbautstraat,25,50.742148129,3.59588862182
9600,Ronse,Holleweg,15,50.7775434808,3.66087925219
9600,Ronse,Charles Vandendoorenstraat,27,50.7455583564,3.60218921141
9600,Ronse,Spinstersstraat,1,50.7502575058,3.59494963709
9600,Ronse,Ooststraat,152,50.7361516515,3.62930795191
9600,Ronse,Papekouters,20,50.7420595928,3.61849725832
9600,Ronse,Ninovestraat,14,50.7502288788,3.60464024672
9600,Ronse,Lorettestraat,9,50.7497072467,3.62569748128
9600,Ronse,Beukenlaan,28,50.743045751,3.60761818594
9600,Ronse,Joseph Wautersplein,24,50.735156502,3.60472564192
9600,Ronse,Winkelveldeke,1,50.7649143701,3.62802220922
9600,Ronse,Groeneweg,39,50.7556406732,3.58901108373
9600,Ronse,Ninoofsesteenweg,503,50.7531002037,3.63967254263
9600,Ronse,Broeke,70,50.7546495657,3.5963219902
9600,Ronse,Engelsenlaan,24,50.7449080576,3.59010830785
9600,Ronse,Sint-Cornelisstraat,25,50.7482907252,3.59690002692
9600,Ronse,Saint-Sauveurstraat,165,50.7331980835,3.59733727365
9600,Ronse,Germinal,42,50.7477272244,3.62600585422
9600,Ronse,Zonnestraat,383,50.7487367427,3.56969863768
9600,Ronse,Georges De Myttenaerestraat,7,50.7426949366,3.58242598762
9600,Ronse,Broeke,213,50.7594370772,3.59903350616
9600,Ronse,Geraardsbergenstraat,129,50.7484455359,3.61917402556
9600,Ronse,Aatstraat,31,50.742290841,3.60580800401
9600,Ronse,Karel Lodewijk Ledeganckstraat,34,50.7547004503,3.60996870751
9600,Ronse,Leuzesesteenweg,211,50.7362098012,3.58908075129
9600,Ronse,Rode Mutslaan,19,50.7436936088,3.57668062882
9600,Ronse,Saint-Sauveurstraat,94,50.7376535938,3.5989127494
9600,Ronse,Kruisstraat,381,50.764505019,3.58752571345
9600,Ronse,Hendrik Consciencestraat,55,50.7435740396,3.61616404404
9600,Ronse,Neerhofstraat,25,50.7489744833,3.59373529752
9600,Ronse,Ninoofsesteenweg,206,50.7526365738,3.62562098513
9600,Ronse,Hector Denisstraat,41,50.7342775761,3.60409985102
9600,Ronse,Scheldekouter,35,50.7400620671,3.61188994749
9600,Ronse,Elzeelsesteenweg,255,50.7402212424,3.61884344302
9600,Ronse,Dammekensstraat,98,50.7562452099,3.60950675363
9600,Ronse,Opgeëistenstraat,116,50.7534940056,3.59077174943
9600,Ronse,Ninovestraat,91,50.7507885741,3.6089332591
9600,Ronse,Bereidersstraat,13,50.7510578892,3.59379117785
9600,Ronse,Leuzesesteenweg,17,50.7436513045,3.58642427715
9600,Ronse,Moortelstraat,25,50.7406686706,3.58581494072
9600,Ronse,Molekensstraat,12,50.7492436133,3.5784845684
9600,Ronse,Kammeland,29,50.7563723271,3.6031238057
9600,Ronse,Georges De Myttenaerestraat,24,50.7424177693,3.58331062754
9600,Ronse,Viermaartlaan,19,50.7410938204,3.59619861819
9600,Ronse,Rotterij,203,50.7437875559,3.62916256563
9600,Ronse,Kapellestraat,109,50.752402627,3.58280386819
9600,Ronse,Aatstraat,13,50.7424466666,3.60505312682
9600,Ronse,Karel Lodewijk Ledeganckstraat,16,50.7550995513,3.60973679986
9600,Ronse,Biest,175,50.7337104353,3.57992871053
9600,Ronse,Elzelestraat,47,50.746595196,3.60614148889
9600,Ronse,Saint-Sauveurstraat,76,50.7381228404,3.5990017107
9600,Ronse,Ninovestraat,73,50.7504718552,3.60761861153
9600,Ronse,Théodule Canfijnstraat,39,50.7496616442,3.60844722246
9600,Ronse,Jean-Baptiste Mouroitplein,13,50.7491979953,3.60330832885
9600,Ronse,Langehaag,113,50.7532510029,3.59258835073
9600,Ronse,Oscar Delghuststraat,23,50.7504373914,3.61272273235
9600,Ronse,Grote Marijve,5,50.7467036693,3.60737932083
9600,Ronse,Spinstersstraat,21,50.7505769475,3.593946038
9600,Ronse,Wijnstraat,23,50.7481805462,3.59864096411
9600,Ronse,Lorettestraat,186,50.7519911059,3.63134467843
9600,Ronse,Bredestraat,215A,50.7475931914,3.61444297164
9600,Ronse,Louis Vangrootenbruelstraat,4,50.7448212337,3.59162771007
9600,Ronse,Viermaartlaan,37,50.7407194043,3.59554890802
9600,Ronse,Deurnestraat,244,50.7300707128,3.62432119761
9600,Ronse,Grote Markt,4,50.7481231552,3.6019247535
9600,Ronse,Biest,58,50.7329235048,3.58621110825
9600,Ronse,Franklin Rooseveltplein,4,50.7472002125,3.59866236097
9600,Ronse,Molendam,28,50.7413281901,3.60138053238
9600,Ronse,Muziekbosstraat,7,50.7601120645,3.63089532334
9600,Ronse,IJsmolenstraat,34B,50.7573529673,3.64694176187
9600,Ronse,Gomar Vandewielelaan,6,50.7427700713,3.59447260162
9600,Ronse,Ovide Decrolylaan,7,50.7434921649,3.61210750227
9600,Ronse,Ninoofsesteenweg,224,50.7529935443,3.62628270819
9600,Ronse,Jean-Baptiste Dekeyserstraat,15,50.7450640007,3.6013680517
9600,Ronse,Robert Schumanstraat,15,50.7447293791,3.62271393507
9600,Ronse,de Mérodestraat,18,50.7473405862,3.5910749257
9600,Ronse,Constantin Meunierstraat,7,50.7366002962,3.59799705181
9600,Ronse,Zonnestraat,51,50.7498579252,3.5927533266
9600,Ronse,Kasteelstraat,51,50.7473349441,3.59493341095
9600,Ronse,Langehaag,7,50.7501971188,3.59533494612
9600,Ronse,Drieborrebeekstraat,16,50.7576849336,3.62539655159
9600,Ronse,Kruisstraat,363,50.7624815617,3.58828995904
9600,Ronse,Joseph Ferrantstraat,19,50.7439234065,3.60473675891
9600,Ronse,Blauwesteen,180,50.7443356344,3.61932409068
9600,Ronse,Coupl'Voie,37,50.744828315,3.59644972408
9600,Ronse,Zonnebloemstraat,33,50.7381240646,3.61311847491
9600,Ronse,Hoogstraat,2,50.7458064153,3.59954536677
9600,Ronse,Rozenaaksesteenweg,4,50.7483398904,3.56428415067
9600,Ronse,Blauwesteen,55,50.7440053073,3.61413905416
9600,Ronse,Rijkswachtdreef,10,50.7703170857,3.64110956195
9600,Ronse,Maquisstraat,39,50.7310810349,3.63239726478
9600,Ronse,Wolvestraat,110,50.7537318791,3.60484154209
9600,Ronse,Ninovestraat,32,50.7503387794,3.60606733117
9600,Ronse,Leuzesesteenweg,199,50.7365213223,3.58889298952
9600,Ronse,Abeelstraat,12,50.7458587618,3.60027481913
9600,Ronse,Langeweg,59,50.7376120195,3.61208014861
9600,Ronse,Georges Dumontstraat,18,50.7343740685,3.60248106866
9600,Ronse,Floréal,51,50.7422052011,3.57782778766
9600,Ronse,Wijnstraat,64,50.749572087,3.5967748939
9600,Ronse,Jan van Nassaustraat,67,50.747086249,3.5928774462
9600,Ronse,Nachtegaalstraat,36,50.7512836954,3.62499213082
9600,Ronse,Georges Desmetstraat,58,50.7422044609,3.6091438366
9600,Ronse,Hermes Van Wynghenestraat,48,50.7430671041,3.60964781141
9600,Ronse,Ninoofsesteenweg,360,50.7539295145,3.64169269815
9600,Ronse,Waatsbrugstraat,50,50.7460600112,3.61496131395
9600,Ronse,Kruisstraat,84,50.7522337671,3.59428755416
9600,Ronse,Napoléon Annicqstraat,17,50.7501391739,3.60939889634
9600,Ronse,Bakkereel,52,50.7429654368,3.57274810281
9600,Ronse,Ninovestraat,180,50.7524078931,3.6235451876
9600,Ronse,Hoogdeurnestraat,94,50.7259474623,3.62815408434
9600,Ronse,Savooistraat,137,50.7608480101,3.62560520643
9600,Ronse,Dammekensstraat,6,50.7553114345,3.60573460959
9600,Ronse,Victor Lagachestraat,25,50.7504079331,3.59111077286
9600,Ronse,Jacob van Arteveldestraat,6,50.7547764091,3.59495837023
9600,Ronse,Stooktstraat,126,50.736272903,3.60505520916
9600,Ronse,Braambos,21,50.7574617005,3.63331605024
9600,Ronse,Ives-Sabin Maghermanlaan,68,50.7471825675,3.58930754272
9600,Ronse,Spinstersstraat,160,50.7499639833,3.58770374546
9600,Ronse,Elzeelsesteenweg,119,50.7423208282,3.61485389633
9600,Ronse,Ernest Solvaystraat,52,50.7341747964,3.60351857913
9600,Ronse,Ninovestraat,55,50.7501994257,3.60674341617
9600,Ronse,Scheldekouter,219,50.742001372,3.61265905868
9600,Ronse,Pierre D'Hauwerstraat,28,50.7429842648,3.59590878077
9600,Ronse,Oudestraat,51,50.7551342361,3.59335638957
9600,Ronse,Hogerlucht,59B,50.7584818549,3.60517290352
9600,Ronse,Zonnestraat,293,50.7488153348,3.5784071485
9600,Ronse,Savooistraat,41,50.7563113904,3.61943714676
9600,Ronse,Maagdenstraat,81E,50.7475661361,3.64640801358
9600,Ronse,Moortelstraat,101,50.7394340488,3.58088336773
9600,Ronse,Wilgenstraat,71,50.7637612768,3.66568486913
9600,Ronse,Malaise,47,50.7335961514,3.57566706392
9600,Ronse,Mussenstraat,59,50.7495534277,3.56553315427
9600,Ronse,Kleine Heide,53,50.7312429479,3.63523330944
9600,Ronse,Saint-Sauveurstraat,219,50.732800693,3.5959161461
9600,Ronse,Stijn Streuvelsstraat,17,50.7517134032,3.62590946968
9600,Ronse,Abeelstraat,30,50.745204703,3.60055965888
9600,Ronse,Bredestraat,101,50.7470681306,3.61030295087
9600,Ronse,Blauwesteen,162,50.7441979348,3.61830383235
9600,Ronse,Fortuinberg,2,50.7592229483,3.64824672554
9600,Ronse,Zonnestraat,212,50.7491334069,3.58423760316
9600,Ronse,Mussenstraat,24,50.7501493774,3.57278779087
9600,Ronse,Germinal,95,50.7470909715,3.62533713279
9600,Ronse,Spinstersstraat,142,50.7501136434,3.58832011381
9600,Ronse,Hermes Van Wynghenestraat,66,50.7425031405,3.61022958786
9600,Ronse,Kaatsspelplein,12,50.7492664169,3.59894660332
9600,Ronse,Beukenlaan,8,50.7434901057,3.60829140737
9600,Ronse,Edmond Puissantstraat,30,50.7463658494,3.58854467672
9600,Ronse,Bredestraat,25,50.7469391921,3.60783264216
9600,Ronse,Wijnstraat,46,50.7490630508,3.5974012116
9600,Ronse,Rodekruisstraat,19,50.7458486792,3.61671393762
9600,Ronse,Scheldekouter,237,50.7407474458,3.61352769336
9600,Ronse,Oswald Ponettestraat,16,50.7455538384,3.59632873442
9600,Ronse,Linde,36,50.7505433604,3.62318296997
9600,Ronse,Constantin Meunierstraat,42,50.7363168638,3.59630973882
9600,Ronse,Rode Broeckstraat,267,50.7362105353,3.6052106371
9600,Ronse,Achturenstraat,10,50.7386550765,3.61294491497
9600,Ronse,Aatstraat,209,50.7383895914,3.61475750012
9600,Ronse,Savooistraat,119,50.7587526984,3.62638943583
9600,Ronse,Bereidersstraat,31,50.7509102884,3.59327777122
9600,Ronse,Hul,4,50.7560881265,3.63735700032
9600,Ronse,Oudestraat,129,50.756963999,3.59186122295
9600,Ronse,Elzeelsesteenweg,80,50.7433954974,3.61359452442
9600,Ronse,Elzelestraat,45,50.746601498,3.60607379649
9600,Ronse,Clementine De Niestraat,33,50.7511252519,3.61909089136
9600,Ronse,Kruisstraat,345,50.7619502082,3.58794779519
9600,Ronse,Koningin Astridplein,12,50.7434521226,3.59487485294
9600,Ronse,Opgeëistenstraat,39,50.7516373523,3.59275195501
9600,Ronse,Langveld,7,50.756956771,3.54706655028
9600,Ronse,Spinstersstraat,56,50.7505276474,3.59208107883
9600,Ronse,Albert Vandeputtestraat,23,50.7403429256,3.59085652919
9600,Ronse,IJsmolenstraat,47,50.7565361357,3.64695852031
9600,Ronse,Ommegangstraat,3,50.7647824457,3.5886035498
9600,Ronse,Ernest Solvaystraat,70,50.7338108999,3.60331666719
9600,Ronse,Fabriekstraat,13,50.7476600099,3.59753384294
9600,Ronse,Breucq,40,50.7597695071,3.66419180914
9600,Ronse,Elzeelsesteenweg,223,50.7406735356,3.61781841389
9600,Ronse,Louis Vangrootenbruelstraat,34,50.7440410112,3.59189136337
9600,Ronse,Hermes Van Wynghenestraat,21,50.74306356,3.60865774986
9600,Ronse,Politiekegevangenenstraat,50,50.7434874925,3.60350077744
9600,Ronse,Decrolykoer,3,50.7502955368,3.60160656638
9600,Ronse,Franklin Rooseveltplein,34,50.7468843922,3.59962116088
9600,Ronse,Pontstraat,160,50.7359397206,3.5798034465
9600,Ronse,Kasteelstraat,15,50.7474552635,3.59750063291
9600,Ronse,Zonnestraat,15,50.7498659923,3.5946927673
9600,Ronse,Ninoofsesteenweg,287,50.7520834357,3.62529950738
9600,Ronse,Aatstraat,84,50.7404524889,3.60964980442
9600,Ronse,Sint-Cornelisstraat,5,50.7485429757,3.59762114418
9600,Ronse,Olifantstraat,12,50.7449134352,3.60493354172
9600,Ronse,Wolvestraat,46,50.7521159689,3.60466082055
9600,Ronse,Neerhofstraat,43,50.7480574064,3.59414558402
9600,Ronse,Spinstersstraat,74,50.7505661515,3.59117703483
9600,Ronse,Zonnestraat,275,50.7489220717,3.57913033035
9600,Ronse,Scheldekouter,273,50.7398253486,3.61441123366
9600,Ronse,Gyselingssteegje,10,50.7431256649,3.60204810578
9600,Ronse,Ninoofsesteenweg,603,50.7544280204,3.65564730464
9600,Ronse,Hector Denisstraat,23,50.7346795062,3.6043027128
9600,Ronse,Kaatsspelplein,9,50.7498924739,3.59913477394
9600,Ronse,Hector Denisstraat,48,50.7345899321,3.60494547318
9600,Ronse,Hul,2B,50.754984403,3.63840884848
9600,Ronse,Constantin Meunierstraat,59,50.7370009113,3.59606123659
9600,Ronse,Prolstraat,2,50.7603505588,3.63573427742
9600,Ronse,Kammeland,47,50.756466751,3.6038022871
9600,Ronse,Grote Marijve,40,50.7467985457,3.60918403436
9600,Ronse,Stijn Streuvelsstraat,1,50.7522404284,3.62606867369
9600,Ronse,Georges De Myttenaerestraat,42,50.7418573672,3.58337181897
9600,Ronse,Poermagazijnstraat,11,50.7445346759,3.60826308381
9600,Ronse,Ovide Decrolylaan,82,50.7413967293,3.61019042822
9600,Ronse,Scheldekouter,723,50.7394519248,3.61623266152
9600,Ronse,Geraardsbergenstraat,68,50.7493574515,3.62002365781
9600,Ronse,Wolvestraat,64,50.7524484631,3.60517652406
9600,Ronse,Gasmeterstraat,10,50.7502782019,3.5922895346
9600,Ronse,Langehaag,28,50.7508277615,3.59436549337
9600,Ronse,Saint-Sauveurstraat,23,50.7388452202,3.59818349999
9600,Ronse,Savooistraat,23,50.7531791431,3.62090411689
9600,Ronse,Camille Lemonnierlaan,114,50.7335273138,3.5919935724
9600,Ronse,Wolvestraat,8,50.7514000199,3.60331608328
9600,Ronse,Deurnestraat,101,50.7339832452,3.61670665122
9600,Ronse,Viermaartlaan,8,50.7394144496,3.59206774746
9600,Ronse,Deurnemeers,18,50.7336225617,3.61199059392
9600,Ronse,Priestersstraat,11,50.7489044976,3.60144455699
9600,Ronse,Veemarkt,24,50.7494678319,3.60507756246
9600,Ronse,Engelsenlaan,238,50.742409243,3.58099702121
9600,Ronse,Bredestraat,43,50.7470581836,3.60839426451
9600,Ronse,Viermaartlaan,55,50.740528689,3.59480905964
9600,Ronse,Biest,94,50.7334102229,3.58321457583
9600,Ronse,Alexandre-Louis Vanhovestraat,36,50.7464201476,3.59307885047
9600,Ronse,Scheldekouter,23,50.7395020182,3.61274560156
9600,Ronse,Rode Mutslaan,151,50.7463233391,3.57444862035
9600,Ronse,Kapellestraat,198,50.753659207,3.57936971381
9600,Ronse,Jan van Nassaustraat,49,50.7476808794,3.59289345086
9600,Ronse,Wijngaardstraat,2,50.7615660635,3.62711068551
9600,Ronse,Kleine Marijve,41,50.7452406099,3.61081850218
9600,Ronse,Leuzesesteenweg,53,50.7424646886,3.58689665456
9600,Ronse,Oscar Delghuststraat,76,50.7486372376,3.61680818867
9600,Ronse,Constantin Meunierstraat,77,50.737035698,3.59513442457
9600,Ronse,Victor Lagachestraat,5,50.7499379675,3.59114445742
9600,Ronse,Breucq,29,50.7580757158,3.66515567618
9600,Ronse,Olifantstraat,30,50.7454991797,3.60525547961
9600,Ronse,Linde,7,50.7517404257,3.62160589141
9600,Ronse,Stijn Streuvelsstraat,35,50.7511537263,3.62598857724
9600,Ronse,Oswald Ponettestraat,70,50.7451670718,3.59385059
9600,Ronse,Spillegem,4,50.7475472759,3.60342836733
9600,Ronse,Sint-Martensstraat,20,50.7480195716,3.59901641539
9600,Ronse,Opgeëistenstraat,14,50.7510782138,3.59250224897
9600,Ronse,Zonnestraat,257,50.7491546873,3.58007006346
9600,Ronse,Opgeëistenstraat,50,50.7519638464,3.59193341726
9600,Ronse,Europastraat,10,50.7447146716,3.61642270748
9600,Ronse,Aatstraat,120,50.739994706,3.61056576193
9600,Ronse,Maagdenstraat,10,50.7492348882,3.6278669436
9600,Ronse,Biest,76,50.7333271644,3.5852425419
9600,Ronse,Groeneweg,14,50.7546608999,3.58829273574
9600,Ronse,Zonnestraat,427,50.7490442101,3.56568920537
9600,Ronse,Zonnestraat,150,50.7490191882,3.58749989344
9600,Ronse,Sint-Ambrosiusstraat,35,50.7526483951,3.60412741195
9600,Ronse,Oudestraat,33,50.7545808286,3.59321158057
9600,Ronse,Germinal,24,50.7479483822,3.62228607243
9600,Ronse,Germinal,77,50.7471215774,3.62661932126
9600,Ronse,Beukenlaan,21,50.7433227201,3.6070896068
9600,Ronse,Oudestraat,86,50.7566077593,3.59094627744
9600,Ronse,Edmond Van Beverenplein,16,50.7549473816,3.61046402713
9600,Ronse,Karnemelkbeekstraat,5,50.7545416241,3.54193032821
9600,Ronse,Remi Van Caeneghemstraat,1,50.7593569377,3.5859338522
9600,Ronse,Rode Broeckstraat,152,50.738367468,3.60614788387
9600,Ronse,Geraardsbergenstraat,219,50.7494450463,3.6239913481
9600,Ronse,Fiertelmeers,32,50.7539382375,3.59133073735
9600,Ronse,Saint-Sauveurstraat,137,50.7348693155,3.5973967777
9600,Ronse,Libbrechtstraat,49,50.7525822067,3.5969405885
9600,Ronse,Aatstraat,58,50.7415998671,3.60828476933
9600,Ronse,Broeke,16,50.754357752,3.59409038806
9600,Ronse,Engelsenlaan,87,50.7438520956,3.58364889791
9600,Ronse,Kruisstraat,66,50.7518498723,3.59480261789
9600,Ronse,Deurnemeers,54,50.731819333,3.61163436753
9600,Ronse,Saint-Sauveurstraat,58,50.7389609593,3.59872182045
9600,Ronse,Mussenstraat,4,50.7495639461,3.57591838283
9600,Ronse,Rotterij,154,50.7436011607,3.62712487462
9600,Ronse,Prolstraat,2A,50.7606065945,3.63609301034
9600,Ronse,Oude Leuzesesteenweg,41,50.7385886269,3.58724667779
9600,Ronse,Maagdenstraat,63,50.7465946212,3.63272547421
9600,Ronse,Geraardsbergenstraat,33,50.7468682966,3.61553049452
9600,Ronse,Geraardsbergenstraat,86,50.7497215056,3.62067738656
9600,Ronse,Edouard Jolystraat,23,50.7592025241,3.59424534295
9600,Ronse,Blauwesteen,10,50.7450731465,3.61244954612
9600,Ronse,Langehaag,82,50.7518644959,3.59323472449
9600,Ronse,Beekstraat,64,50.7556680137,3.61809686473
9600,Ronse,Charles Vandendoorenstraat,10,50.7462090359,3.60251389029
9600,Ronse,Spinstersstraat,92,50.7503760656,3.59041408151
9600,Ronse,Voorzienigheidsstraat,27,50.7528316179,3.59306476756
9600,Ronse,Broeke,69,50.7540063224,3.59645937059
9600,Ronse,Populierstraat,18,50.7576682969,3.62863354764
9600,Ronse,Scheldekouter,705,50.7396659133,3.61588624424
9600,Ronse,Willocqsteegje,2,50.745827956,3.60173338215
9600,Ronse,Papekouters,37,50.7412271972,3.61990338416
9600,Ronse,Langehaag,176,50.7537895244,3.59164015751
9600,Ronse,Bredestraat,236,50.7483799965,3.61641126815
9600,Ronse,Zonnestraat,139,50.7494945625,3.58767071014
9600,Ronse,Klevestraat,75,50.7569648552,3.5934154261
9600,Ronse,Fiertelmeers,14,50.7538555498,3.59217449186
9600,Ronse,Rotterij,221,50.7435113153,3.62973677288
9600,Ronse,Germinal,16D,50.7488006614,3.62413784724
9600,Ronse,Beekstraat,46,50.7549648067,3.6166959235
9600,Ronse,Groeneweg,32,50.7551146321,3.58807617929
9600,Ronse,Spinstersstraat,132,50.7501922277,3.58863199263
9600,Ronse,Klevestraat,22,50.7554847675,3.59719678535
9600,Ronse,Louis Vangrootenbruelstraat,16,50.7445098095,3.59168158519
9600,Ronse,Rotterij,256,50.7422028667,3.63104647394
9600,Ronse,Bosrede,2H,50.7588508639,3.63944370894
9600,Ronse,Germinal,59,50.7469710496,3.62317413294
9600,Ronse,Savooistraat,171,50.762723933,3.62568165711
9600,Ronse,Scheldekouter,435,50.7409539873,3.61449589882
9600,Ronse,Fostierlaan,48,50.7438185802,3.59836832108
9600,Ronse,Neerhofstraat,5,50.7493610843,3.59365695495
9600,Ronse,Hemelberg,13,50.7562569445,3.59942628881
9600,Ronse,Rode Broeckstraat,170,50.7376969783,3.60585838086
9600,Ronse,Floréal,283,50.7429402196,3.57876973172
9600,Ronse,Saint-Sauveurstraat,119,50.7357213074,3.59781775901
9600,Ronse,Brokelaerestraat,17,50.7226380516,3.63560843352
9600,Ronse,Broeke,34,50.7546352905,3.59454075984
9600,Ronse,Leuzesesteenweg,174,50.7382071101,3.58926109073
9600,Ronse,Peperstraat,29,50.7473009839,3.5998926666
9600,Ronse,Moortelstraat,5,50.7408962682,3.58673804771
9600,Ronse,Snoecksteegje,3,50.7471559683,3.59315573336
9600,Ronse,Kruisstraat,127,50.7534662958,3.59402453974
9600,Ronse,Sint-Martensstraat,5A,50.7476238381,3.59960739804
9600,Ronse,Stooktstraat,78A,50.7370221271,3.60298658972
9600,Ronse,Emmanuel Hielstraat,12,50.7497272515,3.5873234945
9600,Ronse,Kammeland,12,50.7568658511,3.60324178808
9600,Ronse,Napoléon Annicqstraat,6,50.7505330242,3.60911990118
9600,Ronse,Grote Marijve,128,50.7469365946,3.61202516326
9600,Ronse,Stationsstraat,34,50.743338855,3.60158613253
9600,Ronse,Jules Bordetlaan,26,50.7392762534,3.60407391097
9600,Ronse,Leuzesesteenweg,228,50.7362994884,3.58987247024
9600,Ronse,Bredestraat,189,50.7472901904,3.61332214607
9600,Ronse,Ooststraat,31,50.7419307535,3.62716318824
9600,Ronse,Savooistraat,153,50.7612141614,3.62524805363
9600,Ronse,Hector Denisstraat,58,50.7343887611,3.60483993445
9600,Ronse,Dammekensstraat,81,50.7556622722,3.61004591514
9600,Ronse,Edmond Picardlaan,110,50.7336019741,3.6034003792
9600,Ronse,Jean Monnetstraat,2,50.7452329042,3.61760510019
9600,Ronse,Floréal,319,50.7427697339,3.57525432912
9600,Ronse,Rode Broeckstraat,17,50.7419596657,3.60503933621
9600,Ronse,Ruyffelaerekoer,4,50.7508563332,3.61023308179
9600,Ronse,Blauwesteen,187,50.743690788,3.62028352123
9600,Ronse,Elzelestraat,98,50.7457504604,3.60886438891
9600,Ronse,Waatsbrugstraat,75,50.7463734406,3.61672838137
